price,bathrooms,bedrooms,parking,type,street,suburb,postcode,latitude,longitude,school,furnished,SA2_code,nearestHospital,hospital_distance,to_hospital_time
500.0,2,4,2,House,7 Bainbridge Road,MANOR LAKES,3024.0,-37.876713,144.58646,"Ngarri Primary School1.1 km awayPrep-6CoEdGovernmentView Catchment,Manor Lakes P-12 College1.4 km awayPrep-12CoEdGovernmentView Catchment,Walcom Ngarrwa Secondary College3.8 km awayGovernmentMore Info",False,213051579.0,"{'dist': 8.914868435377036, 'nearest_coord': (-37.890649, 144.686494)}",10783.0,1153.6
470.0,2,4,2,House,16 Allspice Street,MANOR LAKES,3024.0,-37.86272,144.59718,"Ngarri Primary School1.2 km awayPrep-6CoEdGovernmentView Catchment,Manor Lakes P-12 College1.3 km awayPrep-12CoEdGovernmentView Catchment,Brinbeal Secondary College4 km awayGovernmentMore Info",False,213051579.0,"{'dist': 8.431841612878053, 'nearest_coord': (-37.890649, 144.686494)}",10176.0,970.1
470.0,2,3,1,House,5 Graded Street,MANOR LAKES,3024.0,-37.8633,144.57654,"Ngarri Primary School0.8 km awayPrep-6CoEdGovernmentView Catchment,Manor Lakes P-12 College2.6 km awayPrep-12CoEdGovernmentView Catchment,Our Lady of the Southern Cross3 km awayPrep-6CoEdCatholicMore Info",False,213051579.0,"{'dist': 10.118438526250262, 'nearest_coord': (-37.890649, 144.686494)}",12600.6,1269.6
460.0,2,3,1,House,16 Brushton Street,MANOR LAKES,3024.0,-37.875862,144.58565,"Ngarri Primary School1 km awayPrep-6CoEdGovernmentView Catchment,Manor Lakes P-12 College1.5 km awayPrep-12CoEdGovernmentView Catchment,Walcom Ngarrwa Secondary College3.9 km awayGovernmentMore Info",False,213051579.0,"{'dist': 9.001734836158105, 'nearest_coord': (-37.890649, 144.686494)}",10998.0,1179.9
440.0,2,3,2,House,17 Edenvale Street,MANOR LAKES,3024.0,-37.86755,144.59514,"Manor Lakes P-12 College1 km awayPrep-12CoEdGovernmentView Catchment,Ngarri Primary School0.9 km awayPrep-6CoEdGovernmentMore Info,Laa Yulta Primary School2 km awayGovernmentMore Info",False,213051579.0,"{'dist': 8.419240457033965, 'nearest_coord': (-37.890649, 144.686494)}",10458.5,1018.9
400.0,2,3,2,House,10 Cassata Road,MANOR LAKES,3024.0,-37.86691,144.57591,"Ngarri Primary School0.8 km awayPrep-6CoEdGovernmentView Catchment,Manor Lakes P-12 College2.5 km awayPrep-12CoEdGovernmentView Catchment,Our Lady of the Southern Cross2.8 km awayPrep-6CoEdCatholicMore Info",False,213051579.0,"{'dist': 10.058239098829223, 'nearest_coord': (-37.890649, 144.686494)}",12361.0,1244.8
600.0,2,4,2,House,24 Goodison Grove,MOUNT COTTRELL,3024.0,-37.82841,144.6485,"Tarneit Rise Primary School1.7 km awayPrep-6CoEdGovernmentView Catchment,Tarneit Senior College2.8 km away10-12CoEdGovernmentView Catchment,Tarneit P-9 College3 km awayPrep-9CoEdGovernmentView Catchment",False,213051582.0,"{'dist': 7.682533589007513, 'nearest_coord': (-37.890649, 144.686494)}",11558.3,1086.3
1200.0,2,1,4,House,1407 Dohertys Road,MOUNT COTTRELL,3024.0,-37.815697,144.64928,"Tarneit Senior College3.3 km away10-12CoEdGovernmentView Catchment,Tarneit P-9 College3.6 km awayPrep-9CoEdGovernmentView Catchment,Wimba Primary School2 km awayGovernmentMore Info",False,213051582.0,"{'dist': 8.951860849612565, 'nearest_coord': (-37.890649, 144.686494)}",12899.8,1138.4
470.0,2,4,2,House,24 Fusion Drive,WYNDHAM VALE,3024.0,-37.861927,144.60197,"Manor Lakes P-12 College1.4 km awayPrep-12CoEdGovernmentView Catchment,Ngarri Primary School1.6 km awayPrep-6CoEdGovernmentMore Info,Laa Yulta Primary School2.7 km awayGovernmentMore Info",False,213051589.0,"{'dist': 8.076964453335554, 'nearest_coord': (-37.890649, 144.686494)}",10216.9,969.5
430.0,1,3,1,House,9 Clover Lane,WYNDHAM VALE,3024.0,-37.88658,144.62262,"Riverbend Primary School1.1 km awayPrep-6CoEdGovernmentView Catchment,Manor Lakes P-12 College2.3 km awayPrep-12CoEdGovernmentView Catchment,Wyndham Central Secondary College2.7 km away7-12CoEdGovernmentMore Info",False,213051590.0,"{'dist': 5.623547576752838, 'nearest_coord': (-37.890649, 144.686494)}",7111.2,677.6
430.0,2,3,1,House,56 Grangehill Mews,WYNDHAM VALE,3024.0,-37.84955,144.59538,"Ngarri Primary School2.1 km awayPrep-6CoEdGovernmentView Catchment,Manor Lakes P-12 College2.8 km awayPrep-12CoEdGovernmentView Catchment,Brinbeal Secondary College4.1 km awayGovernmentMore Info",False,213051589.0,"{'dist': 9.211389160775308, 'nearest_coord': (-37.890649, 144.686494)}",12049.1,1107.3
520.0,2,4,2,House,10 Tasker Street,WYNDHAM VALE,3024.0,-37.86878,144.61858,"Riverbend Primary School1.2 km awayPrep-6CoEdGovernmentView Catchment,Manor Lakes P-12 College1.6 km awayPrep-12CoEdGovernmentView Catchment,Brinbeal Secondary College2.6 km awayGovernmentMore Info",False,213051589.0,"{'dist': 6.437521809751976, 'nearest_coord': (-37.890649, 144.686494)}",8925.3,851.0
510.0,2,4,2,House,59 Welcome Parade,WYNDHAM VALE,3024.0,-37.852295,144.59398,"Ngarri Primary School1.8 km awayPrep-6CoEdGovernmentView Catchment,Manor Lakes P-12 College2.5 km awayPrep-12CoEdGovernmentView Catchment,Brinbeal Secondary College4.2 km awayGovernmentMore Info",False,213051589.0,"{'dist': 9.172315611681059, 'nearest_coord': (-37.890649, 144.686494)}",11525.5,1055.9
5002173.0,2,4,2,House,5 Somerdale Avenue,WYNDHAM VALE,3024.0,-37.873577,144.6249,"Riverbend Primary School0.5 km awayPrep-6CoEdGovernmentView Catchment,Manor Lakes P-12 College2 km awayPrep-12CoEdGovernmentView Catchment,Brinbeal Secondary College2.6 km awayGovernmentMore Info",False,213051589.0,"{'dist': 5.729339724109439, 'nearest_coord': (-37.890649, 144.686494)}",8251.4,843.5
480.0,2,3,1,Townhouse,13 Wheatsheaf Road,WYNDHAM VALE,3024.0,-37.863182,144.62146,"Riverbend Primary School1.6 km awayPrep-6CoEdGovernmentView Catchment,Manor Lakes P-12 College2.1 km awayPrep-12CoEdGovernmentView Catchment,Brinbeal Secondary College2 km awayGovernmentMore Info",False,213051589.0,"{'dist': 6.473762440941233, 'nearest_coord': (-37.890649, 144.686494)}",9894.8,982.6
500.0,2,3,2,House,10 Amadeus Street,WYNDHAM VALE,3024.0,-37.877712,144.6016,"Manor Lakes P-12 College0.4 km awayPrep-12CoEdGovernmentView Catchment,Laa Yulta Primary School1 km awayGovernmentMore Info,Ngarri Primary School1.9 km awayPrep-6CoEdGovernmentMore Info",False,213051579.0,"{'dist': 7.587998665015204, 'nearest_coord': (-37.890649, 144.686494)}",9249.6,956.8
4480.0,2,4,2,House,75 Brightvale Boulevard,WYNDHAM VALE,3024.0,-37.86489,144.61717,"Riverbend Primary School1.6 km awayPrep-6CoEdGovernmentView Catchment,Manor Lakes P-12 College1.7 km awayPrep-12CoEdGovernmentView Catchment,Brinbeal Secondary College2.4 km awayGovernmentMore Info",False,213051589.0,"{'dist': 6.7249523297948475, 'nearest_coord': (-37.890649, 144.686494)}",9435.6,924.5
540.0,2,4,2,House,1266 Ison Road,WYNDHAM VALE,3024.0,-37.863434,144.5983,"Manor Lakes P-12 College1.2 km awayPrep-12CoEdGovernmentView Catchment,Ngarri Primary School1.2 km awayPrep-6CoEdGovernmentMore Info,Laa Yulta Primary School2.4 km awayGovernmentMore Info",False,213051579.0,"{'dist': 8.31125815588404, 'nearest_coord': (-37.890649, 144.686494)}",10439.0,985.6
530.0,2,4,2,House,23 Eshal Crescent,WYNDHAM VALE,3024.0,-37.8679,144.62889,"Riverbend Primary School1 km awayPrep-6CoEdGovernmentView Catchment,Manor Lakes P-12 College2.4 km awayPrep-12CoEdGovernmentView Catchment,Brinbeal Secondary College1.9 km awayGovernmentMore Info",False,213051589.0,"{'dist': 5.653242498642647, 'nearest_coord': (-37.890649, 144.686494)}",9165.7,991.1
530.0,2,4,2,House,3 Worope Street,WYNDHAM VALE,3024.0,-37.86255,144.62102,"Riverbend Primary School1.7 km awayPrep-6CoEdGovernmentView Catchment,Manor Lakes P-12 College2.1 km awayPrep-12CoEdGovernmentView Catchment,Brinbeal Secondary College2 km awayGovernmentMore Info",False,213051589.0,"{'dist': 6.541135604706802, 'nearest_coord': (-37.890649, 144.686494)}",9953.3,995.0
520.0,2,4,2,House,47 Cloudburst Avenue,WYNDHAM VALE,3024.0,-37.867577,144.6182,"Riverbend Primary School1.3 km awayPrep-6CoEdGovernmentView Catchment,Manor Lakes P-12 College1.6 km awayPrep-12CoEdGovernmentView Catchment,Brinbeal Secondary College2.5 km awayGovernmentMore Info",False,213051589.0,"{'dist': 6.519926170043811, 'nearest_coord': (-37.890649, 144.686494)}",9110.1,877.6
500.0,2,3,2,House,1 Kilford Walk,WYNDHAM VALE,3024.0,-37.84839,144.58862,"Ngarri Primary School2.1 km awayPrep-6CoEdGovernmentView Catchment,Manor Lakes P-12 College3.1 km awayPrep-12CoEdGovernmentView Catchment,Brinbeal Secondary College4.7 km awayGovernmentMore Info",False,213051589.0,"{'dist': 9.79234209586875, 'nearest_coord': (-37.890649, 144.686494)}",12128.1,1140.9
500.0,2,4,2,House,100 Ribblesdale Avenue,WYNDHAM VALE,3024.0,-37.89474,144.60822,"Wyndham Vale Primary School0.3 km awayPrep-6CoEdGovernmentView Catchment,Manor Lakes P-12 College2.3 km awayPrep-12CoEdGovernmentView Catchment,Walcom Ngarrwa Secondary College1.4 km awayGovernmentMore Info",False,213051590.0,"{'dist': 6.883667143540186, 'nearest_coord': (-37.890649, 144.686494)}",8552.6,810.5
500.0,2,4,2,House,11 Worope Street,WYNDHAM VALE,3024.0,-37.863598,144.62158,"Riverbend Primary School1.6 km awayPrep-6CoEdGovernmentView Catchment,Manor Lakes P-12 College2.1 km awayPrep-12CoEdGovernmentView Catchment,Brinbeal Secondary College2 km awayGovernmentMore Info",False,213051589.0,"{'dist': 6.442737986094642, 'nearest_coord': (-37.890649, 144.686494)}",9874.2,979.6
500.0,2,4,2,House,6 Bungalook Street,WYNDHAM VALE,3024.0,-37.864532,144.602,"Manor Lakes P-12 College1.1 km awayPrep-12CoEdGovernmentView Catchment,Ngarri Primary School1.5 km awayPrep-6CoEdGovernmentMore Info,Laa Yulta Primary School2.4 km awayGovernmentMore Info",False,213051579.0,"{'dist': 7.9642973660958924, 'nearest_coord': (-37.890649, 144.686494)}",9899.1,954.0
485.0,2,4,2,House,17 Pembury Way,WYNDHAM VALE,3024.0,-37.898563,144.60655,"Wyndham Vale Primary School0.5 km awayPrep-6CoEdGovernmentView Catchment,Manor Lakes P-12 College2.7 km awayPrep-12CoEdGovernmentView Catchment,Walcom Ngarrwa Secondary College1 km awayGovernmentMore Info",False,213051590.0,"{'dist': 7.069962350490699, 'nearest_coord': (-37.890649, 144.686494)}",9314.5,851.3
480.0,2,4,2,House,8 Jessen Way,WYNDHAM VALE,3024.0,-37.84932,144.5932,"Ngarri Primary School2.1 km awayPrep-6CoEdGovernmentView Catchment,Manor Lakes P-12 College2.9 km awayPrep-12CoEdGovernmentView Catchment,Brinbeal Secondary College4.3 km awayGovernmentMore Info",False,213051589.0,"{'dist': 9.390515122656419, 'nearest_coord': (-37.890649, 144.686494)}",12067.1,1121.0
480.0,2,3,2,Townhouse,1 Fritelli Circuit,WYNDHAM VALE,3024.0,-37.862633,144.60316,"Manor Lakes P-12 College1.3 km awayPrep-12CoEdGovernmentView Catchment,Ngarri Primary School1.7 km awayPrep-6CoEdGovernmentMore Info,Laa Yulta Primary School2.6 km awayGovernmentMore Info",False,213051589.0,"{'dist': 7.95001561744433, 'nearest_coord': (-37.890649, 144.686494)}",10347.2,988.3
500.0,2,3,1,House,20 Sprightly Street,WYNDHAM VALE,3024.0,-37.86147,144.60367,"Manor Lakes P-12 College1.4 km awayPrep-12CoEdGovernmentView Catchment,Ngarri Primary School1.8 km awayPrep-6CoEdGovernmentMore Info,Riverbend Primary School2.7 km awayPrep-6CoEdGovernmentMore Info",False,213051589.0,"{'dist': 7.960730154462502, 'nearest_coord': (-37.890649, 144.686494)}",10444.6,1002.3
470.0,2,4,2,House,20 Burchelli Way,WYNDHAM VALE,3024.0,-37.89438,144.6074,"Wyndham Vale Primary School0.3 km awayPrep-6CoEdGovernmentView Catchment,Manor Lakes P-12 College2.3 km awayPrep-12CoEdGovernmentView Catchment,Walcom Ngarrwa Secondary College1.4 km awayGovernmentMore Info",False,213051590.0,"{'dist': 6.952980913424434, 'nearest_coord': (-37.890649, 144.686494)}",8642.9,817.5
470.0,2,4,2,Townhouse,18 Wetherby Road,WYNDHAM VALE,3024.0,-37.843925,144.59238,"Ngarri Primary School2.6 km awayPrep-6CoEdGovernmentView Catchment,Manor Lakes P-12 College3.5 km awayPrep-12CoEdGovernmentView Catchment,Brinbeal Secondary College4.5 km awayGovernmentMore Info",False,213051589.0,"{'dist': 9.759326897164689, 'nearest_coord': (-37.890649, 144.686494)}",12808.9,1192.6
460.0,2,4,2,House,10 Plumstead Street,WYNDHAM VALE,3024.0,-37.850822,144.59735,"Ngarri Primary School2.1 km awayPrep-6CoEdGovernmentView Catchment,Manor Lakes P-12 College2.6 km awayPrep-12CoEdGovernmentView Catchment,Brinbeal Secondary College3.9 km awayGovernmentMore Info",False,213051589.0,"{'dist': 8.991094467956907, 'nearest_coord': (-37.890649, 144.686494)}",11864.2,1083.3
460.0,2,3,2,House,53 Brightvale Boulevard,WYNDHAM VALE,3024.0,-37.865433,144.6152,"Manor Lakes P-12 College1.5 km awayPrep-12CoEdGovernmentView Catchment,Riverbend Primary School1.7 km awayPrep-6CoEdGovernmentMore Info,Brinbeal Secondary College2.6 km awayGovernmentMore Info",False,213051589.0,"{'dist': 6.85685213331079, 'nearest_coord': (-37.890649, 144.686494)}",9318.2,904.8
450.0,2,4,2,House,6 Kirsten Street,WYNDHAM VALE,3024.0,-37.864742,144.62607,"Riverbend Primary School1.4 km awayPrep-6CoEdGovernmentView Catchment,Manor Lakes P-12 College2.3 km awayPrep-12CoEdGovernmentView Catchment,Brinbeal Secondary College1.8 km awayGovernmentMore Info",False,213051589.0,"{'dist': 6.03523653711768, 'nearest_coord': (-37.890649, 144.686494)}",10089.1,1015.9
450.0,2,3,1,House,93 Honour Avenue,WYNDHAM VALE,3024.0,-37.89787,144.62648,"Iramoo Primary School0.3 km awayPrep-6CoEdGovernmentView Catchment,Wyndham Central Secondary College2.6 km away7-12CoEdGovernmentView Catchment,St Joseph's Catholic Primary School1.6 km awayPrep-6CoEdCatholicMore Info",False,213051590.0,"{'dist': 5.327036107211652, 'nearest_coord': (-37.890649, 144.686494)}",6703.5,605.8
450.0,2,3,4,House,12 Surveyor Street,WYNDHAM VALE,3024.0,-37.87899,144.63202,"Riverbend Primary School0.4 km awayPrep-6CoEdGovernmentView Catchment,Wyndham Central Secondary College2.1 km away7-12CoEdGovernmentView Catchment,Christway College - Wyndham1.4 km awayPrivateMore Info",False,213051589.0,"{'dist': 4.953322645119242, 'nearest_coord': (-37.890649, 144.686494)}",7752.7,771.7
450.0,2,4,2,House,21 Micropora Drive,WYNDHAM VALE,3024.0,-37.868214,144.62975,"Riverbend Primary School1 km awayPrep-6CoEdGovernmentView Catchment,Manor Lakes P-12 College2.5 km awayPrep-12CoEdGovernmentView Catchment,Brinbeal Secondary College1.8 km awayGovernmentMore Info",False,213051589.0,"{'dist': 5.570108703392539, 'nearest_coord': (-37.890649, 144.686494)}",9283.1,1008.0
440.0,2,3,1,House,15 Riveting Road,WYNDHAM VALE,3024.0,-37.861595,144.60324,"Manor Lakes P-12 College1.4 km awayPrep-12CoEdGovernmentView Catchment,Ngarri Primary School1.7 km awayPrep-6CoEdGovernmentMore Info,Laa Yulta Primary School2.7 km awayGovernmentMore Info",False,213051589.0,"{'dist': 7.989573315952702, 'nearest_coord': (-37.890649, 144.686494)}",10346.8,988.2
4301868.0,2,4,2,House,2 Halladale Avenue,WYNDHAM VALE,3024.0,-37.882717,144.6251,"Riverbend Primary School0.7 km awayPrep-6CoEdGovernmentView Catchment,Manor Lakes P-12 College2.2 km awayPrep-12CoEdGovernmentView Catchment,Wyndham Central Secondary College2.5 km away7-12CoEdGovernmentMore Info",False,213051589.0,"{'dist': 5.459538813430639, 'nearest_coord': (-37.890649, 144.686494)}",6807.9,635.6
430.0,1,3,1,House,15 Castlerock Drive,WYNDHAM VALE,3024.0,-37.882755,144.61961,"Riverbend Primary School0.9 km awayPrep-6CoEdGovernmentView Catchment,Manor Lakes P-12 College1.8 km awayPrep-12CoEdGovernmentView Catchment,Walcom Ngarrwa Secondary College3 km awayGovernmentMore Info",False,213051590.0,"{'dist': 5.93488471884951, 'nearest_coord': (-37.890649, 144.686494)}",7457.3,690.3
430.0,2,3,1,House,44 Grangehill Mews,WYNDHAM VALE,3024.0,-37.84919,144.59576,"Ngarri Primary School2.2 km awayPrep-6CoEdGovernmentView Catchment,Manor Lakes P-12 College2.8 km awayPrep-12CoEdGovernmentView Catchment,Brinbeal Secondary College4.1 km awayGovernmentMore Info",False,213051589.0,"{'dist': 9.20244801371639, 'nearest_coord': (-37.890649, 144.686494)}",12101.2,1114.8
425.0,2,3,2,House,3 Vacca Street,WYNDHAM VALE,3024.0,-37.851616,144.58702,"Ngarri Primary School1.7 km awayPrep-6CoEdGovernmentView Catchment,Manor Lakes P-12 College2.8 km awayPrep-12CoEdGovernmentView Catchment,Brinbeal Secondary College4.8 km awayGovernmentMore Info",False,213051589.0,"{'dist': 9.75074525984061, 'nearest_coord': (-37.890649, 144.686494)}",11649.1,1070.6
400.0,1,3,2,House,4 Burgundy Drive,WYNDHAM VALE,3024.0,-37.888687,144.62917,"Iramoo Primary School0.8 km awayPrep-6CoEdGovernmentView Catchment,Wyndham Central Secondary College2.1 km away7-12CoEdGovernmentView Catchment,Christway College - Wyndham1.7 km awayPrivateMore Info",False,213051589.0,"{'dist': 5.035172413169917, 'nearest_coord': (-37.890649, 144.686494)}",6273.9,612.2
500.0,2,4,2,House,28 Kallang Rd,WYNDHAM VALE,3024.0,-37.87069,144.61809,"Riverbend Primary School1.1 km awayPrep-6CoEdGovernmentView Catchment,Manor Lakes P-12 College1.4 km awayPrep-12CoEdGovernmentView Catchment,Brinbeal Secondary College2.7 km awayGovernmentMore Info",False,213051589.0,"{'dist': 6.400583676024796, 'nearest_coord': (-37.890649, 144.686494)}",8749.5,825.7
480.0,3,4,2,House,56 Fitzrovia Drive,WYNDHAM VALE,3024.0,-37.848183,144.59602,"Ngarri Primary School2.3 km awayPrep-6CoEdGovernmentView Catchment,Manor Lakes P-12 College2.9 km awayPrep-12CoEdGovernmentView Catchment,Brinbeal Secondary College4.1 km awayGovernmentMore Info",False,213051589.0,"{'dist': 9.239471780844555, 'nearest_coord': (-37.890649, 144.686494)}",12177.9,1110.6
460.0,2,3,2,House,30 Grappa Circuit,WYNDHAM VALE,3024.0,-37.86235,144.60088,"Manor Lakes P-12 College1.3 km awayPrep-12CoEdGovernmentView Catchment,Ngarri Primary School1.5 km awayPrep-6CoEdGovernmentMore Info,Laa Yulta Primary School2.6 km awayGovernmentMore Info",False,213051589.0,"{'dist': 8.1466221154052, 'nearest_coord': (-37.890649, 144.686494)}",10301.5,981.7
680.0,2,4,2,House,15 Laurimar Grove,WYNDHAM VALE,3024.0,-37.87162,144.61519,"Manor Lakes P-12 College1.2 km awayPrep-12CoEdGovernmentView Catchment,Riverbend Primary School1.3 km awayPrep-6CoEdGovernmentView Catchment,Brinbeal Secondary College3 km awayGovernmentMore Info",False,213051589.0,"{'dist': 6.606016459190718, 'nearest_coord': (-37.890649, 144.686494)}",8430.3,799.0
600.0,3,4,2,House,106 Brightvale Boulevard,WYNDHAM VALE,3024.0,-37.86483,144.61938,"Riverbend Primary School1.5 km awayPrep-6CoEdGovernmentView Catchment,Manor Lakes P-12 College1.8 km awayPrep-12CoEdGovernmentView Catchment,Brinbeal Secondary College2.3 km awayGovernmentMore Info",False,213051589.0,"{'dist': 6.55290001615725, 'nearest_coord': (-37.890649, 144.686494)}",9589.5,938.6
570.0,2,5,2,House,22 Ervine Drive,WYNDHAM VALE,3024.0,-37.868977,144.62852,"Riverbend Primary School0.9 km awayPrep-6CoEdGovernmentView Catchment,Manor Lakes P-12 College2.4 km awayPrep-12CoEdGovernmentView Catchment,Brinbeal Secondary College2 km awayGovernmentMore Info",False,213051589.0,"{'dist': 5.629978344735365, 'nearest_coord': (-37.890649, 144.686494)}",9104.0,982.2
560.0,4,4,2,House,41 Margie Street,WYNDHAM VALE,3024.0,-37.86967,144.62946,"Riverbend Primary School0.9 km awayPrep-6CoEdGovernmentView Catchment,Manor Lakes P-12 College2.4 km awayPrep-12CoEdGovernmentView Catchment,Brinbeal Secondary College2 km awayGovernmentMore Info",False,213051589.0,"{'dist': 5.522519464122159, 'nearest_coord': (-37.890649, 144.686494)}",9133.9,984.6
560.0,3,4,3,House,21 Gala Ave,WYNDHAM VALE,3024.0,-37.86626,144.61487,"Manor Lakes P-12 College1.4 km awayPrep-12CoEdGovernmentView Catchment,Riverbend Primary School1.6 km awayPrep-6CoEdGovernmentMore Info,Ngarri Primary School2.6 km awayPrep-6CoEdGovernmentMore Info",False,213051589.0,"{'dist': 6.846317336506963, 'nearest_coord': (-37.890649, 144.686494)}",9217.8,892.1
545.0,2,4,2,House,16 Thea Close,WYNDHAM VALE,3024.0,-37.8712,144.62169,"Riverbend Primary School0.8 km awayPrep-6CoEdGovernmentView Catchment,Manor Lakes P-12 College1.7 km awayPrep-12CoEdGovernmentView Catchment,Brinbeal Secondary College2.6 km awayGovernmentMore Info",False,213051589.0,"{'dist': 6.084809267057677, 'nearest_coord': (-37.890649, 144.686494)}",8975.1,853.4
550.0,2,4,2,House,12 Grangehill Mews,WYNDHAM VALE,3024.0,-37.849964,144.59624,"Ngarri Primary School2.1 km awayPrep-6CoEdGovernmentView Catchment,Manor Lakes P-12 College2.7 km awayPrep-12CoEdGovernmentView Catchment,Brinbeal Secondary College4 km awayGovernmentMore Info",False,213051589.0,"{'dist': 9.12298779400659, 'nearest_coord': (-37.890649, 144.686494)}",11926.1,1093.7
540.0,2,4,2,House,12 Gosford Road,WYNDHAM VALE,3024.0,-37.893703,144.61307,"Wyndham Vale Primary School0.3 km awayPrep-6CoEdGovernmentView Catchment,Manor Lakes P-12 College2.4 km awayPrep-12CoEdGovernmentView Catchment,Walcom Ngarrwa Secondary College1.6 km awayGovernmentMore Info",False,213051590.0,"{'dist': 6.452016159505793, 'nearest_coord': (-37.890649, 144.686494)}",8265.2,770.6
530.0,2,5,2,House,74 Stanmore Crescent,WYNDHAM VALE,3024.0,-37.8514,144.59245,"Ngarri Primary School1.8 km awayPrep-6CoEdGovernmentView Catchment,Manor Lakes P-12 College2.7 km awayPrep-12CoEdGovernmentView Catchment,Brinbeal Secondary College4.4 km awayGovernmentMore Info",False,213051589.0,"{'dist': 9.337565855971972, 'nearest_coord': (-37.890649, 144.686494)}",11687.3,1069.1
530.0,2,4,2,House,13 Papas View,WYNDHAM VALE,3024.0,-37.848427,144.59053,"Ngarri Primary School2.1 km awayPrep-6CoEdGovernmentView Catchment,Manor Lakes P-12 College3 km awayPrep-12CoEdGovernmentView Catchment,Brinbeal Secondary College4.6 km awayGovernmentMore Info",False,213051589.0,"{'dist': 9.643579397752633, 'nearest_coord': (-37.890649, 144.686494)}",12186.3,1132.9
520.0,2,4,2,House,137 Stanmore Crescent,WYNDHAM VALE,3024.0,-37.853268,144.59633,"Ngarri Primary School1.8 km awayPrep-6CoEdGovernmentView Catchment,Manor Lakes P-12 College2.4 km awayPrep-12CoEdGovernmentView Catchment,Brinbeal Secondary College4 km awayGovernmentMore Info",False,213051589.0,"{'dist': 8.939342947356899, 'nearest_coord': (-37.890649, 144.686494)}",11654.8,1069.0
520.0,2,4,2,House,14 Greenmont Road,WYNDHAM VALE,3024.0,-37.858463,144.5973,"Ngarri Primary School1.4 km awayPrep-6CoEdGovernmentView Catchment,Manor Lakes P-12 College1.8 km awayPrep-12CoEdGovernmentView Catchment,Brinbeal Secondary College3.9 km awayGovernmentMore Info",False,213051589.0,"{'dist': 8.608056109762899, 'nearest_coord': (-37.890649, 144.686494)}",10710.3,1012.0
510.0,2,4,2,House,2 Sue Street,WYNDHAM VALE,3024.0,-37.873585,144.61847,"Riverbend Primary School0.9 km awayPrep-6CoEdGovernmentView Catchment,Manor Lakes P-12 College1.4 km awayPrep-12CoEdGovernmentView Catchment,Brinbeal Secondary College2.9 km awayGovernmentMore Info",False,213051589.0,"{'dist': 6.2643043940958325, 'nearest_coord': (-37.890649, 144.686494)}",8167.5,798.3
510.0,2,3,2,House,16 Pristine Drive,WYNDHAM VALE,3024.0,-37.872955,144.6184,"Riverbend Primary School0.9 km awayPrep-6CoEdGovernmentView Catchment,Manor Lakes P-12 College1.4 km awayPrep-12CoEdGovernmentView Catchment,Brinbeal Secondary College2.9 km awayGovernmentMore Info",False,213051589.0,"{'dist': 6.291737016495847, 'nearest_coord': (-37.890649, 144.686494)}",8304.6,818.1
510.0,2,4,2,House,47 Vogue Drive,WYNDHAM VALE,3024.0,-37.87338,144.62103,"Riverbend Primary School0.7 km awayPrep-6CoEdGovernmentView Catchment,Manor Lakes P-12 College1.7 km awayPrep-12CoEdGovernmentView Catchment,Brinbeal Secondary College2.8 km awayGovernmentMore Info",False,213051589.0,"{'dist': 6.057761431636117, 'nearest_coord': (-37.890649, 144.686494)}",8452.9,845.5
510.0,2,4,2,House,33 Vogue Drive,WYNDHAM VALE,3024.0,-37.872746,144.62053,"Riverbend Primary School0.8 km awayPrep-6CoEdGovernmentView Catchment,Manor Lakes P-12 College1.6 km awayPrep-12CoEdGovernmentView Catchment,Brinbeal Secondary College2.7 km awayGovernmentMore Info",False,213051589.0,"{'dist': 6.12197967552792, 'nearest_coord': (-37.890649, 144.686494)}",8898.6,846.2
510.0,2,4,2,House,45 Vogue Drive,WYNDHAM VALE,3024.0,-37.873276,144.62096,"Riverbend Primary School0.7 km awayPrep-6CoEdGovernmentView Catchment,Manor Lakes P-12 College1.6 km awayPrep-12CoEdGovernmentView Catchment,Brinbeal Secondary College2.8 km awayGovernmentMore Info",False,213051589.0,"{'dist': 6.06726434975279, 'nearest_coord': (-37.890649, 144.686494)}",8465.9,847.4
510.0,3,4,2,House,17 Langdon Drive,WYNDHAM VALE,3024.0,-37.85183,144.59702,"Ngarri Primary School2 km awayPrep-6CoEdGovernmentView Catchment,Manor Lakes P-12 College2.5 km awayPrep-12CoEdGovernmentView Catchment,Brinbeal Secondary College4 km awayGovernmentMore Info",False,213051589.0,"{'dist': 8.96174666624857, 'nearest_coord': (-37.890649, 144.686494)}",11822.3,1087.5
500.0,2,4,4,House,63 Brougham Avenue,WYNDHAM VALE,3024.0,-37.89762,144.61601,"Wyndham Vale Primary School0.5 km awayPrep-6CoEdGovernmentView Catchment,Manor Lakes P-12 College2.9 km awayPrep-12CoEdGovernmentView Catchment,Walcom Ngarrwa Secondary College1.4 km awayGovernmentMore Info",False,213051590.0,"{'dist': 6.23330291335457, 'nearest_coord': (-37.890649, 144.686494)}",8180.5,742.1
500.0,2,4,2,House,4 Laval St,WYNDHAM VALE,3024.0,-37.869576,144.61742,"Riverbend Primary School1.2 km awayPrep-6CoEdGovernmentView Catchment,Manor Lakes P-12 College1.4 km awayPrep-12CoEdGovernmentView Catchment,Brinbeal Secondary College2.7 km awayGovernmentMore Info",False,213051589.0,"{'dist': 6.499438382497124, 'nearest_coord': (-37.890649, 144.686494)}",8845.6,838.7
495.0,2,4,2,House,123 Brightvale Boulevard,WYNDHAM VALE,3024.0,-37.86433,144.62117,"Riverbend Primary School1.5 km awayPrep-6CoEdGovernmentView Catchment,Manor Lakes P-12 College2 km awayPrep-12CoEdGovernmentView Catchment,Brinbeal Secondary College2.1 km awayGovernmentMore Info",False,213051589.0,"{'dist': 6.437146726142331, 'nearest_coord': (-37.890649, 144.686494)}",9756.0,962.6
485.0,2,4,2,House,7 Anniversary Avenue,WYNDHAM VALE,3024.0,-37.852875,144.58694,"Ngarri Primary School1.6 km awayPrep-6CoEdGovernmentView Catchment,Manor Lakes P-12 College2.7 km awayPrep-12CoEdGovernmentView Catchment,Brinbeal Secondary College4.8 km awayGovernmentMore Info",False,213051589.0,"{'dist': 9.69550272185721, 'nearest_coord': (-37.890649, 144.686494)}",11416.1,1037.1
480.0,2,4,2,House,5 Congregation Circuit,WYNDHAM VALE,3024.0,-37.853283,144.58966,"Ngarri Primary School1.6 km awayPrep-6CoEdGovernmentView Catchment,Manor Lakes P-12 College2.6 km awayPrep-12CoEdGovernmentView Catchment,Brinbeal Secondary College4.6 km awayGovernmentMore Info",False,213051589.0,"{'dist': 9.460851159456798, 'nearest_coord': (-37.890649, 144.686494)}",11413.6,1057.1
480.0,2,4,2,House,8 Gungurra Grove,WYNDHAM VALE,3024.0,-37.88554,144.61017,"Wyndham Vale Primary School1.2 km awayPrep-6CoEdGovernmentView Catchment,Manor Lakes P-12 College1.4 km awayPrep-12CoEdGovernmentView Catchment,Walcom Ngarrwa Secondary College2.4 km awayGovernmentMore Info",False,213051590.0,"{'dist': 6.721972849052257, 'nearest_coord': (-37.890649, 144.686494)}",8197.5,801.0
500.0,2,4,2,House,1 Revelry road,WYNDHAM VALE,3024.0,-37.858746,144.59828,"Ngarri Primary School1.5 km awayPrep-6CoEdGovernmentView Catchment,Manor Lakes P-12 College1.7 km awayPrep-12CoEdGovernmentView Catchment,Brinbeal Secondary College3.9 km awayGovernmentMore Info",False,213051589.0,"{'dist': 8.516732027588391, 'nearest_coord': (-37.890649, 144.686494)}",10796.0,1024.3
470.0,2,4,2,House,33 Mopane Circuit,WYNDHAM VALE,3024.0,-37.896244,144.60764,"Wyndham Vale Primary School0.3 km awayPrep-6CoEdGovernmentView Catchment,Manor Lakes P-12 College2.5 km awayPrep-12CoEdGovernmentView Catchment,Walcom Ngarrwa Secondary College1.2 km awayGovernmentMore Info",False,213051590.0,"{'dist': 6.947357101371507, 'nearest_coord': (-37.890649, 144.686494)}",8848.3,864.4
470.0,2,4,2,House,21 Cubbyhouse Road,WYNDHAM VALE,3024.0,-37.851486,144.59178,"Ngarri Primary School1.8 km awayPrep-6CoEdGovernmentView Catchment,Manor Lakes P-12 College2.7 km awayPrep-12CoEdGovernmentView Catchment,Brinbeal Secondary College4.4 km awayGovernmentMore Info",False,213051589.0,"{'dist': 9.3851522351657, 'nearest_coord': (-37.890649, 144.686494)}",11615.8,1077.3
470.0,2,4,1,House,20 Riveting Rd,WYNDHAM VALE,3024.0,-37.861916,144.60316,"Manor Lakes P-12 College1.4 km awayPrep-12CoEdGovernmentView Catchment,Ngarri Primary School1.7 km awayPrep-6CoEdGovernmentMore Info,Laa Yulta Primary School2.7 km awayGovernmentMore Info",False,213051589.0,"{'dist': 7.981626538724606, 'nearest_coord': (-37.890649, 144.686494)}",10364.6,990.8
470.0,2,3,2,House,13 Edwin Close,WYNDHAM VALE,3024.0,-37.87408,144.59277,"Manor Lakes P-12 College0.8 km awayPrep-12CoEdGovernmentView Catchment,Ngarri Primary School1.1 km awayPrep-6CoEdGovernmentMore Info,Laa Yulta Primary School1.3 km awayGovernmentMore Info",False,213051579.0,"{'dist': 8.429334972323526, 'nearest_coord': (-37.890649, 144.686494)}",10571.4,1050.3
460.0,2,4,2,House,28 Greenmont Road,WYNDHAM VALE,3024.0,-37.85892,144.598,"Ngarri Primary School1.5 km awayPrep-6CoEdGovernmentView Catchment,Manor Lakes P-12 College1.7 km awayPrep-12CoEdGovernmentView Catchment,Brinbeal Secondary College3.9 km awayGovernmentMore Info",False,213051589.0,"{'dist': 8.531052956543034, 'nearest_coord': (-37.890649, 144.686494)}",10790.0,1023.4
460.0,2,4,2,House,40 Stonecrop Way,WYNDHAM VALE,3024.0,-37.850452,144.58704,"Ngarri Primary School1.8 km awayPrep-6CoEdGovernmentView Catchment,Manor Lakes P-12 College3 km awayPrep-12CoEdGovernmentView Catchment,Brinbeal Secondary College4.8 km awayGovernmentMore Info",False,213051589.0,"{'dist': 9.807541429232277, 'nearest_coord': (-37.890649, 144.686494)}",11839.9,1098.4
480.0,3,3,1,House,6 Greenmont Road,WYNDHAM VALE,3024.0,-37.858173,144.5969,"Ngarri Primary School1.4 km awayPrep-6CoEdGovernmentView Catchment,Manor Lakes P-12 College1.8 km awayPrep-12CoEdGovernmentView Catchment,Brinbeal Secondary College4 km awayGovernmentMore Info",True,213051589.0,"{'dist': 8.653420384214044, 'nearest_coord': (-37.890649, 144.686494)}",10662.6,1005.1
460.0,2,3,2,House,12 Woolspinner Crescent,WYNDHAM VALE,3024.0,-37.862747,144.61852,"Riverbend Primary School1.8 km awayPrep-6CoEdGovernmentView Catchment,Manor Lakes P-12 College1.9 km awayPrep-12CoEdGovernmentView Catchment,Brinbeal Secondary College2.2 km awayGovernmentMore Info",False,213051589.0,"{'dist': 6.724583924580325, 'nearest_coord': (-37.890649, 144.686494)}",9871.1,969.5
480.0,2,3,2,Townhouse,20 Wetherby Road,WYNDHAM VALE,3024.0,-37.843887,144.59242,"Ngarri Primary School2.6 km awayPrep-6CoEdGovernmentView Catchment,Manor Lakes P-12 College3.5 km awayPrep-12CoEdGovernmentView Catchment,Brinbeal Secondary College4.5 km awayGovernmentMore Info",False,213051589.0,"{'dist': 9.758607325198087, 'nearest_coord': (-37.890649, 144.686494)}",12814.4,1193.5
475.0,2,3,2,House,20 Ixora Crescent,WYNDHAM VALE,3024.0,-37.86719,144.5905,"Ngarri Primary School0.5 km awayPrep-6CoEdGovernmentView Catchment,Manor Lakes P-12 College1.3 km awayPrep-12CoEdGovernmentView Catchment,Walcom Ngarrwa Secondary College4.6 km awayGovernmentMore Info",False,213051579.0,"{'dist': 8.819718695491055, 'nearest_coord': (-37.890649, 144.686494)}",11241.1,1066.1
450.0,2,3,2,Townhouse,7 Kensal Walk,WYNDHAM VALE,3024.0,-37.84408,144.59258,"Ngarri Primary School2.6 km awayPrep-6CoEdGovernmentView Catchment,Manor Lakes P-12 College3.4 km awayPrep-12CoEdGovernmentView Catchment,Brinbeal Secondary College4.5 km awayGovernmentMore Info",False,213051589.0,"{'dist': 9.7352839363452, 'nearest_coord': (-37.890649, 144.686494)}",12809.3,1192.6
450.0,2,4,2,House,27 Fritelli Cct,WYNDHAM VALE,3024.0,-37.86343,144.60248,"Manor Lakes P-12 College1.2 km awayPrep-12CoEdGovernmentView Catchment,Ngarri Primary School1.6 km awayPrep-6CoEdGovernmentMore Info,Laa Yulta Primary School2.5 km awayGovernmentMore Info",False,213051589.0,"{'dist': 7.970852904027797, 'nearest_coord': (-37.890649, 144.686494)}",10491.5,1009.0
450.0,2,3,2,House,38 Welcome Parade,WYNDHAM VALE,3024.0,-37.85403,144.59294,"Ngarri Primary School1.6 km awayPrep-6CoEdGovernmentView Catchment,Manor Lakes P-12 College2.4 km awayPrep-12CoEdGovernmentView Catchment,Brinbeal Secondary College4.3 km awayGovernmentMore Info",False,213051589.0,"{'dist': 9.165827371324129, 'nearest_coord': (-37.890649, 144.686494)}",11254.4,1027.7
440.0,2,3,1,House,58 Chapman Drive,WYNDHAM VALE,3024.0,-37.87758,144.62982,"Riverbend Primary School0.2 km awayPrep-6CoEdGovernmentView Catchment,Wyndham Central Secondary College2.4 km away7-12CoEdGovernmentView Catchment,Christway College - Wyndham1.1 km awayPrivateMore Info",False,213051589.0,"{'dist': 5.181726275272088, 'nearest_coord': (-37.890649, 144.686494)}",7696.0,763.5
440.0,2,3,1,House,44 Fitzrovia Drive,WYNDHAM VALE,3024.0,-37.848686,144.5955,"Ngarri Primary School2.2 km awayPrep-6CoEdGovernmentView Catchment,Manor Lakes P-12 College2.9 km awayPrep-12CoEdGovernmentView Catchment,Brinbeal Secondary College4.1 km awayGovernmentMore Info",False,213051589.0,"{'dist': 9.250372763580339, 'nearest_coord': (-37.890649, 144.686494)}",12250.2,1121.0
420.0,1,3,4,House,14 Rosedale Place,WYNDHAM VALE,3024.0,-37.88897,144.63257,"Iramoo Primary School0.8 km awayPrep-6CoEdGovernmentView Catchment,Wyndham Central Secondary College1.8 km away7-12CoEdGovernmentView Catchment,Christway College - Wyndham1.9 km awayPrivateMore Info",False,213051589.0,"{'dist': 4.735750659333225, 'nearest_coord': (-37.890649, 144.686494)}",6494.0,624.0
420.0,1,3,2,House,13 Tasman Place,WYNDHAM VALE,3024.0,-37.885063,144.62907,"Riverbend Primary School0.9 km awayPrep-6CoEdGovernmentView Catchment,Wyndham Central Secondary College2.1 km away7-12CoEdGovernmentView Catchment,Christway College - Wyndham1.4 km awayPrivateMore Info",False,213051589.0,"{'dist': 5.077478776906534, 'nearest_coord': (-37.890649, 144.686494)}",6198.8,589.2
410.0,1,2,1,Apartment / Unit / Flat,1/87 Federal Drive,WYNDHAM VALE,3024.0,-37.879246,144.62708,"Riverbend Primary School0.2 km awayPrep-6CoEdGovernmentView Catchment,Manor Lakes P-12 College2.3 km awayPrep-12CoEdGovernmentView Catchment,Wyndham Central Secondary College2.5 km away7-12CoEdGovernmentMore Info",False,213051589.0,"{'dist': 5.366138584149089, 'nearest_coord': (-37.890649, 144.686494)}",7309.1,707.8
410.0,1,2,1,Apartment / Unit / Flat,4/87 Federal Drive,WYNDHAM VALE,3024.0,-37.87946,144.62729,"Riverbend Primary School0.3 km awayPrep-6CoEdGovernmentView Catchment,Manor Lakes P-12 College2.3 km awayPrep-12CoEdGovernmentView Catchment,Wyndham Central Secondary College2.5 km away7-12CoEdGovernmentMore Info",False,213051589.0,"{'dist': 5.34263377056708, 'nearest_coord': (-37.890649, 144.686494)}",7273.7,702.7
600.0,2,3,2,House,122A Second Avenue,ALTONA NORTH,3025.0,-37.83274,144.85435,"Altona North Primary School0.6 km awayPrep-6CoEdGovernmentView Catchment,Bayside P-12 College3.9 km awayPrep-12CoEdGovernmentView Catchment,Rosamond Special School5.9 km awayUCoEdGovernmentView Catchment",False,213021343.0,"{'dist': 4.670583586623244, 'nearest_coord': (-37.869448, 144.828494)}",5793.0,648.0
950.0,3,4,2,House,17 Prospect Walk,ALTONA NORTH,3025.0,-37.829838,144.85802,"Altona North Primary School1.1 km awayPrep-6CoEdGovernmentView Catchment,Bayside P-12 College3.9 km awayPrep-12CoEdGovernmentView Catchment,Rosamond Special School5.6 km awayUCoEdGovernmentView Catchment",False,213021343.0,"{'dist': 4.435647217358883, 'nearest_coord': (-37.797407, 144.887421)}",7030.4,744.5
850.0,3,4,2,House,7/18-20 Stapley Crescent,ALTONA NORTH,3025.0,-37.83703,144.86218,"Newport Gardens Primary School1 km awayPrep-6CoEdGovernmentView Catchment,Bayside P-12 College3.1 km awayPrep-12CoEdGovernmentView Catchment,Rosamond Special School6.4 km awayUCoEdGovernmentView Catchment",False,213021343.0,"{'dist': 3.965471317894932, 'nearest_coord': (-37.863576, 144.892339)}",4842.9,520.9
620.0,2,3,3,House,34 Hansen Street,ALTONA NORTH,3025.0,-37.837505,144.86517,"Bayside P-12 College-Paisley Campus0.7 km awayGovernmentView Catchment,Newport Gardens Primary School0.8 km awayPrep-6CoEdGovernmentView Catchment,Bayside P-12 College2.9 km awayPrep-12CoEdGovernmentView Catchment",False,213021344.0,"{'dist': 3.754261667945509, 'nearest_coord': (-37.863576, 144.892339)}",4600.1,484.0
930.0,3,4,1,House,44 MacDonald Avenue,ALTONA NORTH,3025.0,-37.835403,144.85812,"Altona North Primary School0.8 km awayPrep-6CoEdGovernmentView Catchment,Bayside P-12 College3.4 km awayPrep-12CoEdGovernmentView Catchment,Rosamond Special School6.2 km awayUCoEdGovernmentView Catchment",False,213021343.0,"{'dist': 4.340610121527577, 'nearest_coord': (-37.863576, 144.892339)}",5388.0,601.5
875.0,3,4,3,House,380A Blackshaws Road,ALTONA NORTH,3025.0,-37.830875,144.84668,"Bayside P-12 College4.5 km awayPrep-12CoEdGovernmentView Catchment,Rosamond Special School5.7 km awayUCoEdGovernmentView Catchment,Altona North Primary School0.7 km awayPrep-6CoEdGovernmentMore Info",False,213021343.0,"{'dist': 4.576708824225096, 'nearest_coord': (-37.869448, 144.828494)}",5507.7,612.2
875.0,3,4,1,House,27 Clematis Avenue,ALTONA NORTH,3025.0,-37.82694,144.85426,"Altona North Primary School1.2 km awayPrep-6CoEdGovernmentView Catchment,Bayside P-12 College4.4 km awayPrep-12CoEdGovernmentView Catchment,Rosamond Special School5.3 km awayUCoEdGovernmentView Catchment",False,213021343.0,"{'dist': 4.389789595639352, 'nearest_coord': (-37.797407, 144.887421)}",6041.2,592.9
875.0,3,4,2,House,44 Hansen Street,ALTONA NORTH,3025.0,-37.836643,144.86539,"Bayside P-12 College-Paisley Campus0.8 km awayGovernmentView Catchment,Newport Gardens Primary School0.9 km awayPrep-6CoEdGovernmentView Catchment,Bayside P-12 College2.9 km awayPrep-12CoEdGovernmentView Catchment",False,213021344.0,"{'dist': 3.8167633715133467, 'nearest_coord': (-37.863576, 144.892339)}",4709.6,494.6
825.0,3,3,2,Townhouse,83A Second Avenue,ALTONA NORTH,3025.0,-37.834064,144.85374,"Altona North Primary School0.5 km awayPrep-6CoEdGovernmentView Catchment,Bayside P-12 College3.8 km awayPrep-12CoEdGovernmentView Catchment,Rosamond Special School6 km awayUCoEdGovernmentView Catchment",False,213021343.0,"{'dist': 4.515947710911648, 'nearest_coord': (-37.869448, 144.828494)}",5514.3,626.6
750.0,1,3,2,House,47 Seventh Avenue,ALTONA NORTH,3025.0,-37.84133,144.8474,"Altona North Primary School0.5 km awayPrep-6CoEdGovernmentView Catchment,Bayside P-12 College3.8 km awayPrep-12CoEdGovernmentView Catchment,Rosamond Special School6.9 km awayUCoEdGovernmentView Catchment",False,213021343.0,"{'dist': 3.539867195206001, 'nearest_coord': (-37.869448, 144.828494)}",4327.0,483.7
750.0,1,4,4,House,34 Delphin Avenue,ALTONA NORTH,3025.0,-37.828934,144.8536,"Altona North Primary School1 km awayPrep-6CoEdGovernmentView Catchment,Bayside P-12 College4.2 km awayPrep-12CoEdGovernmentView Catchment,Rosamond Special School5.5 km awayUCoEdGovernmentView Catchment",False,213021343.0,"{'dist': 4.595277540693774, 'nearest_coord': (-37.797407, 144.887421)}",6036.8,623.4
720.0,2,4,4,House,1 Second Avenue,ALTONA NORTH,3025.0,-37.84173,144.85234,"Altona North Primary School0.6 km awayPrep-6CoEdGovernmentView Catchment,Bayside P-12 College3.4 km awayPrep-12CoEdGovernmentView Catchment,Rosamond Special School6.9 km awayUCoEdGovernmentView Catchment",False,213021343.0,"{'dist': 3.7259070819900133, 'nearest_coord': (-37.869448, 144.828494)}",4646.2,497.8
720.0,2,3,1,Townhouse,3/12 Stapley Crescent,ALTONA NORTH,3025.0,-37.8362,144.862,"Altona North Primary School1.1 km awayPrep-6CoEdGovernmentView Catchment,Bayside P-12 College3.1 km awayPrep-12CoEdGovernmentView Catchment,Rosamond Special School6.3 km awayUCoEdGovernmentView Catchment",False,213021343.0,"{'dist': 4.045041594728253, 'nearest_coord': (-37.863576, 144.892339)}",4917.0,531.5
680.0,2,3,1,Townhouse,38 Windsor Crescent,ALTONA NORTH,3025.0,-37.84311,144.85085,"Altona North Primary School0.7 km awayPrep-6CoEdGovernmentView Catchment,Bayside P-12 College3.4 km awayPrep-12CoEdGovernmentView Catchment,Rosamond Special School7.1 km awayUCoEdGovernmentView Catchment",False,213021343.0,"{'dist': 3.5255267612543686, 'nearest_coord': (-37.869448, 144.828494)}",4392.3,474.8
680.0,2,3,2,Townhouse,50 Angus Avenue,ALTONA NORTH,3025.0,-37.833126,144.85759,"Altona North Primary School0.8 km awayPrep-6CoEdGovernmentView Catchment,Bayside P-12 College3.7 km awayPrep-12CoEdGovernmentView Catchment,Rosamond Special School5.9 km awayUCoEdGovernmentView Catchment",False,213021343.0,"{'dist': 4.557787881971722, 'nearest_coord': (-37.863576, 144.892339)}",5926.2,596.6
570.0,1,3,1,House,88 Sixth Avenue,ALTONA NORTH,3025.0,-37.836502,144.84966,"Altona North Primary School0.1 km awayPrep-6CoEdGovernmentView Catchment,Bayside P-12 College3.9 km awayPrep-12CoEdGovernmentView Catchment,Rosamond Special School6.3 km awayUCoEdGovernmentView Catchment",False,213021343.0,"{'dist': 4.107817679805248, 'nearest_coord': (-37.869448, 144.828494)}",4968.9,551.8
560.0,1,3,4,House,273 Blackshaws Road,ALTONA NORTH,3025.0,-37.832577,144.85909,"Altona North Primary School1 km awayPrep-6CoEdGovernmentView Catchment,Bayside P-12 College3.6 km awayPrep-12CoEdGovernmentView Catchment,Rosamond Special School5.9 km awayUCoEdGovernmentView Catchment",False,213021343.0,"{'dist': 4.517107983650803, 'nearest_coord': (-37.863576, 144.892339)}",5674.0,569.9
530.0,1,2,1,Townhouse,2/9 Prentice Street,ALTONA NORTH,3025.0,-37.841778,144.86275,"Bayside P-12 College-Paisley Campus0.2 km awayGovernmentView Catchment,Newport Gardens Primary School0.6 km awayPrep-6CoEdGovernmentView Catchment,Bayside P-12 College2.7 km awayPrep-12CoEdGovernmentView Catchment",False,213021343.0,"{'dist': 3.5530135749150906, 'nearest_coord': (-37.863576, 144.892339)}",4234.6,486.2
530.0,1,3,2,House,129 Sixth Avenue,ALTONA NORTH,3025.0,-37.832153,144.84998,"Bayside P-12 College4.2 km awayPrep-12CoEdGovernmentView Catchment,Rosamond Special School5.8 km awayUCoEdGovernmentView Catchment,Altona North Primary School0.5 km awayPrep-6CoEdGovernmentMore Info",False,213021343.0,"{'dist': 4.555943839750592, 'nearest_coord': (-37.869448, 144.828494)}",5453.8,599.1
520.0,2,2,1,Apartment / Unit / Flat,104/129 Millers Road,ALTONA NORTH,3025.0,-37.829006,144.84889,"Bayside P-12 College4.5 km awayPrep-12CoEdGovernmentView Catchment,Rosamond Special School5.5 km awayUCoEdGovernmentView Catchment,Altona North Primary School0.9 km awayPrep-6CoEdGovernmentMore Info",False,213021343.0,"{'dist': 4.84041610017203, 'nearest_coord': (-37.869448, 144.828494)}",5610.9,614.4
400.0,1,2,1,Apartment / Unit / Flat,2/63 May Street,ALTONA NORTH,3025.0,-37.83359,144.85179,"Altona North Primary School0.4 km awayPrep-6CoEdGovernmentView Catchment,Bayside P-12 College4 km awayPrep-12CoEdGovernmentView Catchment,Rosamond Special School6 km awayUCoEdGovernmentView Catchment",False,213021343.0,"{'dist': 4.48125516890408, 'nearest_coord': (-37.869448, 144.828494)}",5531.9,610.4
370.0,1,2,1,Apartment / Unit / Flat,2/315 Blackshaws Road,ALTONA NORTH,3025.0,-37.832066,144.85445,"Altona North Primary School0.7 km awayPrep-6CoEdGovernmentView Catchment,Bayside P-12 College3.9 km awayPrep-12CoEdGovernmentView Catchment,Rosamond Special School5.8 km awayUCoEdGovernmentView Catchment",False,213021343.0,"{'dist': 4.740440296449374, 'nearest_coord': (-37.869448, 144.828494)}",5911.6,639.7
950.0,4,4,3,House,64A Marion Street,ALTONA NORTH,3025.0,-37.8352,144.85306,"Altona North Primary School0.4 km awayPrep-6CoEdGovernmentView Catchment,Bayside P-12 College3.8 km awayPrep-12CoEdGovernmentView Catchment,Rosamond Special School6.2 km awayUCoEdGovernmentView Catchment",False,213021343.0,"{'dist': 4.376591658477772, 'nearest_coord': (-37.869448, 144.828494)}",5432.3,608.1
825.0,3,4,2,Townhouse,80c First Avenue,ALTONA NORTH,3025.0,-37.833626,144.85518,"Altona North Primary School0.6 km awayPrep-6CoEdGovernmentView Catchment,Bayside P-12 College3.8 km awayPrep-12CoEdGovernmentView Catchment,Rosamond Special School6 km awayUCoEdGovernmentView Catchment",False,213021343.0,"{'dist': 4.621246389566584, 'nearest_coord': (-37.869448, 144.828494)}",5726.8,635.1
750.0,2,3,2,Townhouse,1/31 Macdonald Avenue,ALTONA NORTH,3025.0,-37.83671,144.85753,"Altona North Primary School0.7 km awayPrep-6CoEdGovernmentView Catchment,Bayside P-12 College3.4 km awayPrep-12CoEdGovernmentView Catchment,Rosamond Special School6.3 km awayUCoEdGovernmentView Catchment",False,213021343.0,"{'dist': 4.273787680102318, 'nearest_coord': (-37.863576, 144.892339)}",5236.9,579.7
750.0,3,3,4,House,16A The Circle,ALTONA NORTH,3025.0,-37.836266,144.86395,"Bayside P-12 College-Paisley Campus0.8 km awayGovernmentView Catchment,Newport Gardens Primary School1 km awayPrep-6CoEdGovernmentView Catchment,Bayside P-12 College3 km awayPrep-12CoEdGovernmentView Catchment",False,213021343.0,"{'dist': 3.9287245515906806, 'nearest_coord': (-37.863576, 144.892339)}",4753.8,508.0
600.0,2,2,2,House,258 Millers Road,ALTONA NORTH,3025.0,-37.8397,144.84654,"Altona North Primary School0.4 km awayPrep-6CoEdGovernmentView Catchment,Bayside P-12 College3.9 km awayPrep-12CoEdGovernmentView Catchment,Rosamond Special School6.7 km awayUCoEdGovernmentView Catchment",False,213021343.0,"{'dist': 3.6676952463307013, 'nearest_coord': (-37.869448, 144.828494)}",4740.6,529.5
570.0,1,2,1,House,1/8 Duke Street,ALTONA NORTH,3025.0,-37.834293,144.84547,"Bayside P-12 College4.4 km awayPrep-12CoEdGovernmentView Catchment,Rosamond Special School6.1 km awayUCoEdGovernmentView Catchment,Altona North Primary School0.4 km awayPrep-6CoEdGovernmentMore Info",False,213021343.0,"{'dist': 4.183577906079593, 'nearest_coord': (-37.869448, 144.828494)}",5166.3,591.6
520.0,1,2,1,Apartment / Unit / Flat,2/18 Cherry Avenue,ALTONA NORTH,3025.0,-37.833355,144.8465,"Bayside P-12 College4.3 km awayPrep-12CoEdGovernmentView Catchment,Rosamond Special School6 km awayUCoEdGovernmentView Catchment,Altona North Primary School0.5 km awayPrep-6CoEdGovernmentMore Info",False,213021343.0,"{'dist': 4.313517265414633, 'nearest_coord': (-37.869448, 144.828494)}",5688.5,645.1
480.0,1,3,3,House,11 Paringa Road,ALTONA NORTH,3025.0,-37.825603,144.84697,"Bayside P-12 College4.9 km awayPrep-12CoEdGovernmentView Catchment,Rosamond Special School5.2 km awayUCoEdGovernmentView Catchment,Altona North Primary School1.3 km awayPrep-6CoEdGovernmentMore Info",False,213021343.0,"{'dist': 4.738921765875591, 'nearest_coord': (-37.797407, 144.887421)}",5857.9,599.3
620.0,2,4,2,House,36 Grosvenor Cresent,DERRIMUT,3026.0,-37.78995,144.75436,"Derrimut Primary School0.9 km awayPrep-6CoEdGovernmentView Catchment,Victoria University Secondary College-Deer Park Campus3.6 km awayGovernmentView Catchment,Victoria University Secondary College3.6 km away7-12CoEdGovernmentView Catchment",False,213011570.0,"{'dist': 1.4300925164513183, 'nearest_coord': (-37.781307, 144.742309)}",2663.9,277.4
5902556.0,3,4,2,House,52 Westminster Parkway,DERRIMUT,3026.0,-37.78549,144.7574,"Derrimut Primary School0.8 km awayPrep-6CoEdGovernmentView Catchment,Victoria University Secondary College-Deer Park Campus3.1 km awayGovernmentView Catchment,Victoria University Secondary College3.1 km away7-12CoEdGovernmentView Catchment",False,213011570.0,"{'dist': 1.4054136715412633, 'nearest_coord': (-37.781307, 144.742309)}",1862.9,196.9
500.0,2,4,2,House,26 Tiverton Parkway,DERRIMUT,3026.0,-37.79565,144.75742,"Derrimut Primary School0.9 km awayPrep-6CoEdGovernmentView Catchment,Victoria University Secondary College4.2 km away7-12CoEdGovernmentView Catchment,Jackson School6.7 km awayUCoEdGovernmentView Catchment",False,213011570.0,"{'dist': 2.0753021351680534, 'nearest_coord': (-37.781307, 144.742309)}",3194.6,351.8
550.0,3,4,2,Townhouse,21A Hermitage Parade,DERRIMUT,3026.0,-37.792656,144.75587,"Derrimut Primary School0.9 km awayPrep-6CoEdGovernmentView Catchment,Victoria University Secondary College3.9 km away7-12CoEdGovernmentView Catchment,Jackson School6.6 km awayUCoEdGovernmentView Catchment",False,213011570.0,"{'dist': 1.7357041642608526, 'nearest_coord': (-37.781307, 144.742309)}",2805.2,293.8
495.0,2,4,2,House,28 Tiverton Park Way,DERRIMUT,3026.0,-37.79577,144.7574,"Derrimut Primary School0.9 km awayPrep-6CoEdGovernmentView Catchment,Victoria University Secondary College4.2 km away7-12CoEdGovernmentView Catchment,Jackson School6.7 km awayUCoEdGovernmentView Catchment",False,213011570.0,"{'dist': 2.084454789196151, 'nearest_coord': (-37.781307, 144.742309)}",3248.4,359.5
490.0,2,3,2,Townhouse,6 Scrubwren Drive,WILLIAMS LANDING,3027.0,-37.856804,144.73816,"Truganina South Primary School1.4 km awayPrep-6CoEdGovernmentView Catchment,Dohertys Creek P-9 College1.5 km awayPrep-8CoEdGovernmentView Catchment,Tarneit Senior College5.8 km away10-12CoEdGovernmentView Catchment",False,213051587.0,"{'dist': 4.797124461971799, 'nearest_coord': (-37.886587, 144.698621)}",6576.7,531.8
600.0,2,4,2,House,15 Newhaven Drive,WILLIAMS LANDING,3027.0,-37.859844,144.74619,"Truganina South Primary School1.9 km awayPrep-6CoEdGovernmentView Catchment,Dohertys Creek P-9 College2.1 km awayPrep-8CoEdGovernmentView Catchment,Laverton P-12 College2.4 km awayPrep-12CoEdGovernmentView Catchment",False,213051363.0,"{'dist': 5.126033264665462, 'nearest_coord': (-37.886587, 144.698621)}",6265.0,535.3
850.0,3,5,2,House,5 Shrike Terrace,WILLIAMS LANDING,3027.0,-37.85534,144.74333,"Dohertys Creek P-9 College1.5 km awayPrep-8CoEdGovernmentView Catchment,Laverton P-12 College2.6 km awayPrep-12CoEdGovernmentView Catchment,Truganina South Primary School1.9 km awayPrep-6CoEdGovernmentMore Info",False,213051587.0,"{'dist': 5.241496089132925, 'nearest_coord': (-37.886587, 144.698621)}",7174.8,603.9
700.0,3,4,2,House,1 Waterways Boulevard,WILLIAMS LANDING,3027.0,-37.857605,144.74011,"Truganina South Primary School1.5 km awayPrep-6CoEdGovernmentView Catchment,Dohertys Creek P-9 College1.6 km awayPrep-8CoEdGovernmentView Catchment,Tarneit Senior College6 km away10-12CoEdGovernmentView Catchment",False,213051587.0,"{'dist': 4.862882485097921, 'nearest_coord': (-37.886587, 144.698621)}",6679.6,549.6
625.0,2,3,3,House,17 Banbury Street,WILLIAMS LANDING,3027.0,-37.859882,144.75284,"Laverton P-12 College1.8 km awayPrep-12CoEdGovernmentView Catchment,Seabrook Primary School2.2 km awayPrep-6CoEdGovernmentMore Info,Truganina South Primary School2.5 km awayPrep-6CoEdGovernmentMore Info",False,213051363.0,"{'dist': 5.609461981522279, 'nearest_coord': (-37.886587, 144.698621)}",6795.4,588.2
595.0,2,4,2,House,27 Bronzewing Street,WILLIAMS LANDING,3027.0,-37.856216,144.74149,"Dohertys Creek P-9 College1.5 km awayPrep-8CoEdGovernmentView Catchment,Laverton P-12 College2.7 km awayPrep-12CoEdGovernmentView Catchment,Truganina South Primary School1.7 km awayPrep-6CoEdGovernmentMore Info",False,213051587.0,"{'dist': 5.056099568181938, 'nearest_coord': (-37.886587, 144.698621)}",6977.1,580.1
560.0,2,4,2,House,20 Hanworth Avenue,WILLIAMS LANDING,3027.0,-37.86157,144.74544,"Truganina South Primary School1.8 km awayPrep-6CoEdGovernmentView Catchment,Dohertys Creek P-9 College2.2 km awayPrep-8CoEdGovernmentView Catchment,Laverton P-12 College2.5 km awayPrep-12CoEdGovernmentView Catchment",False,213051363.0,"{'dist': 4.962441210014884, 'nearest_coord': (-37.886587, 144.698621)}",6132.4,520.8
560.0,2,4,2,House,25 Thornbury Way,WILLIAMS LANDING,3027.0,-37.863785,144.73701,"Truganina South Primary School1 km awayPrep-6CoEdGovernmentView Catchment,Dohertys Creek P-9 College2.3 km awayPrep-8CoEdGovernmentView Catchment,Point Cook Senior Secondary College2.6 km away10-12CoEdGovernmentView Catchment",False,213051363.0,"{'dist': 4.216866100883678, 'nearest_coord': (-37.886587, 144.698621)}",5442.0,445.7
470.0,1,2,1,Townhouse,10A Hanworth Avenue,WILLIAMS LANDING,3027.0,-37.86077,144.7452,"Truganina South Primary School1.8 km awayPrep-6CoEdGovernmentView Catchment,Dohertys Creek P-9 College2.1 km awayPrep-8CoEdGovernmentView Catchment,Laverton P-12 College2.5 km awayPrep-12CoEdGovernmentView Catchment",False,213051363.0,"{'dist': 4.9956116300144755, 'nearest_coord': (-37.886587, 144.698621)}",6082.2,513.5
470.0,2,2,1,Apartment / Unit / Flat,Unit 201/30 Clark St,WILLIAMS LANDING,3027.0,-37.866592,144.74374,"Truganina South Primary School1.6 km awayPrep-6CoEdGovernmentView Catchment,Carranballac P-9 College2.1 km awayPrep-9CoEdGovernmentView Catchment,Point Cook Senior Secondary College2.4 km away10-12CoEdGovernmentView Catchment",False,213051363.0,"{'dist': 4.541550007605243, 'nearest_coord': (-37.886587, 144.698621)}",6010.5,508.3
750.0,4,4,2,House,20 Simonson Way,WILLIAMS LANDING,3027.0,-37.859158,144.7529,"Laverton P-12 College1.8 km awayPrep-12CoEdGovernmentView Catchment,Seabrook Primary School2.2 km awayPrep-6CoEdGovernmentMore Info,Truganina South Primary School2.5 km awayPrep-6CoEdGovernmentMore Info",False,213051363.0,"{'dist': 5.656945895024587, 'nearest_coord': (-37.886587, 144.698621)}",6757.4,582.8
580.0,2,3,2,House,5 Chamberlain Way,WILLIAMS LANDING,3027.0,-37.8543,144.73189,"Dohertys Creek P-9 College1.2 km awayPrep-8CoEdGovernmentView Catchment,Truganina South Primary School1.3 km awayPrep-6CoEdGovernmentView Catchment,Tarneit Senior College5.2 km away10-12CoEdGovernmentView Catchment",False,213051587.0,"{'dist': 4.627871094698533, 'nearest_coord': (-37.886587, 144.698621)}",6275.3,465.7
570.0,3,4,2,Townhouse,8 Skalkoz Street,WILLIAMS LANDING,3027.0,-37.862854,144.7498,"Seabrook Primary School1.9 km awayPrep-6CoEdGovernmentView Catchment,Laverton P-12 College2.1 km awayPrep-12CoEdGovernmentView Catchment,Point Cook Senior Secondary College3 km away10-12CoEdGovernmentMore Info",False,213051363.0,"{'dist': 5.209921050785349, 'nearest_coord': (-37.886587, 144.698621)}",6335.1,569.9
560.0,2,3,1,House,50 Beehive Drive,WILLIAMS LANDING,3027.0,-37.863556,144.75145,"Seabrook Primary School1.8 km awayPrep-6CoEdGovernmentView Catchment,Laverton P-12 College2 km awayPrep-12CoEdGovernmentView Catchment,Point Cook Senior Secondary College3.1 km away10-12CoEdGovernmentMore Info",False,213051363.0,"{'dist': 5.297100966077815, 'nearest_coord': (-37.886587, 144.698621)}",6491.7,589.2
560.0,2,3,1,House,9 Electra Drive,WILLIAMS LANDING,3027.0,-37.864452,144.7523,"Seabrook Primary School1.7 km awayPrep-6CoEdGovernmentView Catchment,Laverton P-12 College2 km awayPrep-12CoEdGovernmentView Catchment,Point Cook Senior Secondary College3 km away10-12CoEdGovernmentMore Info",False,213051363.0,"{'dist': 5.315645677763592, 'nearest_coord': (-37.886587, 144.698621)}",6644.3,611.2
480.0,2,2,1,Apartment / Unit / Flat,310/2 Clark Street,WILLIAMS LANDING,3027.0,-37.866287,144.74261,"Truganina South Primary School1.5 km awayPrep-6CoEdGovernmentView Catchment,Carranballac P-9 College2.1 km awayPrep-9CoEdGovernmentView Catchment,Point Cook Senior Secondary College2.4 km away10-12CoEdGovernmentView Catchment",False,213051363.0,"{'dist': 4.47236002836613, 'nearest_coord': (-37.886587, 144.698621)}",5748.3,484.9
475.0,1,2,1,Apartment / Unit / Flat,301/115 Overton Rd,WILLIAMS LANDING,3027.0,-37.866287,144.74261,"Truganina South Primary School1.5 km awayPrep-6CoEdGovernmentView Catchment,Carranballac P-9 College2.1 km awayPrep-9CoEdGovernmentView Catchment,Point Cook Senior Secondary College2.4 km away10-12CoEdGovernmentView Catchment",False,213051363.0,"{'dist': 4.47236002836613, 'nearest_coord': (-37.886587, 144.698621)}",5748.3,484.9
800.0,3,4,2,House,35 Palmers Road,WILLIAMS LANDING,3027.0,-37.85681,144.74858,"Dohertys Creek P-9 College1.9 km awayPrep-8CoEdGovernmentView Catchment,Laverton P-12 College2.1 km awayPrep-12CoEdGovernmentView Catchment,Truganina South Primary School2.2 km awayPrep-6CoEdGovernmentMore Info",True,213051363.0,"{'dist': 5.494822983685758, 'nearest_coord': (-37.886587, 144.698621)}",6744.6,554.3
800.0,2,5,2,House,43 Delaney Boulevard,WILLIAMS LANDING,3027.0,-37.85947,144.74408,"Truganina South Primary School1.7 km awayPrep-6CoEdGovernmentView Catchment,Dohertys Creek P-9 College1.9 km awayPrep-8CoEdGovernmentView Catchment,Laverton P-12 College2.5 km awayPrep-12CoEdGovernmentView Catchment",False,213051363.0,"{'dist': 5.001308750512946, 'nearest_coord': (-37.886587, 144.698621)}",6176.4,531.7
660.0,2,4,2,House,17 Lukis Avenue,WILLIAMS LANDING,3027.0,-37.860798,144.74023,"Truganina South Primary School1.4 km awayPrep-6CoEdGovernmentView Catchment,Dohertys Creek P-9 College2 km awayPrep-8CoEdGovernmentView Catchment,Point Cook Senior Secondary College2.9 km away10-12CoEdGovernmentView Catchment",False,213051363.0,"{'dist': 4.643441827319281, 'nearest_coord': (-37.886587, 144.698621)}",5862.0,499.7
620.0,2,4,2,House,57 Stoneleigh Circuit,WILLIAMS LANDING,3027.0,-37.866608,144.73528,"Truganina South Primary School0.9 km awayPrep-6CoEdGovernmentView Catchment,Carranballac P-9 College2.2 km awayPrep-9CoEdGovernmentView Catchment,Point Cook Senior Secondary College2.2 km away10-12CoEdGovernmentView Catchment",False,213051363.0,"{'dist': 3.9099988747280983, 'nearest_coord': (-37.886587, 144.698621)}",5663.4,470.7
580.0,2,4,2,House,7 Moorhen Blvd,WILLIAMS LANDING,3027.0,-37.858685,144.732,"Truganina South Primary School0.9 km awayPrep-6CoEdGovernmentView Catchment,Dohertys Creek P-9 College1.7 km awayPrep-8CoEdGovernmentView Catchment,Tarneit Senior College5.4 km away10-12CoEdGovernmentView Catchment",False,213051587.0,"{'dist': 4.267301262708345, 'nearest_coord': (-37.886587, 144.698621)}",6188.9,478.9
550.0,2,3,2,House,71 Williams Landing Boulevard,WILLIAMS LANDING,3027.0,-37.86244,144.75117,"Seabrook Primary School1.9 km awayPrep-6CoEdGovernmentView Catchment,Laverton P-12 College2 km awayPrep-12CoEdGovernmentView Catchment,Point Cook Senior Secondary College3.1 km away10-12CoEdGovernmentMore Info",False,213051363.0,"{'dist': 5.3369730260441735, 'nearest_coord': (-37.886587, 144.698621)}",6310.2,567.2
550.0,2,3,1,House,7 Bishopthorpe Road,WILLIAMS LANDING,3027.0,-37.86434,144.75182,"Seabrook Primary School1.7 km awayPrep-6CoEdGovernmentView Catchment,Laverton P-12 College2 km awayPrep-12CoEdGovernmentView Catchment,Point Cook Senior Secondary College3 km away10-12CoEdGovernmentMore Info",False,213051363.0,"{'dist': 5.284161733615501, 'nearest_coord': (-37.886587, 144.698621)}",6663.8,614.0
520.0,2,3,4,Townhouse,14 Scrubwren Drive,WILLIAMS LANDING,3027.0,-37.856968,144.7378,"Truganina South Primary School1.4 km awayPrep-6CoEdGovernmentView Catchment,Dohertys Creek P-9 College1.5 km awayPrep-8CoEdGovernmentView Catchment,Tarneit Senior College5.8 km away10-12CoEdGovernmentView Catchment",False,213051587.0,"{'dist': 4.761678991600213, 'nearest_coord': (-37.886587, 144.698621)}",6496.9,523.3
470.0,1,2,1,Apartment / Unit / Flat,406/115 Overton Road,WILLIAMS LANDING,3027.0,-37.866287,144.74261,"Truganina South Primary School1.5 km awayPrep-6CoEdGovernmentView Catchment,Carranballac P-9 College2.1 km awayPrep-9CoEdGovernmentView Catchment,Point Cook Senior Secondary College2.4 km away10-12CoEdGovernmentView Catchment",False,213051363.0,"{'dist': 4.47236002836613, 'nearest_coord': (-37.886587, 144.698621)}",5748.3,484.9
480.0,1,2,1,House,3/41-43 Linden Street,ALTONA MEADOWS,3028.0,-37.866505,144.77759,"Altona Meadows Primary School0.3 km awayPrep-6CoEdGovernmentView Catchment,Laverton P-12 College1.2 km awayPrep-12CoEdGovernmentView Catchment,Point Cook Senior Secondary College4.5 km away10-12CoEdGovernmentMore Info",False,213021342.0,"{'dist': 4.480342318880104, 'nearest_coord': (-37.869448, 144.828494)}",5707.6,531.3
630.0,2,4,2,House,6 Davis Court,ALTONA MEADOWS,3028.0,-37.878025,144.7793,"Altona Meadows Primary School1.1 km awayPrep-6CoEdGovernmentView Catchment,Laverton P-12 College2.5 km awayPrep-12CoEdGovernmentView Catchment,Point Cook Senior Secondary College4.2 km away10-12CoEdGovernmentMore Info",False,213021342.0,"{'dist': 4.4220049695689, 'nearest_coord': (-37.869448, 144.828494)}",5401.7,539.4
600.0,2,3,2,House,73 Victoria Street,ALTONA MEADOWS,3028.0,-37.870735,144.78723,"Altona Meadows Primary School0.7 km awayPrep-6CoEdGovernmentView Catchment,Laverton P-12 College2.1 km awayPrep-12CoEdGovernmentView Catchment,Queen of Peace Primary School0.6 km awayPrep-6CoEdCatholicMore Info",False,213021342.0,"{'dist': 3.6248938357180593, 'nearest_coord': (-37.869448, 144.828494)}",4484.4,454.1
570.0,2,4,3,House,46 Linden Street,ALTONA MEADOWS,3028.0,-37.86693,144.7767,"Altona Meadows Primary School0.3 km awayPrep-6CoEdGovernmentView Catchment,Laverton P-12 College1.2 km awayPrep-12CoEdGovernmentView Catchment,Point Cook Senior Secondary College4.4 km away10-12CoEdGovernmentMore Info",False,213021342.0,"{'dist': 4.555099856079065, 'nearest_coord': (-37.869448, 144.828494)}",5758.6,534.2
550.0,2,4,4,House,14 Birrell Court,ALTONA MEADOWS,3028.0,-37.883614,144.77719,"Altona Green Primary School0.7 km awayPrep-6CoEdGovernmentView Catchment,Carranballac P-9 College3 km awayPrep-9CoEdGovernmentView Catchment,Point Cook Senior Secondary College3.9 km away10-12CoEdGovernmentView Catchment",False,213021342.0,"{'dist': 4.770525200269714, 'nearest_coord': (-37.869448, 144.828494)}",5933.6,608.1
530.0,1,3,2,House,18 MacNeil Drive,ALTONA MEADOWS,3028.0,-37.8737,144.76869,"Seabrook Primary School1.1 km awayPrep-6CoEdGovernmentView Catchment,Laverton P-12 College2 km awayPrep-12CoEdGovernmentView Catchment,Point Cook Senior Secondary College3.5 km away10-12CoEdGovernmentMore Info",False,213021342.0,"{'dist': 5.270613891632916, 'nearest_coord': (-37.869448, 144.828494)}",6123.1,563.3
520.0,1,3,2,House,1 Grevillia Court,ALTONA MEADOWS,3028.0,-37.871105,144.78749,"Altona Meadows Primary School0.8 km awayPrep-6CoEdGovernmentView Catchment,Laverton P-12 College2.1 km awayPrep-12CoEdGovernmentView Catchment,Queen of Peace Primary School0.6 km awayPrep-6CoEdCatholicMore Info",False,213021342.0,"{'dist': 3.6039494762641016, 'nearest_coord': (-37.869448, 144.828494)}",4427.8,446.0
500.0,2,3,2,House,4 Carling Court,ALTONA MEADOWS,3028.0,-37.89007,144.78473,"Altona Green Primary School0.4 km awayPrep-6CoEdGovernmentView Catchment,Carranballac P-9 College-Jamieson Way Campus3.5 km awayGovernmentView Catchment,Carranballac P-9 College3.7 km awayPrep-9CoEdGovernmentView Catchment",False,213021342.0,"{'dist': 4.473420739162937, 'nearest_coord': (-37.869448, 144.828494)}",6156.6,614.8
490.0,1,2,2,Apartment / Unit / Flat,86A Myers Parade,ALTONA MEADOWS,3028.0,-37.877884,144.77309,"Altona Meadows Primary School1.2 km awayPrep-6CoEdGovernmentView Catchment,Laverton P-12 College2.4 km awayPrep-12CoEdGovernmentView Catchment,Point Cook Senior Secondary College3.7 km away10-12CoEdGovernmentMore Info",False,213021342.0,"{'dist': 4.952656212690933, 'nearest_coord': (-37.869448, 144.828494)}",6225.4,604.4
450.0,1,3,3,House,34 Batman Street,ALTONA MEADOWS,3028.0,-37.887707,144.78012,"Altona Green Primary School0.4 km awayPrep-6CoEdGovernmentView Catchment,Carranballac P-9 College-Jamieson Way Campus3.1 km awayGovernmentView Catchment,Carranballac P-9 College3.3 km awayPrep-9CoEdGovernmentView Catchment",False,213021342.0,"{'dist': 4.706161757055338, 'nearest_coord': (-37.869448, 144.828494)}",6013.4,597.9
430.0,1,2,1,House,43A High Street,ALTONA MEADOWS,3028.0,-37.867867,144.77368,"Altona Meadows Primary School0.5 km awayPrep-6CoEdGovernmentView Catchment,Laverton P-12 College1.3 km awayPrep-12CoEdGovernmentView Catchment,Point Cook Senior Secondary College4.2 km away10-12CoEdGovernmentMore Info",False,213021342.0,"{'dist': 4.814762695648236, 'nearest_coord': (-37.869448, 144.828494)}",5731.2,532.1
575.0,1,3,2,House,16 Devenport Court,ALTONA MEADOWS,3028.0,-37.87693,144.78503,"Altona Meadows Primary School1.1 km awayPrep-6CoEdGovernmentView Catchment,Laverton P-12 College2.5 km awayPrep-12CoEdGovernmentView Catchment,Homestead Senior Secondary College4.5 km away10-12CoEdGovernmentMore Info",False,213021342.0,"{'dist': 3.904680378218011, 'nearest_coord': (-37.869448, 144.828494)}",4857.6,461.1
520.0,2,3,2,Townhouse,13/11 Harrison Crt,ALTONA MEADOWS,3028.0,-37.872845,144.78145,"Altona Meadows Primary School0.5 km awayPrep-6CoEdGovernmentView Catchment,Laverton P-12 College2 km awayPrep-12CoEdGovernmentView Catchment,Point Cook Senior Secondary College4.5 km away10-12CoEdGovernmentMore Info",False,213021342.0,"{'dist': 4.14660527693944, 'nearest_coord': (-37.869448, 144.828494)}",4885.6,507.8
520.0,2,3,2,House,16 Lush Court,ALTONA MEADOWS,3028.0,-37.87234,144.76982,"Altona Meadows Primary School1 km awayPrep-6CoEdGovernmentView Catchment,Laverton P-12 College1.8 km awayPrep-12CoEdGovernmentView Catchment,Point Cook Senior Secondary College3.6 km away10-12CoEdGovernmentMore Info",False,213021342.0,"{'dist': 5.160254894498109, 'nearest_coord': (-37.869448, 144.828494)}",6105.2,587.1
480.0,1,3,2,House,3 Elizabeth Court,ALTONA MEADOWS,3028.0,-37.885147,144.78505,"Altona Green Primary School0.2 km awayPrep-6CoEdGovernmentView Catchment,Laverton P-12 College3.4 km awayPrep-12CoEdGovernmentView Catchment,Homestead Senior Secondary College3.7 km away10-12CoEdGovernmentMore Info",False,213021342.0,"{'dist': 4.193644583072101, 'nearest_coord': (-37.869448, 144.828494)}",5407.8,510.7
480.0,1,3,1,House,12 Everingham Road,ALTONA MEADOWS,3028.0,-37.87883,144.78741,"Altona Green Primary School0.9 km awayPrep-6CoEdGovernmentView Catchment,Laverton P-12 College2.8 km awayPrep-12CoEdGovernmentView Catchment,Homestead Senior Secondary College4.4 km away10-12CoEdGovernmentMore Info",False,213021342.0,"{'dist': 3.7539408809635293, 'nearest_coord': (-37.869448, 144.828494)}",4439.9,412.6
520.0,1,3,2,House,7 Bruce Street,LAVERTON,3028.0,-37.866398,144.76721,"Altona Meadows Primary School1.1 km awayPrep-6CoEdGovernmentView Catchment,Laverton P-12 College1.2 km awayPrep-12CoEdGovernmentView Catchment,Point Cook Senior Secondary College3.8 km away10-12CoEdGovernmentMore Info",False,213051363.0,"{'dist': 5.390219777537637, 'nearest_coord': (-37.869448, 144.828494)}",7085.1,677.4
400.0,1,3,1,House,10 Charlesworth Street,LAVERTON,3028.0,-37.859505,144.77539,"Laverton P-12 College0.4 km awayPrep-12CoEdGovernmentView Catchment,Altona Meadows Primary School1.1 km awayPrep-6CoEdGovernmentMore Info,Seabrook Primary School2.6 km awayPrep-6CoEdGovernmentMore Info",False,213051363.0,"{'dist': 4.791028314629486, 'nearest_coord': (-37.869448, 144.828494)}",8602.0,912.4
490.0,1,3,2,House,28 Williams Road,LAVERTON,3028.0,-37.862,144.7749,"Laverton P-12 College0.7 km awayPrep-12CoEdGovernmentView Catchment,Altona Meadows Primary School0.8 km awayPrep-6CoEdGovernmentMore Info,Seabrook Primary School2.4 km awayPrep-6CoEdGovernmentMore Info",False,213051363.0,"{'dist': 4.776986456991942, 'nearest_coord': (-37.869448, 144.828494)}",8371.3,871.2
470.0,1,2,1,House,4/44 Maher Road,LAVERTON,3028.0,-37.86326,144.77036,"Laverton P-12 College0.8 km awayPrep-12CoEdGovernmentView Catchment,Altona Meadows Primary School1 km awayPrep-6CoEdGovernmentMore Info,Seabrook Primary School2 km awayPrep-6CoEdGovernmentMore Info",False,213051363.0,"{'dist': 5.149318951745667, 'nearest_coord': (-37.869448, 144.828494)}",7980.6,817.6
460.0,1,3,2,House,184 Bladin Street,LAVERTON,3028.0,-37.862797,144.76942,"Laverton P-12 College0.8 km awayPrep-12CoEdGovernmentView Catchment,Altona Meadows Primary School1.1 km awayPrep-6CoEdGovernmentMore Info,Seabrook Primary School2.1 km awayPrep-6CoEdGovernmentMore Info",False,213051363.0,"{'dist': 5.2381426319587305, 'nearest_coord': (-37.869448, 144.828494)}",8003.3,820.1
420.0,1,3,2,House,1 Whittaker Avenue,LAVERTON,3028.0,-37.849632,144.7721,"Laverton P-12 College0.7 km awayPrep-12CoEdGovernmentView Catchment,Altona Meadows Primary School2.2 km awayPrep-6CoEdGovernmentMore Info,Seabrook Primary School3.5 km awayPrep-6CoEdGovernmentMore Info",False,213051363.0,"{'dist': 5.4190529296516825, 'nearest_coord': (-37.869448, 144.828494)}",7936.7,775.7
580.0,2,3,2,Apartment / Unit / Flat,2/26 Grace Street,LAVERTON,3028.0,-37.8661,144.77205,"Altona Meadows Primary School0.7 km awayPrep-6CoEdGovernmentView Catchment,Laverton P-12 College1.1 km awayPrep-12CoEdGovernmentView Catchment,Point Cook Senior Secondary College4.1 km away10-12CoEdGovernmentMore Info",False,213051363.0,"{'dist': 4.968658740822682, 'nearest_coord': (-37.869448, 144.828494)}",6683.0,636.6
700.0,3,4,2,House,6/15 Barwise Street,LAVERTON,3028.0,-37.852997,144.77489,"Laverton P-12 College0.4 km awayPrep-12CoEdGovernmentView Catchment,Altona Meadows Primary School1.8 km awayPrep-6CoEdGovernmentMore Info,Seabrook Primary School3.2 km awayPrep-6CoEdGovernmentMore Info",False,213051363.0,"{'dist': 5.048852452103086, 'nearest_coord': (-37.869448, 144.828494)}",8457.4,831.3
630.0,2,3,1,House,43 Robertson Crescent,LAVERTON,3028.0,-37.848183,144.77931,"Laverton P-12 College1.1 km awayPrep-12CoEdGovernmentView Catchment,Altona Meadows Primary School2.3 km awayPrep-6CoEdGovernmentMore Info,Seabrook Primary School3.9 km awayPrep-6CoEdGovernmentMore Info",False,213051363.0,"{'dist': 4.922974226312881, 'nearest_coord': (-37.869448, 144.828494)}",7297.8,733.6
560.0,2,3,2,House,2/32-34 Wackett Street,LAVERTON,3028.0,-37.853992,144.7704,"Laverton P-12 College0.3 km awayPrep-12CoEdGovernmentView Catchment,Altona Meadows Primary School1.8 km awayPrep-6CoEdGovernmentMore Info,Seabrook Primary School3 km awayPrep-6CoEdGovernmentMore Info",False,213051363.0,"{'dist': 5.381744787114475, 'nearest_coord': (-37.869448, 144.828494)}",8493.0,819.2
550.0,2,3,2,House,1/8 Eaton Parade,LAVERTON,3028.0,-37.853626,144.77167,"Laverton P-12 College0.3 km awayPrep-12CoEdGovernmentView Catchment,Altona Meadows Primary School1.8 km awayPrep-6CoEdGovernmentMore Info,Seabrook Primary School3.1 km awayPrep-6CoEdGovernmentMore Info",False,213051363.0,"{'dist': 5.2896201804410135, 'nearest_coord': (-37.869448, 144.828494)}",8559.0,844.8
525.0,2,2,1,House,2/29 Wright Street,LAVERTON,3028.0,-37.86153,144.77278,"Laverton P-12 College0.6 km awayPrep-12CoEdGovernmentView Catchment,Altona Meadows Primary School1 km awayPrep-6CoEdGovernmentMore Info,Seabrook Primary School2.3 km awayPrep-6CoEdGovernmentMore Info",False,213051363.0,"{'dist': 4.969381550634254, 'nearest_coord': (-37.869448, 144.828494)}",8377.1,869.6
470.0,1,3,1,House,2/3 Charlesworth Street,LAVERTON,3028.0,-37.860035,144.77576,"Laverton P-12 College0.5 km awayPrep-12CoEdGovernmentView Catchment,Altona Meadows Primary School1 km awayPrep-6CoEdGovernmentMore Info,Seabrook Primary School2.6 km awayPrep-6CoEdGovernmentMore Info",False,213051363.0,"{'dist': 4.746070329863747, 'nearest_coord': (-37.869448, 144.828494)}",8587.3,900.4
470.0,1,3,4,House,5 Campbell Street,LAVERTON,3028.0,-37.854027,144.77588,"Laverton P-12 College0.4 km awayPrep-12CoEdGovernmentView Catchment,Altona Meadows Primary School1.6 km awayPrep-6CoEdGovernmentMore Info,Seabrook Primary School3.2 km awayPrep-6CoEdGovernmentMore Info",True,213051363.0,"{'dist': 4.926895332393697, 'nearest_coord': (-37.869448, 144.828494)}",8496.5,829.4
460.0,1,3,2,House,25 Grace Street,LAVERTON,3028.0,-37.86587,144.77293,"Altona Meadows Primary School0.7 km awayPrep-6CoEdGovernmentView Catchment,Laverton P-12 College1.1 km awayPrep-12CoEdGovernmentView Catchment,Point Cook Senior Secondary College4.2 km away10-12CoEdGovernmentMore Info",False,213051363.0,"{'dist': 4.893652729719018, 'nearest_coord': (-37.869448, 144.828494)}",6690.1,641.4
460.0,1,3,3,House,43 Fitzroy Street,LAVERTON,3028.0,-37.867195,144.7716,"Altona Meadows Primary School0.7 km awayPrep-6CoEdGovernmentView Catchment,Laverton P-12 College1.2 km awayPrep-12CoEdGovernmentView Catchment,Point Cook Senior Secondary College4 km away10-12CoEdGovernmentMore Info",False,213051363.0,"{'dist': 5.000436109185572, 'nearest_coord': (-37.869448, 144.828494)}",6873.7,652.9
440.0,1,3,1,House,29 Heffernan Street,LAVERTON,3028.0,-37.8638,144.76709,"Laverton P-12 College1 km awayPrep-12CoEdGovernmentView Catchment,Altona Meadows Primary School1.2 km awayPrep-6CoEdGovernmentMore Info,Seabrook Primary School1.9 km awayPrep-6CoEdGovernmentMore Info",False,213051363.0,"{'dist': 5.426632392960873, 'nearest_coord': (-37.869448, 144.828494)}",7648.2,770.9
450.0,1,3,4,House,9 Cobby Street,LAVERTON,3028.0,-37.859653,144.76758,"Laverton P-12 College0.6 km awayPrep-12CoEdGovernmentView Catchment,Altona Meadows Primary School1.4 km awayPrep-6CoEdGovernmentMore Info,Seabrook Primary School2.3 km awayPrep-6CoEdGovernmentMore Info",False,213051363.0,"{'dist': 5.457099998878501, 'nearest_coord': (-37.869448, 144.828494)}",8283.0,874.1
500.0,1,3,2,House,3A Maron Close,SEABROOK,3028.0,-37.88467,144.75612,"Seabrook Primary School0.7 km awayPrep-6CoEdGovernmentView Catchment,Carranballac P-9 College1.1 km awayPrep-9CoEdGovernmentView Catchment,Point Cook Senior Secondary College2.1 km away10-12CoEdGovernmentView Catchment",False,213021345.0,"{'dist': 5.050577990756016, 'nearest_coord': (-37.886587, 144.698621)}",7654.4,564.3
750.0,2,6,2,House,1 Seabrook Boulevard,SEABROOK,3028.0,-37.874786,144.75873,"Seabrook Primary School0.5 km awayPrep-6CoEdGovernmentView Catchment,Carranballac P-9 College1.8 km awayPrep-9CoEdGovernmentView Catchment,Point Cook Senior Secondary College2.6 km away10-12CoEdGovernmentView Catchment",False,213021345.0,"{'dist': 5.436233261575147, 'nearest_coord': (-37.886587, 144.698621)}",6487.8,433.4
600.0,2,4,2,House,20 Greylea Grove,SEABROOK,3028.0,-37.876118,144.76259,"Seabrook Primary School0.5 km awayPrep-6CoEdGovernmentView Catchment,Carranballac P-9 College2 km awayPrep-9CoEdGovernmentView Catchment,Point Cook Senior Secondary College2.9 km away10-12CoEdGovernmentView Catchment",False,213021345.0,"{'dist': 5.733624669893979, 'nearest_coord': (-37.886587, 144.698621)}",7129.6,525.4
585.0,2,3,2,House,120 Shane Avenue,SEABROOK,3028.0,-37.88161,144.75282,"Seabrook Primary School0.5 km awayPrep-6CoEdGovernmentView Catchment,Carranballac P-9 College0.9 km awayPrep-9CoEdGovernmentView Catchment,Point Cook Senior Secondary College1.8 km away10-12CoEdGovernmentView Catchment",False,213021345.0,"{'dist': 4.788656878530376, 'nearest_coord': (-37.886587, 144.698621)}",7377.2,562.4
550.0,2,3,2,House,59 St Anthony Court,SEABROOK,3028.0,-37.88104,144.75249,"Seabrook Primary School0.5 km awayPrep-6CoEdGovernmentView Catchment,Carranballac P-9 College0.9 km awayPrep-9CoEdGovernmentView Catchment,Point Cook Senior Secondary College1.8 km away10-12CoEdGovernmentView Catchment",False,213021345.0,"{'dist': 4.767693801724969, 'nearest_coord': (-37.886587, 144.698621)}",7395.5,565.0
395.0,2,3,2,House,123 Mossfiel Drive,HOPPERS CROSSING,3029.0,-37.867435,144.69011,"Hoppers Crossing Secondary College0.6 km away7-12CoEdGovernmentView Catchment,Mossfiel Primary School0.8 km awayPrep-6CoEdGovernmentView Catchment,St Peter Apostle School0.8 km awayPrep-6CoEdCatholicMore Info",False,213051362.0,"{'dist': 2.2568233660316084, 'nearest_coord': (-37.886587, 144.698621)}",3791.2,467.9
500.0,1,4,4,House,45 Mossfiel Drive,HOPPERS CROSSING,3029.0,-37.87446,144.69344,"Mossfiel Primary School0.3 km awayPrep-6CoEdGovernmentView Catchment,Hoppers Crossing Secondary College0.4 km away7-12CoEdGovernmentView Catchment,St Peter Apostle School0.3 km awayPrep-6CoEdCatholicMore Info",False,213051362.0,"{'dist': 1.4230656200814162, 'nearest_coord': (-37.886587, 144.698621)}",3259.0,384.2
450.0,1,3,1,Apartment / Unit / Flat,2/11A Moffatt Crescent,HOPPERS CROSSING,3029.0,-37.87739,144.69946,"Mossfiel Primary School0.6 km awayPrep-6CoEdGovernmentView Catchment,Hoppers Crossing Secondary College0.8 km away7-12CoEdGovernmentView Catchment,St Peter Apostle School0.9 km awayPrep-6CoEdCatholicMore Info",False,213051362.0,"{'dist': 1.0253086522700765, 'nearest_coord': (-37.886587, 144.698621)}",2391.1,287.4
600.0,2,4,2,House,7 Mokhtar Drive,HOPPERS CROSSING,3029.0,-37.872837,144.71127,"Bellbridge Primary School0.3 km awayPrep-6CoEdGovernmentView Catchment,Hoppers Crossing Secondary College1.4 km away7-12CoEdGovernmentView Catchment,St Peter Apostle School1.9 km awayPrep-6CoEdCatholicMore Info",False,213051361.0,"{'dist': 1.8894667817057087, 'nearest_coord': (-37.886587, 144.698621)}",3312.2,380.8
480.0,2,3,2,House,23 Bayview Crescent,HOPPERS CROSSING,3029.0,-37.871887,144.70622,"Bellbridge Primary School0.4 km awayPrep-6CoEdGovernmentView Catchment,Hoppers Crossing Secondary College1 km away7-12CoEdGovernmentView Catchment,St Peter Apostle School1.4 km awayPrep-6CoEdCatholicMore Info",False,213051361.0,"{'dist': 1.7653959089202222, 'nearest_coord': (-37.886587, 144.698621)}",3014.2,376.4
480.0,2,3,2,Apartment / Unit / Flat,13B Barber Drive,HOPPERS CROSSING,3029.0,-37.87028,144.68225,"Cambridge Primary School0.7 km awayPrep-6CoEdGovernmentView Catchment,Hoppers Crossing Secondary College1.2 km away7-12CoEdGovernmentView Catchment,St Peter Apostle School0.9 km awayPrep-6CoEdCatholicMore Info",False,213051362.0,"{'dist': 2.2953559809661273, 'nearest_coord': (-37.890649, 144.686494)}",3425.0,323.2
650.0,2,3,12,House,797 Sayers Road,HOPPERS CROSSING,3029.0,-37.84678,144.67026,"Tarneit Rise Primary School1.3 km awayPrep-6CoEdGovernmentView Catchment,The Grange P-12 College1.3 km awayPrep-12CoEdGovernmentView Catchment,Tarneit Senior College1.7 km away10-12CoEdGovernmentMore Info",False,213051361.0,"{'dist': 5.078438766419741, 'nearest_coord': (-37.886587, 144.698621)}",8420.3,824.0
600.0,2,4,2,House,Kenmore Close,HOPPERS CROSSING,3029.0,-37.8678,144.6672,"Cambridge Primary School0.7 km awayPrep-6CoEdGovernmentView Catchment,The Grange P-12 College1.3 km awayPrep-12CoEdGovernmentView Catchment,Hoppers Crossing Secondary College2.5 km away7-12CoEdGovernmentMore Info",False,213051362.0,"{'dist': 3.0533038710323024, 'nearest_coord': (-37.890649, 144.686494)}",5243.8,494.4
560.0,2,4,2,House,2 Bottlebrush Drive,HOPPERS CROSSING,3029.0,-37.859295,144.68405,"Baden Powell P-9 College0.6 km awayPrep-9CoEdGovernmentView Catchment,The Grange P-12 College0.8 km awayPrep-12CoEdGovernmentView Catchment,Cambridge Primary School1.2 km awayPrep-6CoEdGovernmentMore Info",False,213051361.0,"{'dist': 3.2932307855452874, 'nearest_coord': (-37.886587, 144.698621)}",5625.1,568.0
530.0,2,4,2,House,157 Morris Road,HOPPERS CROSSING,3029.0,-37.871246,144.70233,"Mossfiel Primary School0.6 km awayPrep-6CoEdGovernmentView Catchment,Hoppers Crossing Secondary College0.6 km away7-12CoEdGovernmentView Catchment,St Peter Apostle School1.1 km awayPrep-6CoEdCatholicMore Info",False,213051362.0,"{'dist': 1.7366267053696574, 'nearest_coord': (-37.886587, 144.698621)}",3019.0,349.8
520.0,2,3,1,House,8 Snowgum Court,HOPPERS CROSSING,3029.0,-37.85891,144.68384,"Baden Powell P-9 College0.6 km awayPrep-9CoEdGovernmentView Catchment,The Grange P-12 College0.8 km awayPrep-12CoEdGovernmentView Catchment,Cambridge Primary School1.2 km awayPrep-6CoEdGovernmentMore Info",False,213051361.0,"{'dist': 3.3398404703285087, 'nearest_coord': (-37.886587, 144.698621)}",5746.7,585.5
500.0,1,3,2,House,12 Betula Rise,HOPPERS CROSSING,3029.0,-37.859055,144.71553,"Truganina South Primary School1.1 km awayPrep-6CoEdGovernmentView Catchment,Hoppers Crossing Secondary College2.2 km away7-12CoEdGovernmentView Catchment,Al-Taqwa College0.9 km awayPrep-12CoEdPrivateMore Info",False,213051361.0,"{'dist': 3.402220813261958, 'nearest_coord': (-37.886587, 144.698621)}",5251.4,604.4
500.0,2,4,1,House,121 Morris Road,HOPPERS CROSSING,3029.0,-37.87458,144.70175,"Mossfiel Primary School0.5 km awayPrep-6CoEdGovernmentView Catchment,Hoppers Crossing Secondary College0.7 km away7-12CoEdGovernmentView Catchment,St Peter Apostle School1 km awayPrep-6CoEdCatholicMore Info",False,213051362.0,"{'dist': 1.3630696116182015, 'nearest_coord': (-37.886587, 144.698621)}",2445.7,296.5
500.0,1,3,5,House,60 Baden Drive,HOPPERS CROSSING,3029.0,-37.8837,144.69595,"Woodville Primary School0.3 km awayPrep-6CoEdGovernmentView Catchment,Hoppers Crossing Secondary College1.4 km away7-12CoEdGovernmentView Catchment,St Peter Apostle School1.1 km awayPrep-6CoEdCatholicMore Info",False,213051362.0,"{'dist': 0.3974928551802259, 'nearest_coord': (-37.886587, 144.698621)}",2660.8,338.5
490.0,2,3,0,House,14 Breton Drive,HOPPERS CROSSING,3029.0,-37.856075,144.67085,"The Grange P-12 College0.4 km awayPrep-12CoEdGovernmentView Catchment,Davis Creek Primary School0.9 km awayPrep-6CoEdGovernmentMore Info,Cambridge Primary School1.3 km awayPrep-6CoEdGovernmentMore Info",False,213051361.0,"{'dist': 4.0823238469120255, 'nearest_coord': (-37.890649, 144.686494)}",6032.4,573.5
475.0,1,3,2,House,15 Strathmore Crescent,HOPPERS CROSSING,3029.0,-37.88067,144.68623,"Woodville Primary School0.6 km awayPrep-6CoEdGovernmentView Catchment,Hoppers Crossing Secondary College1.3 km away7-12CoEdGovernmentView Catchment,Heathdale Christian College0.4 km awayPrep-12CoEdPrivateMore Info",False,213051362.0,"{'dist': 1.1098575897964873, 'nearest_coord': (-37.890649, 144.686494)}",2680.5,277.9
470.0,1,4,1,House,18 Moffatt Crescent,HOPPERS CROSSING,3029.0,-37.877403,144.69838,"Mossfiel Primary School0.5 km awayPrep-6CoEdGovernmentView Catchment,Hoppers Crossing Secondary College0.7 km away7-12CoEdGovernmentView Catchment,St Peter Apostle School0.8 km awayPrep-6CoEdCatholicMore Info",False,213051362.0,"{'dist': 1.021434662085235, 'nearest_coord': (-37.886587, 144.698621)}",2304.7,275.0
460.0,1,3,2,House,15 Arundel Court,HOPPERS CROSSING,3029.0,-37.866634,144.70996,"Bellbridge Primary School0.4 km awayPrep-6CoEdGovernmentView Catchment,Hoppers Crossing Secondary College1.4 km away7-12CoEdGovernmentView Catchment,Al-Taqwa College1.9 km awayPrep-12CoEdPrivateMore Info",False,213051361.0,"{'dist': 2.4316651020066833, 'nearest_coord': (-37.886587, 144.698621)}",3857.3,463.7
4601999.0,1,3,1,House,182 Morris Road,HOPPERS CROSSING,3029.0,-37.868286,144.70357,"Bellbridge Primary School0.7 km awayPrep-6CoEdGovernmentView Catchment,Hoppers Crossing Secondary College0.8 km away7-12CoEdGovernmentView Catchment,St Peter Apostle School1.4 km awayPrep-6CoEdCatholicMore Info",False,213051361.0,"{'dist': 2.0808232819161745, 'nearest_coord': (-37.886587, 144.698621)}",3089.2,353.2
4601999.0,1,3,1,House,25 Virgilia Drive,HOPPERS CROSSING,3029.0,-37.85846,144.68417,"Baden Powell P-9 College0.6 km awayPrep-9CoEdGovernmentView Catchment,The Grange P-12 College0.8 km awayPrep-12CoEdGovernmentView Catchment,Cambridge Primary School1.2 km awayPrep-6CoEdGovernmentMore Info",False,213051361.0,"{'dist': 3.3750132112622193, 'nearest_coord': (-37.886587, 144.698621)}",5687.6,570.9
450.0,1,3,3,House,4 Grange Court,HOPPERS CROSSING,3029.0,-37.88617,144.68286,"Wyndham Park Primary School0.5 km awayPrep-6CoEdGovernmentView Catchment,Hoppers Crossing Secondary College2 km away7-12CoEdGovernmentView Catchment,Heathdale Christian College0.6 km awayPrep-12CoEdPrivateMore Info",False,213051362.0,"{'dist': 0.5913944576805511, 'nearest_coord': (-37.890649, 144.686494)}",1613.5,156.4
440.0,1,3,2,House,3 Victor Court,HOPPERS CROSSING,3029.0,-37.879726,144.68462,"Woodville Primary School0.8 km awayPrep-6CoEdGovernmentView Catchment,Hoppers Crossing Secondary College1.3 km away7-12CoEdGovernmentView Catchment,Heathdale Christian College0.3 km awayPrep-12CoEdPrivateMore Info",False,213051362.0,"{'dist': 1.2256679126000214, 'nearest_coord': (-37.890649, 144.686494)}",2451.0,244.8
420.0,2,3,2,House,17 Hunter Avenue,HOPPERS CROSSING,3029.0,-37.869682,144.68808,"Hoppers Crossing Secondary College0.7 km away7-12CoEdGovernmentView Catchment,Mossfiel Primary School0.8 km awayPrep-6CoEdGovernmentView Catchment,St Peter Apostle School0.6 km awayPrep-6CoEdCatholicMore Info",False,213051362.0,"{'dist': 2.0950902144471386, 'nearest_coord': (-37.886587, 144.698621)}",3810.9,466.3
420.0,1,3,1,House,1/16 Angela Drive,HOPPERS CROSSING,3029.0,-37.868664,144.71518,"Bellbridge Primary School0.4 km awayPrep-6CoEdGovernmentView Catchment,Hoppers Crossing Secondary College1.8 km away7-12CoEdGovernmentView Catchment,Al-Taqwa College1.9 km awayPrep-12CoEdPrivateMore Info",False,213051361.0,"{'dist': 2.466600875553886, 'nearest_coord': (-37.886587, 144.698621)}",4048.4,472.2
380.0,1,2,1,House,3/1 Smeaton Avenue,HOPPERS CROSSING,3029.0,-37.875122,144.69258,"Mossfiel Primary School0.4 km awayPrep-6CoEdGovernmentView Catchment,Hoppers Crossing Secondary College0.5 km away7-12CoEdGovernmentView Catchment,St Peter Apostle School0.2 km awayPrep-6CoEdCatholicMore Info",False,213051362.0,"{'dist': 1.3807052436020886, 'nearest_coord': (-37.886587, 144.698621)}",3446.7,405.8
500.0,2,3,2,House,11 Farnborough Place,HOPPERS CROSSING,3029.0,-37.86644,144.66718,"Cambridge Primary School0.8 km awayPrep-6CoEdGovernmentView Catchment,The Grange P-12 College1.1 km awayPrep-12CoEdGovernmentView Catchment,Hoppers Crossing Secondary College2.5 km away7-12CoEdGovernmentMore Info",False,213051362.0,"{'dist': 3.1811900129459687, 'nearest_coord': (-37.890649, 144.686494)}",5214.3,490.2
460.0,1,3,2,House,12 Bolger Crescent,HOPPERS CROSSING,3029.0,-37.873425,144.70003,"Mossfiel Primary School0.4 km awayPrep-6CoEdGovernmentView Catchment,Hoppers Crossing Secondary College0.5 km away7-12CoEdGovernmentView Catchment,St Peter Apostle School0.9 km awayPrep-6CoEdCatholicMore Info",False,213051362.0,"{'dist': 1.4687648208705062, 'nearest_coord': (-37.886587, 144.698621)}",2748.7,344.2
300.0,1,1,1,House,28A Smeaton Avenue,HOPPERS CROSSING,3029.0,-37.873337,144.6923,"Mossfiel Primary School0.3 km awayPrep-6CoEdGovernmentView Catchment,Hoppers Crossing Secondary College0.4 km away7-12CoEdGovernmentView Catchment,St Peter Apostle School0.2 km awayPrep-6CoEdCatholicMore Info",False,213051362.0,"{'dist': 1.5743205519291998, 'nearest_coord': (-37.886587, 144.698621)}",3520.9,422.0
10000149330801.0,2,4,4,House,5 Leatherwood Drive,HOPPERS CROSSING,3029.0,-37.85116,144.69843,"Baden Powell P-9 College-Tarneit Campus1 km awayGovernmentView Catchment,Baden Powell P-9 College1.2 km awayPrep-9CoEdGovernmentView Catchment,Tarneit Senior College2.6 km away10-12CoEdGovernmentView Catchment",False,213051361.0,"{'dist': 3.9393439090267868, 'nearest_coord': (-37.886587, 144.698621)}",5680.8,703.1
600.0,2,4,2,House,78 Morris road,HOPPERS CROSSING,3029.0,-37.876743,144.7022,"Mossfiel Primary School0.7 km awayPrep-6CoEdGovernmentView Catchment,Hoppers Crossing Secondary College0.9 km away7-12CoEdGovernmentView Catchment,St Peter Apostle School1.1 km awayPrep-6CoEdCatholicMore Info",False,213051361.0,"{'dist': 1.1387811519832114, 'nearest_coord': (-37.886587, 144.698621)}",2150.5,261.5
595.0,2,4,5,House,37 Cleveland Drive,HOPPERS CROSSING,3029.0,-37.86519,144.668,"Cambridge Primary School0.7 km awayPrep-6CoEdGovernmentView Catchment,The Grange P-12 College1 km awayPrep-12CoEdGovernmentView Catchment,Hoppers Crossing Secondary College2.5 km away7-12CoEdGovernmentMore Info",False,213051362.0,"{'dist': 3.26325548033142, 'nearest_coord': (-37.890649, 144.686494)}",5362.5,511.5
530.0,2,3,1,House,32A Dowling Avenue,HOPPERS CROSSING,3029.0,-37.866493,144.67877,"Cambridge Primary School0.3 km awayPrep-6CoEdGovernmentView Catchment,The Grange P-12 College1 km awayPrep-12CoEdGovernmentView Catchment,Hoppers Crossing Secondary College1.5 km away7-12CoEdGovernmentMore Info",False,213051362.0,"{'dist': 2.7702567334738166, 'nearest_coord': (-37.890649, 144.686494)}",4120.0,405.9
520.0,2,3,4,House,5 LORENA CLOSE,HOPPERS CROSSING,3029.0,-37.87518,144.66966,"Westgrove Primary School1 km awayPrep-6CoEdGovernmentView Catchment,The Grange P-12 College1.9 km awayPrep-12CoEdGovernmentView Catchment,Wyndham Central Secondary College2.1 km away7-12CoEdGovernmentMore Info",False,213051362.0,"{'dist': 2.2674575046360004, 'nearest_coord': (-37.890649, 144.686494)}",4030.4,391.7
500.0,2,4,2,House,16 Kathleen Cres,HOPPERS CROSSING,3029.0,-37.874767,144.66641,"Westgrove Primary School0.8 km awayPrep-6CoEdGovernmentView Catchment,Wyndham Central Secondary College1.9 km away7-12CoEdGovernmentView Catchment,Bethany Catholic Primary School0.7 km awayPrep-6CoEdCatholicMore Info",False,213051362.0,"{'dist': 2.495119350430693, 'nearest_coord': (-37.890649, 144.686494)}",4034.7,392.3
500.0,2,3,1,House,27 Oleander Drive,HOPPERS CROSSING,3029.0,-37.86628,144.67255,"Cambridge Primary School0.3 km awayPrep-6CoEdGovernmentView Catchment,The Grange P-12 College0.9 km awayPrep-12CoEdGovernmentView Catchment,Hoppers Crossing Secondary College2.1 km away7-12CoEdGovernmentMore Info",False,213051362.0,"{'dist': 2.9732674500090233, 'nearest_coord': (-37.890649, 144.686494)}",4774.0,510.5
490.0,1,3,1,House,21 Yarrabee Drive,HOPPERS CROSSING,3029.0,-37.88065,144.68483,"Woodville Primary School0.7 km awayPrep-6CoEdGovernmentView Catchment,Hoppers Crossing Secondary College1.4 km away7-12CoEdGovernmentView Catchment,Heathdale Christian College0.3 km awayPrep-12CoEdPrivateMore Info",False,213051362.0,"{'dist': 1.1213887008899428, 'nearest_coord': (-37.890649, 144.686494)}",2296.7,222.6
490.0,2,3,2,House,5 Amy Close,HOPPERS CROSSING,3029.0,-37.87555,144.6703,"Westgrove Primary School1 km awayPrep-6CoEdGovernmentView Catchment,The Grange P-12 College2 km awayPrep-12CoEdGovernmentView Catchment,Wyndham Central Secondary College2.1 km away7-12CoEdGovernmentMore Info",False,213051362.0,"{'dist': 2.199704632657973, 'nearest_coord': (-37.890649, 144.686494)}",3884.8,393.8
480.0,2,5,0,House,10 Fairway Avenue,HOPPERS CROSSING,3029.0,-37.88319,144.69406,"Woodville Primary School0.2 km awayPrep-6CoEdGovernmentView Catchment,Hoppers Crossing Secondary College1.3 km away7-12CoEdGovernmentView Catchment,St Peter Apostle School1 km awayPrep-6CoEdCatholicMore Info",False,213051362.0,"{'dist': 0.550363081992129, 'nearest_coord': (-37.886587, 144.698621)}",3220.7,396.0
480.0,2,4,2,House,17 Baggot Drive,HOPPERS CROSSING,3029.0,-37.874733,144.68576,"Mossfiel Primary School0.9 km awayPrep-6CoEdGovernmentView Catchment,Hoppers Crossing Secondary College0.9 km away7-12CoEdGovernmentView Catchment,St Peter Apostle School0.4 km awayPrep-6CoEdCatholicMore Info",False,213051362.0,"{'dist': 1.7353618988129318, 'nearest_coord': (-37.886587, 144.698621)}",3762.1,413.4
460.0,1,3,3,House,13 Woolpack Street,HOPPERS CROSSING,3029.0,-37.869072,144.66873,"Cambridge Primary School0.6 km awayPrep-6CoEdGovernmentView Catchment,The Grange P-12 College1.3 km awayPrep-12CoEdGovernmentView Catchment,Hoppers Crossing Secondary College2.3 km away7-12CoEdGovernmentMore Info",False,213051362.0,"{'dist': 2.8613216505657517, 'nearest_coord': (-37.890649, 144.686494)}",4490.3,480.9
460.0,1,3,2,House,10 George Greeves Place,HOPPERS CROSSING,3029.0,-37.870056,144.66628,"Cambridge Primary School0.9 km awayPrep-6CoEdGovernmentView Catchment,The Grange P-12 College1.5 km awayPrep-12CoEdGovernmentView Catchment,Wyndham Central Secondary College2.4 km away7-12CoEdGovernmentMore Info",False,213051362.0,"{'dist': 2.896685013031655, 'nearest_coord': (-37.890649, 144.686494)}",4844.2,480.0
460.0,1,3,4,House,94 Heaths Road,HOPPERS CROSSING,3029.0,-37.878708,144.69675,"Mossfiel Primary School0.6 km awayPrep-6CoEdGovernmentView Catchment,Hoppers Crossing Secondary College0.8 km away7-12CoEdGovernmentView Catchment,St Peter Apostle School0.7 km awayPrep-6CoEdCatholicMore Info",False,213051362.0,"{'dist': 0.8913612902668193, 'nearest_coord': (-37.886587, 144.698621)}",2272.8,258.7
450.0,1,3,0,House,3 Geddes Crescent,HOPPERS CROSSING,3029.0,-37.877514,144.68524,"Woodville Primary School0.9 km awayPrep-6CoEdGovernmentView Catchment,Hoppers Crossing Secondary College1.1 km away7-12CoEdGovernmentView Catchment,Heathdale Christian College0.5 km awayPrep-12CoEdPrivateMore Info",False,213051362.0,"{'dist': 1.4646878011002291, 'nearest_coord': (-37.890649, 144.686494)}",2620.3,254.6
450.0,1,3,2,House,137 Heaths Road,HOPPERS CROSSING,3029.0,-37.878975,144.69315,"Woodville Primary School0.5 km awayPrep-6CoEdGovernmentView Catchment,Hoppers Crossing Secondary College0.9 km away7-12CoEdGovernmentView Catchment,St Peter Apostle School0.5 km awayPrep-6CoEdCatholicMore Info",False,213051362.0,"{'dist': 0.9731217603977469, 'nearest_coord': (-37.886587, 144.698621)}",3222.2,350.0
440.0,1,3,1,House,53 Hampstead Drive,HOPPERS CROSSING,3029.0,-37.88225,144.69101,"Woodville Primary School0.2 km awayPrep-6CoEdGovernmentView Catchment,Hoppers Crossing Secondary College1.3 km away7-12CoEdGovernmentView Catchment,St Peter Apostle School0.8 km awayPrep-6CoEdCatholicMore Info",False,213051362.0,"{'dist': 0.8238460197064794, 'nearest_coord': (-37.886587, 144.698621)}",3084.0,376.4
440.0,1,3,1,House,1/5 Gill Place,HOPPERS CROSSING,3029.0,-37.855515,144.70421,"Baden Powell P-9 College1.3 km awayPrep-9CoEdGovernmentView Catchment,Baden Powell P-9 College-Tarneit Campus1.7 km awayGovernmentView Catchment,Tarneit Senior College3.3 km away10-12CoEdGovernmentView Catchment",False,213051361.0,"{'dist': 3.4897089675406696, 'nearest_coord': (-37.886587, 144.698621)}",4651.1,560.6
420.0,2,3,1,Apartment / Unit / Flat,1/5 Second Avenue,HOPPERS CROSSING,3029.0,-37.881763,144.69852,"Woodville Primary School0.6 km awayPrep-6CoEdGovernmentView Catchment,Hoppers Crossing Secondary College1.2 km away7-12CoEdGovernmentView Catchment,St Peter Apostle School1.1 km awayPrep-6CoEdCatholicMore Info",False,213051362.0,"{'dist': 0.5364783148345187, 'nearest_coord': (-37.886587, 144.698621)}",2271.0,282.4
400.0,2,3,1,House,39 Bethany road,HOPPERS CROSSING,3029.0,-37.857628,144.6785,"The Grange P-12 College0.3 km awayPrep-12CoEdGovernmentView Catchment,Cambridge Primary School1.1 km awayPrep-6CoEdGovernmentMore Info,Davis Creek Primary School1.6 km awayPrep-6CoEdGovernmentMore Info",False,213051361.0,"{'dist': 3.6726356648619864, 'nearest_coord': (-37.886587, 144.698621)}",6219.2,658.1
320.0,1,1,0,Studio,7/20 Warringa Crescent,HOPPERS CROSSING,3029.0,-37.881916,144.69376,"Woodville Primary School0.2 km awayPrep-6CoEdGovernmentView Catchment,Hoppers Crossing Secondary College1.2 km away7-12CoEdGovernmentView Catchment,St Peter Apostle School0.9 km awayPrep-6CoEdCatholicMore Info",False,213051362.0,"{'dist': 0.6721319346015567, 'nearest_coord': (-37.886587, 144.698621)}",3174.5,389.4
320.0,1,1,0,Studio,5/25 Moffatt Crescent,HOPPERS CROSSING,3029.0,-37.87796,144.69812,"Mossfiel Primary School0.6 km awayPrep-6CoEdGovernmentView Catchment,Hoppers Crossing Secondary College0.8 km away7-12CoEdGovernmentView Catchment,St Peter Apostle School0.8 km awayPrep-6CoEdCatholicMore Info",False,213051362.0,"{'dist': 0.9602871485589423, 'nearest_coord': (-37.886587, 144.698621)}",2321.7,277.4
320.0,1,1,1,Studio,4/25 Moffatt Crescent,HOPPERS CROSSING,3029.0,-37.87796,144.69812,"Mossfiel Primary School0.6 km awayPrep-6CoEdGovernmentView Catchment,Hoppers Crossing Secondary College0.8 km away7-12CoEdGovernmentView Catchment,St Peter Apostle School0.8 km awayPrep-6CoEdCatholicMore Info",False,213051362.0,"{'dist': 0.9602871485589423, 'nearest_coord': (-37.886587, 144.698621)}",2321.7,277.4
315.0,1,1,0,Studio,4/20 Warringa Crescent,HOPPERS CROSSING,3029.0,-37.881916,144.69376,"Woodville Primary School0.2 km awayPrep-6CoEdGovernmentView Catchment,Hoppers Crossing Secondary College1.2 km away7-12CoEdGovernmentView Catchment,St Peter Apostle School0.9 km awayPrep-6CoEdCatholicMore Info",False,213051362.0,"{'dist': 0.6721319346015567, 'nearest_coord': (-37.886587, 144.698621)}",3174.5,389.4
550.0,2,4,2,House,27 Ethio Street,TARNEIT,3029.0,-37.81312,144.67198,"Tarneit Senior College2.3 km away10-12CoEdGovernmentView Catchment,Tarneit P-9 College2.7 km awayPrep-9CoEdGovernmentView Catchment,Wimba Primary School1.3 km awayGovernmentMore Info",False,213051584.0,"{'dist': 7.120319445636556, 'nearest_coord': (-37.781307, 144.742309)}",12382.9,952.1
5202260.0,2,4,2,House,4 Allambie Street,TARNEIT,3029.0,-37.83309,144.65886,"Tarneit Rise Primary School0.7 km awayPrep-6CoEdGovernmentView Catchment,Tarneit Senior College1.8 km away10-12CoEdGovernmentView Catchment,Tarneit P-9 College2 km awayPrep-9CoEdGovernmentView Catchment",False,213051583.0,"{'dist': 6.844608795159566, 'nearest_coord': (-37.890649, 144.686494)}",10009.1,916.3
530.0,2,3,2,Townhouse,422 Bethany Road,TARNEIT,3029.0,-37.85252,144.6479,"Karwan Primary School0.2 km awayPrep-6CoEdGovernmentView Catchment,The Grange P-12 College2.5 km awayPrep-12CoEdGovernmentView Catchment,Brinbeal Secondary College0.6 km awayGovernmentMore Info",False,213051582.0,"{'dist': 5.426932174543798, 'nearest_coord': (-37.890649, 144.686494)}",8235.7,794.1
500.0,2,4,2,House,670 Tarneit Road,TARNEIT,3029.0,-37.84996,144.66838,"Davis Creek Primary School1 km awayPrep-6CoEdGovernmentView Catchment,The Grange P-12 College1.1 km awayPrep-12CoEdGovernmentView Catchment,Tarneit Senior College2.1 km away10-12CoEdGovernmentMore Info",False,213051585.0,"{'dist': 4.795671088112057, 'nearest_coord': (-37.890649, 144.686494)}",7355.4,685.2
500.0,2,3,1,House,6 Primary Road,TARNEIT,3029.0,-37.821693,144.666,"Tarneit Senior College1.7 km away10-12CoEdGovernmentView Catchment,Tarneit P-9 College2.1 km awayPrep-9CoEdGovernmentView Catchment,Wimba Primary School0.4 km awayGovernmentMore Info",False,213051584.0,"{'dist': 7.7634881943170555, 'nearest_coord': (-37.886587, 144.698621)}",11830.5,1132.3
650.0,2,4,2,House,15 Leeward Drive,TARNEIT,3029.0,-37.861088,144.64655,"Karwan Primary School0.9 km awayPrep-6CoEdGovernmentView Catchment,The Grange P-12 College2.5 km awayPrep-12CoEdGovernmentView Catchment,Brinbeal Secondary College0.8 km awayGovernmentMore Info",False,213051582.0,"{'dist': 4.805843810020718, 'nearest_coord': (-37.890649, 144.686494)}",8316.5,807.0
620.0,2,4,2,House,12 Rainone Place,TARNEIT,3029.0,-37.86892,144.66455,"Cambridge Primary School1 km awayPrep-6CoEdGovernmentView Catchment,The Grange P-12 College1.5 km awayPrep-12CoEdGovernmentView Catchment,Wyndham Central Secondary College2.4 km away7-12CoEdGovernmentMore Info",False,213051585.0,"{'dist': 3.089835567151193, 'nearest_coord': (-37.890649, 144.686494)}",5005.9,478.7
600.0,2,4,0,House,24 Orientation Avenue,TARNEIT,3029.0,-37.824005,144.67035,"Tarneit Senior College1.3 km away10-12CoEdGovernmentView Catchment,Tarneit P-9 College1.7 km awayPrep-9CoEdGovernmentView Catchment,Wimba Primary School0.1 km awayGovernmentMore Info",False,213051584.0,"{'dist': 7.388213917179485, 'nearest_coord': (-37.886587, 144.698621)}",11195.7,1082.5
600.0,2,4,1,House,1067A Leakes Road,TARNEIT,3029.0,-37.830296,144.65536,"Tarneit Rise Primary School1.1 km awayPrep-6CoEdGovernmentView Catchment,Tarneit Senior College2.1 km away10-12CoEdGovernmentView Catchment,Tarneit P-9 College2.3 km awayPrep-9CoEdGovernmentView Catchment",True,213051583.0,"{'dist': 7.246206613161928, 'nearest_coord': (-37.890649, 144.686494)}",10619.0,963.1
575.0,2,4,2,House,33 Edifice Drive,TARNEIT,3029.0,-37.820328,144.6843,"Nearnung Primary School0.6 km awayPrep-6CoEdGovernmentView Catchment,Tarneit Senior College1.5 km away10-12CoEdGovernmentView Catchment,Tarneit P-9 College1.8 km awayPrep-9CoEdGovernmentView Catchment",False,213051584.0,"{'dist': 6.693482156696717, 'nearest_coord': (-37.781307, 144.742309)}",12330.3,966.0
560.0,2,4,2,House,18 Bunnorong Street,TARNEIT,3029.0,-37.83577,144.68835,"Tarneit P-9 College0.7 km awayPrep-9CoEdGovernmentView Catchment,Tarneit Senior College0.8 km away10-12CoEdGovernmentView Catchment,Nearnung Primary School1.3 km awayPrep-6CoEdGovernmentMore Info",False,213051583.0,"{'dist': 5.722089328003835, 'nearest_coord': (-37.886587, 144.698621)}",9214.2,864.2
575.0,2,4,2,House,64 Gowar road,TARNEIT,3029.0,-37.82976,144.68152,"Tarneit Senior College0.4 km away10-12CoEdGovernmentView Catchment,Nearnung Primary School0.5 km awayPrep-6CoEdGovernmentView Catchment,Tarneit P-9 College0.8 km awayPrep-9CoEdGovernmentView Catchment",False,213051584.0,"{'dist': 6.494788879337129, 'nearest_coord': (-37.886587, 144.698621)}",12332.0,1218.8
550.0,2,3,2,House,42 Samaria Street,TARNEIT,3029.0,-37.838783,144.68285,"Tarneit P-9 College0.3 km awayPrep-9CoEdGovernmentView Catchment,Tarneit Senior College0.7 km away10-12CoEdGovernmentView Catchment,Nearnung Primary School1.5 km awayPrep-6CoEdGovernmentMore Info",False,213051583.0,"{'dist': 5.492911751220506, 'nearest_coord': (-37.886587, 144.698621)}",8398.4,815.5
540.0,2,3,1,House,15 Haybale Circuit,TARNEIT,3029.0,-37.819862,144.6979,"Nearnung Primary School1.6 km awayPrep-6CoEdGovernmentView Catchment,Tarneit Senior College2.2 km away10-12CoEdGovernmentView Catchment,Tarneit P-9 College2.4 km awayPrep-9CoEdGovernmentView Catchment",False,213051584.0,"{'dist': 5.796854776846569, 'nearest_coord': (-37.781307, 144.742309)}",10880.1,863.9
