price,bathrooms,bedrooms,parking,type,street,suburb,postcode,latitude,longitude,school,furnished,SA2_code,CBD_distance,CBD_duration_time
550.0,2,4,2,House,572 Cameron Street,DONNYBROOK,3064.0,-37.530876,144.9989,"Donnybrook Primary School0.7 km awayPrep-6CoEdGovernmentView Catchment,Mickleham Secondary College8.6 km away7CoEdGovernmentView Catchment,Mount Ridley P-12 College8.6 km awayPrep-12CoEdGovernmentView Catchment",False,209041225.0,42037.8,3052.5
550.0,2,4,2,House,559 Cameron Street,DONNYBROOK,3064.0,-37.531075,144.99704,"Donnybrook Primary School0.7 km awayPrep-6CoEdGovernmentView Catchment,Mickleham Secondary College8.4 km away7CoEdGovernmentView Catchment,Mount Ridley P-12 College8.5 km awayPrep-12CoEdGovernmentView Catchment",False,209041225.0,41967.8,3044.6
540.0,2,4,2,House,10 Tannery Street,DONNYBROOK,3064.0,-37.529613,145.00014,"Donnybrook Primary School0.8 km awayPrep-6CoEdGovernmentView Catchment,Mickleham Secondary College8.7 km away7CoEdGovernmentView Catchment,Mount Ridley P-12 College8.8 km awayPrep-12CoEdGovernmentView Catchment",False,209041225.0,42296.6,3120.9
550.0,2,4,2,Townhouse,38 Hawkesbury Drive,DONNYBROOK,3064.0,-37.540028,144.96925,"Gilgai Plains Primary School1.2 km awayPrep-6CoEdGovernmentView Catchment,Mount Ridley P-12 College6 km awayPrep-12CoEdGovernmentView Catchment,Merriang Special Developmental School14.7 km awayUCoEdGovernmentView Catchment",False,209041225.0,37993.2,2662.9
530.0,2,3,2,Townhouse,55 Curbridge Drive,DONNYBROOK,3064.0,-37.544876,144.959,"Gilgai Plains Primary School1.3 km awayPrep-6CoEdGovernmentView Catchment,Mount Ridley P-12 College5 km awayPrep-12CoEdGovernmentView Catchment,Merriang Special Developmental School14.5 km awayUCoEdGovernmentView Catchment",False,209041225.0,37842.9,2660.3
550.0,2,4,2,House,3 Vestige Street,DONNYBROOK,3064.0,-37.542976,144.97868,"Donnybrook Primary School1.8 km awayPrep-6CoEdGovernmentView Catchment,Mount Ridley P-12 College6.4 km awayPrep-12CoEdGovernmentView Catchment,Merriang Special Developmental School14.2 km awayUCoEdGovernmentView Catchment",False,209041225.0,38858.2,2742.6
520.0,2,4,2,House,11 FAYALITE CIRCUIT,DONNYBROOK,3064.0,-37.530155,144.99615,"Donnybrook Primary School0.8 km awayPrep-6CoEdGovernmentView Catchment,Mickleham Secondary College8.3 km away7CoEdGovernmentView Catchment,Mount Ridley P-12 College8.5 km awayPrep-12CoEdGovernmentView Catchment",False,209041225.0,42186.9,3094.5
520.0,2,4,2,House,55 Langford Road,DONNYBROOK,3064.0,-37.548893,144.96085,"Gilgai Plains Primary School1.8 km awayPrep-6CoEdGovernmentView Catchment,Mount Ridley P-12 College4.8 km awayPrep-12CoEdGovernmentView Catchment,Merriang Special Developmental School14 km awayUCoEdGovernmentView Catchment",False,209041225.0,38185.2,2667.3
500.0,2,4,2,House,546 CAMERON STREET,DONNYBROOK,3064.0,-37.530563,144.99617,"Donnybrook Primary School0.7 km awayPrep-6CoEdGovernmentView Catchment,Mickleham Secondary College8.3 km away7CoEdGovernmentView Catchment,Mount Ridley P-12 College8.5 km awayPrep-12CoEdGovernmentView Catchment",False,209041225.0,42061.9,3053.3
500.0,2,3,2,House,19 Oakham Street,DONNYBROOK,3064.0,-37.54847,144.96526,"Gilgai Plains Primary School1.8 km awayPrep-6CoEdGovernmentView Catchment,Mount Ridley P-12 College5.1 km awayPrep-12CoEdGovernmentView Catchment,Merriang Special Developmental School13.9 km awayUCoEdGovernmentView Catchment",False,209041225.0,38649.6,2692.6
500.0,2,3,2,House,5 Selby Way,DONNYBROOK,3064.0,-37.546658,144.96114,"Gilgai Plains Primary School1.5 km awayPrep-6CoEdGovernmentView Catchment,Mount Ridley P-12 College5 km awayPrep-12CoEdGovernmentView Catchment,Merriang Special Developmental School14.2 km awayUCoEdGovernmentView Catchment",False,209041225.0,37919.8,2635.6
490.0,2,4,2,House,29 Leafspring Road,DONNYBROOK,3064.0,-37.54003,144.97966,"Donnybrook Primary School1.6 km awayPrep-6CoEdGovernmentView Catchment,Mount Ridley P-12 College6.7 km awayPrep-12CoEdGovernmentView Catchment,Merriang Special Developmental School14.5 km awayUCoEdGovernmentView Catchment",False,209041225.0,39010.0,2779.1
450.0,2,4,2,House,28 River Redgum Blvd,DONNYBROOK,3064.0,-37.542564,144.96875,"Gilgai Plains Primary School1.4 km awayPrep-6CoEdGovernmentView Catchment,Mount Ridley P-12 College5.8 km awayPrep-12CoEdGovernmentView Catchment,Merriang Special Developmental School14.4 km awayUCoEdGovernmentView Catchment",False,209041225.0,37720.9,2599.2
600.0,2,4,2,House,16 Danzig Street,KALKALLO,3064.0,-37.52442,144.96191,"Mickleham Secondary College5.3 km away7CoEdGovernmentView Catchment,Mount Ridley P-12 College7.1 km awayPrep-12CoEdGovernmentView Catchment,Merriang Special Developmental School16.5 km awayUCoEdGovernmentView Catchment",False,210051445.0,39109.7,2749.1
600.0,2,5,2,House,23 Roscoe Avenue,KALKALLO,3064.0,-37.52506,144.95956,"Mickleham Secondary College5.1 km away7CoEdGovernmentView Catchment,Mount Ridley P-12 College6.9 km awayPrep-12CoEdGovernmentView Catchment,Merriang Special Developmental School16.5 km awayUCoEdGovernmentView Catchment",False,210051445.0,38538.4,2720.3
470.0,2,3,1,House,25 Tucholsky Dr,KALKALLO,3064.0,-37.518654,144.95702,"Mickleham Secondary College5 km away7CoEdGovernmentView Catchment,Mount Ridley P-12 College7.5 km awayPrep-12CoEdGovernmentView Catchment,Merriang Special Developmental School17.3 km awayUCoEdGovernmentView Catchment",False,210051445.0,39643.9,2779.7
500.0,2,4,2,House,17 Kales Circuit,KALKALLO,3064.0,-37.53617,144.96202,"Gilgai Plains Primary School0.5 km awayPrep-6CoEdGovernmentView Catchment,Mickleham Secondary College5.4 km away7CoEdGovernmentView Catchment,Mount Ridley P-12 College6 km awayPrep-12CoEdGovernmentView Catchment",False,210051445.0,37682.0,2676.2
650.0,3,4,2,House,8 Taketa Way,KALKALLO,3064.0,-37.532337,144.96895,"Gilgai Plains Primary School0.9 km awayPrep-6CoEdGovernmentView Catchment,Mickleham Secondary College5.9 km away7CoEdGovernmentView Catchment,Mount Ridley P-12 College6.7 km awayPrep-12CoEdGovernmentView Catchment",False,210051445.0,38679.4,2739.1
600.0,2,4,2,House,19 Hackney Way,KALKALLO,3064.0,-37.532375,144.96408,"Gilgai Plains Primary School0.5 km awayPrep-6CoEdGovernmentView Catchment,Mickleham Secondary College5.5 km away7CoEdGovernmentView Catchment,Mount Ridley P-12 College6.4 km awayPrep-12CoEdGovernmentView Catchment",False,210051445.0,38587.2,2744.8
590.0,2,4,2,House,5 Firewheel Road,KALKALLO,3064.0,-37.520397,144.95251,"Mickleham Secondary College4.5 km away7CoEdGovernmentView Catchment,Mount Ridley P-12 College7.1 km awayPrep-12CoEdGovernmentView Catchment,Merriang Special Developmental School17.2 km awayUCoEdGovernmentView Catchment",False,210051445.0,39446.3,2786.7
570.0,2,4,2,House,17 Roscoe Avenue,KALKALLO,3064.0,-37.52555,144.9594,"Mickleham Secondary College5.1 km away7CoEdGovernmentView Catchment,Mount Ridley P-12 College6.9 km awayPrep-12CoEdGovernmentView Catchment,Merriang Special Developmental School16.5 km awayUCoEdGovernmentView Catchment",False,210051445.0,38487.6,2708.1
530.0,2,4,2,House,6 Dwarf Road,KALKALLO,3064.0,-37.518436,144.95872,"Mickleham Secondary College5.1 km away7CoEdGovernmentView Catchment,Mount Ridley P-12 College7.5 km awayPrep-12CoEdGovernmentView Catchment,Merriang Special Developmental School17.2 km awayUCoEdGovernmentView Catchment",False,210051445.0,39157.1,2756.7
520.0,2,3,2,House,1 Pippa Way,KALKALLO,3064.0,-37.537674,144.96051,"Gilgai Plains Primary School0.5 km awayPrep-6CoEdGovernmentView Catchment,Mickleham Secondary College5.3 km away7CoEdGovernmentView Catchment,Mount Ridley P-12 College5.8 km awayPrep-12CoEdGovernmentView Catchment",False,210051445.0,37363.2,2608.2
520.0,2,4,2,House,32 Columbus Road,KALKALLO,3064.0,-37.518456,144.96121,"Mickleham Secondary College5.3 km away7CoEdGovernmentView Catchment,Mount Ridley P-12 College7.6 km awayPrep-12CoEdGovernmentView Catchment,Merriang Special Developmental School17.2 km awayUCoEdGovernmentView Catchment",False,210051445.0,39419.2,2763.9
520.0,2,4,2,House,1 Yasuda Way,KALKALLO,3064.0,-37.52266,144.95216,"Mickleham Secondary College4.5 km away7CoEdGovernmentView Catchment,Mount Ridley P-12 College6.9 km awayPrep-12CoEdGovernmentView Catchment,Merriang Special Developmental School17 km awayUCoEdGovernmentView Catchment",False,210051445.0,39655.5,2805.4
500.0,2,4,2,Townhouse,243 Dwyer Street,KALKALLO,3064.0,-37.520412,144.95844,"Mickleham Secondary College5 km away7CoEdGovernmentView Catchment,Mount Ridley P-12 College7.3 km awayPrep-12CoEdGovernmentView Catchment,Merriang Special Developmental School17 km awayUCoEdGovernmentView Catchment",False,210051445.0,38858.2,2709.7
480.0,2,3,2,House,7 Sodium Street,KALKALLO,3064.0,-37.518974,144.95242,"Mickleham Secondary College4.6 km away7CoEdGovernmentView Catchment,Mount Ridley P-12 College7.3 km awayPrep-12CoEdGovernmentView Catchment,Merriang Special Developmental School17.4 km awayUCoEdGovernmentView Catchment",False,210051445.0,39526.0,2805.4
475.0,2,3,1,House,41 Klandy Drive,KALKALLO,3064.0,-37.53791,144.95882,"Gilgai Plains Primary School0.5 km awayPrep-6CoEdGovernmentView Catchment,Mickleham Secondary College5.2 km away7CoEdGovernmentView Catchment,Mount Ridley P-12 College5.6 km awayPrep-12CoEdGovernmentView Catchment",False,210051445.0,37209.4,2580.6
460.0,2,3,2,Townhouse,12 Furphy Walk,KALKALLO,3064.0,-37.525448,144.96672,"Gilgai Plains Primary School1.1 km awayPrep-6CoEdGovernmentView Catchment,Mickleham Secondary College5.7 km away7CoEdGovernmentView Catchment,Mount Ridley P-12 College7.2 km awayPrep-12CoEdGovernmentView Catchment",False,210051445.0,39870.7,2929.0
460.0,2,3,2,House,9 Peck Place,KALKALLO,3064.0,-37.53057,144.96614,"Gilgai Plains Primary School0.7 km awayPrep-6CoEdGovernmentView Catchment,Mickleham Secondary College5.7 km away7CoEdGovernmentView Catchment,Mount Ridley P-12 College6.7 km awayPrep-12CoEdGovernmentView Catchment",False,210051445.0,38906.5,2773.9
440.0,2,3,1,House,28 Sodium Street,KALKALLO,3064.0,-37.518055,144.953,"Mickleham Secondary College4.6 km away7CoEdGovernmentView Catchment,Mount Ridley P-12 College7.4 km awayPrep-12CoEdGovernmentView Catchment,Merriang Special Developmental School17.4 km awayUCoEdGovernmentView Catchment",False,210051445.0,39741.3,2819.4
600.0,2,4,2,House,20 Fadaro Street,KALKALLO,3064.0,-37.531532,144.9652,"Gilgai Plains Primary School0.6 km awayPrep-6CoEdGovernmentView Catchment,Mickleham Secondary College5.6 km away7CoEdGovernmentView Catchment,Mount Ridley P-12 College6.5 km awayPrep-12CoEdGovernmentView Catchment",False,210051445.0,38612.0,2738.1
560.0,2,4,2,House,12 Thunder Drive,KALKALLO,3064.0,-37.526608,144.96498,"Gilgai Plains Primary School0.9 km awayPrep-6CoEdGovernmentView Catchment,Mickleham Secondary College5.6 km away7CoEdGovernmentView Catchment,Mount Ridley P-12 College7 km awayPrep-12CoEdGovernmentView Catchment",False,210051445.0,39999.3,2946.1
490.0,2,3,2,House,40 Fadaro Street,KALKALLO,3064.0,-37.5317,144.96732,"Gilgai Plains Primary School0.8 km awayPrep-6CoEdGovernmentView Catchment,Mickleham Secondary College5.8 km away7CoEdGovernmentView Catchment,Mount Ridley P-12 College6.6 km awayPrep-12CoEdGovernmentView Catchment",False,210051445.0,38710.6,2739.1
550.0,2,4,2,House,72 Bells Avenue,KALKALLO,3064.0,-37.53328,144.96756,"Gilgai Plains Primary School0.8 km awayPrep-6CoEdGovernmentView Catchment,Mickleham Secondary College5.8 km away7CoEdGovernmentView Catchment,Mount Ridley P-12 College6.5 km awayPrep-12CoEdGovernmentView Catchment",False,210051445.0,38456.7,2706.3
550.0,2,4,2,House,6 Kips Street,KALKALLO,3064.0,-37.52001,144.96341,"Mickleham Secondary College5.5 km away7CoEdGovernmentView Catchment,Mount Ridley P-12 College7.6 km awayPrep-12CoEdGovernmentView Catchment,Merriang Special Developmental School17 km awayUCoEdGovernmentView Catchment",False,210051445.0,39780.1,2804.7
550.0,3,4,2,House,27 Cooney Circuit,KALKALLO,3064.0,-37.527912,144.96227,"Gilgai Plains Primary School0.7 km awayPrep-6CoEdGovernmentView Catchment,Mickleham Secondary College5.3 km away7CoEdGovernmentView Catchment,Mount Ridley P-12 College6.7 km awayPrep-12CoEdGovernmentView Catchment",False,210051445.0,38492.9,2750.1
540.0,2,4,2,House,10 Frankel Road,KALKALLO,3064.0,-37.524197,144.95921,"Mickleham Secondary College5.1 km away7CoEdGovernmentView Catchment,Mount Ridley P-12 College7 km awayPrep-12CoEdGovernmentView Catchment,Merriang Special Developmental School16.6 km awayUCoEdGovernmentView Catchment",False,210051445.0,38831.4,2711.6
530.0,2,3,1,House,28 Columbus Road,KALKALLO,3064.0,-37.51866,144.96118,"Mickleham Secondary College5.3 km away7CoEdGovernmentView Catchment,Mount Ridley P-12 College7.6 km awayPrep-12CoEdGovernmentView Catchment,Merriang Special Developmental School17.2 km awayUCoEdGovernmentView Catchment",False,210051445.0,39442.1,2766.6
530.0,2,4,2,House,6 Yasuda Way,KALKALLO,3064.0,-37.522438,144.95262,"Mickleham Secondary College4.5 km away7CoEdGovernmentView Catchment,Mount Ridley P-12 College6.9 km awayPrep-12CoEdGovernmentView Catchment,Merriang Special Developmental School17 km awayUCoEdGovernmentView Catchment",False,210051445.0,39611.8,2807.9
520.0,2,4,2,House,7 Fenska Street,KALKALLO,3064.0,-37.521072,144.95357,"Mickleham Secondary College4.6 km away7CoEdGovernmentView Catchment,Mount Ridley P-12 College7.1 km awayPrep-12CoEdGovernmentView Catchment,Merriang Special Developmental School17.1 km awayUCoEdGovernmentView Catchment",False,210051445.0,39285.9,2756.8
520.0,2,4,2,House,5 Laurina Street,KALKALLO,3064.0,-37.5185,144.95505,"Mickleham Secondary College4.8 km away7CoEdGovernmentView Catchment,Mount Ridley P-12 College7.4 km awayPrep-12CoEdGovernmentView Catchment,Merriang Special Developmental School17.3 km awayUCoEdGovernmentView Catchment",False,210051445.0,39361.8,2787.1
520.0,2,4,2,House,272 Dwyer Street,KALKALLO,3064.0,-37.51863,144.95966,"Mickleham Secondary College5.2 km away7CoEdGovernmentView Catchment,Mount Ridley P-12 College7.6 km awayPrep-12CoEdGovernmentView Catchment,Merriang Special Developmental School17.2 km awayUCoEdGovernmentView Catchment",False,210051445.0,39079.0,2727.4
510.0,2,4,2,House,3 Flame Road,KALKALLO,3064.0,-37.51854,144.95583,"Mickleham Secondary College4.9 km away7CoEdGovernmentView Catchment,Mount Ridley P-12 College7.4 km awayPrep-12CoEdGovernmentView Catchment,Merriang Special Developmental School17.3 km awayUCoEdGovernmentView Catchment",False,210051445.0,39283.7,2786.5
505.0,2,4,2,House,27 Maryland Road,KALKALLO,3064.0,-37.518394,144.96011,"Mickleham Secondary College5.2 km away7CoEdGovernmentView Catchment,Mount Ridley P-12 College7.6 km awayPrep-12CoEdGovernmentView Catchment,Merriang Special Developmental School17.2 km awayUCoEdGovernmentView Catchment",False,210051445.0,39211.5,2757.8
500.0,2,4,2,House,31 Times Street,KALKALLO,3064.0,-37.51866,144.96295,"Mickleham Secondary College5.5 km away7CoEdGovernmentView Catchment,Mount Ridley P-12 College7.7 km awayPrep-12CoEdGovernmentView Catchment,Merriang Special Developmental School17.1 km awayUCoEdGovernmentView Catchment",False,210051445.0,39610.8,2779.5
490.0,2,4,2,House,14 Cromarty Crescent,KALKALLO,3064.0,-37.529224,144.96779,"Gilgai Plains Primary School0.9 km awayPrep-6CoEdGovernmentView Catchment,Mickleham Secondary College5.8 km away7CoEdGovernmentView Catchment,Mount Ridley P-12 College6.9 km awayPrep-12CoEdGovernmentView Catchment",False,210051445.0,39047.4,2773.3
485.0,2,3,2,House,3 Tucholsky Drive,KALKALLO,3064.0,-37.51883,144.95483,"Mickleham Secondary College4.8 km away7CoEdGovernmentView Catchment,Mount Ridley P-12 College7.4 km awayPrep-12CoEdGovernmentView Catchment,Merriang Special Developmental School17.3 km awayUCoEdGovernmentView Catchment",False,210051445.0,39455.0,2773.7
480.0,2,3,2,Townhouse,18 Nick Way,KALKALLO,3064.0,-37.52972,144.9695,"Gilgai Plains Primary School1.1 km awayPrep-6CoEdGovernmentView Catchment,Mickleham Secondary College6 km away7CoEdGovernmentView Catchment,Mount Ridley P-12 College6.9 km awayPrep-12CoEdGovernmentView Catchment",False,210051445.0,38981.0,2766.5
475.0,2,3,2,House,21 Firnberg Street,KALKALLO,3064.0,-37.519073,144.9553,"Mickleham Secondary College4.8 km away7CoEdGovernmentView Catchment,Mount Ridley P-12 College7.4 km awayPrep-12CoEdGovernmentView Catchment,Merriang Special Developmental School17.3 km awayUCoEdGovernmentView Catchment",False,210051445.0,39309.0,2780.3
450.0,2,3,1,Townhouse,7 Cilantro Street,KALKALLO,3064.0,-37.522083,144.95825,"Mickleham Secondary College5 km away7CoEdGovernmentView Catchment,Mount Ridley P-12 College7.2 km awayPrep-12CoEdGovernmentView Catchment,Merriang Special Developmental School16.9 km awayUCoEdGovernmentView Catchment",False,210051445.0,38674.2,2700.6
440.0,2,3,1,Townhouse,22 Quill Circuit,KALKALLO,3064.0,-37.535675,144.96443,"Gilgai Plains Primary School0.6 km awayPrep-6CoEdGovernmentView Catchment,Mickleham Secondary College5.6 km away7CoEdGovernmentView Catchment,Mount Ridley P-12 College6.1 km awayPrep-12CoEdGovernmentView Catchment",False,210051445.0,38268.0,2710.7
550.0,2,3,2,House,11 Latchford Drive,MICKLEHAM,3064.0,-37.54067,144.90239,"Mickleham Secondary College1.5 km away7CoEdGovernmentView Catchment,Mount Ridley P-12 College4.8 km awayPrep-12CoEdGovernmentView Catchment,Yubup Primary School0.8 km awayGovernmentMore Info",False,210051445.0,42233.8,2797.8
500.0,2,4,2,House,5 Bedgebury Street,MICKLEHAM,3064.0,-37.538673,144.91228,"Mickleham Secondary College1.5 km away7CoEdGovernmentView Catchment,Mount Ridley P-12 College4.7 km awayPrep-12CoEdGovernmentView Catchment,Gaayip-Yagila Primary School1.1 km awayPrep-6CoEdGovernmentMore Info",False,210051445.0,39553.8,2735.9
790.0,2,5,4,House,33 Birdsong Avenue,MICKLEHAM,3064.0,-37.566246,144.8902,"Mickleham Primary School1.2 km awayPrep-6CoEdGovernmentView Catchment,Mount Ridley P-12 College3.3 km awayPrep-12CoEdGovernmentView Catchment,Elevation Secondary College3.5 km away7-10CoEdGovernmentMore Info",True,210051445.0,40619.9,2683.9
680.0,3,4,2,House,5 Valetta St,MICKLEHAM,3064.0,-37.52534,144.91122,"Gaayip-Yagila Primary School0.4 km awayPrep-6CoEdGovernmentView Catchment,Mickleham Secondary College0.8 km away7CoEdGovernmentView Catchment,Mount Ridley P-12 College6.2 km awayPrep-12CoEdGovernmentView Catchment",False,210051445.0,41377.1,2935.1
670.0,2,4,2,House,19 Straun Road,MICKLEHAM,3064.0,-37.53046,144.89543,"Mickleham Secondary College0.7 km away7CoEdGovernmentView Catchment,Gaayip-Yagila Primary School1.2 km awayPrep-6CoEdGovernmentView Catchment,Mount Ridley P-12 College6.1 km awayPrep-12CoEdGovernmentView Catchment",False,210051445.0,42250.0,2832.0
620.0,2,4,2,House,17 Rowena Way,MICKLEHAM,3064.0,-37.53169,144.90004,"Mickleham Secondary College0.5 km away7CoEdGovernmentView Catchment,Gaayip-Yagila Primary School0.8 km awayPrep-6CoEdGovernmentView Catchment,Mount Ridley P-12 College5.8 km awayPrep-12CoEdGovernmentView Catchment",False,210051445.0,41816.9,2746.9
620.0,2,4,2,House,8 Leaf Street,MICKLEHAM,3064.0,-37.575836,144.89236,"Aitken Creek Primary School1.4 km awayPrep-6CoEdGovernmentView Catchment,Elevation Secondary College2.5 km away7-10CoEdGovernmentView Catchment,Mount Ridley P-12 College2.8 km awayPrep-12CoEdGovernmentView Catchment",False,210051445.0,38703.7,2761.6
6002607.0,2,4,2,House,11 Masala Street,MICKLEHAM,3064.0,-37.54561,144.88647,"Mickleham Secondary College2.4 km away7CoEdGovernmentView Catchment,Mount Ridley P-12 College5 km awayPrep-12CoEdGovernmentView Catchment,Yubup Primary School0.7 km awayGovernmentMore Info",False,210051445.0,39644.9,2704.3
520.0,2,3,1,House,13 Bringa Drive,MICKLEHAM,3064.0,-37.528355,144.90234,"Mickleham Secondary College0.1 km away7CoEdGovernmentView Catchment,Gaayip-Yagila Primary School0.6 km awayPrep-6CoEdGovernmentView Catchment,Mount Ridley P-12 College6.1 km awayPrep-12CoEdGovernmentView Catchment",False,210051445.0,42309.7,2824.3
680.0,3,4,2,House,13 Onoway Approach,MICKLEHAM,3064.0,-37.543926,144.90025,"Mickleham Secondary College1.8 km away7CoEdGovernmentView Catchment,Mount Ridley P-12 College4.5 km awayPrep-12CoEdGovernmentView Catchment,Yubup Primary School0.6 km awayGovernmentMore Info",False,210051445.0,42555.6,2845.0
670.0,2,4,2,House,11 Docker Circuit,MICKLEHAM,3064.0,-37.53272,144.89536,"Mickleham Secondary College0.8 km away7CoEdGovernmentView Catchment,Gaayip-Yagila Primary School1.3 km awayPrep-6CoEdGovernmentView Catchment,Mount Ridley P-12 College5.8 km awayPrep-12CoEdGovernmentView Catchment",False,210051445.0,41946.9,2797.4
650.0,2,4,2,House,12 Belson Street,MICKLEHAM,3064.0,-37.52156,144.90198,"Mickleham Secondary College0.7 km away7CoEdGovernmentView Catchment,Gaayip-Yagila Primary School1 km awayPrep-6CoEdGovernmentView Catchment,Mount Ridley P-12 College6.8 km awayPrep-12CoEdGovernmentView Catchment",False,210051445.0,43098.9,2888.8
650.0,2,4,2,New House & Land,15 Roseneath Way,MICKLEHAM,3064.0,-37.530067,144.90988,"Gaayip-Yagila Primary School0.2 km awayPrep-6CoEdGovernmentView Catchment,Mickleham Secondary College0.8 km away7CoEdGovernmentView Catchment,Mount Ridley P-12 College5.7 km awayPrep-12CoEdGovernmentView Catchment",False,210051445.0,40214.8,2853.2
620.0,3,4,2,House,9 Langridge Way,MICKLEHAM,3064.0,-37.5208,144.9085,"Gaayip-Yagila Primary School0.9 km awayPrep-6CoEdGovernmentView Catchment,Mickleham Secondary College0.9 km away7CoEdGovernmentView Catchment,Mount Ridley P-12 College6.7 km awayPrep-12CoEdGovernmentView Catchment",False,210051445.0,41567.6,2940.1
610.0,2,4,1,House,72 Darwinia Drive,MICKLEHAM,3064.0,-37.570496,144.88623,"Mickleham Primary School1.1 km awayPrep-6CoEdGovernmentView Catchment,Elevation Secondary College3.1 km away7-10CoEdGovernmentView Catchment,Mount Ridley P-12 College3.5 km awayPrep-12CoEdGovernmentView Catchment",False,210051445.0,41383.2,2867.0
595.0,2,4,2,House,20 Botwood Street,MICKLEHAM,3064.0,-37.54581,144.8971,"Mickleham Secondary College2.1 km away7CoEdGovernmentView Catchment,Mount Ridley P-12 College4.5 km awayPrep-12CoEdGovernmentView Catchment,Yubup Primary School0.4 km awayGovernmentMore Info",False,210051445.0,43065.1,2840.6
600.0,2,3,2,House,5 Moonlight Way,MICKLEHAM,3064.0,-37.573875,144.89131,"Aitken Creek Primary School1.6 km awayPrep-6CoEdGovernmentView Catchment,Elevation Secondary College2.7 km away7-10CoEdGovernmentView Catchment,Mount Ridley P-12 College2.9 km awayPrep-12CoEdGovernmentView Catchment",False,210051445.0,39063.5,2848.0
600.0,3,4,2,House,16 Northall Road,MICKLEHAM,3064.0,-37.53788,144.9059,"Mickleham Secondary College1.2 km away7CoEdGovernmentView Catchment,Mount Ridley P-12 College5 km awayPrep-12CoEdGovernmentView Catchment,Gaayip-Yagila Primary School1 km awayPrep-6CoEdGovernmentMore Info",False,210051445.0,42308.9,2768.2
580.0,2,4,2,House,42 Beaconsfield Drive,MICKLEHAM,3064.0,-37.521503,144.91234,"Gaayip-Yagila Primary School0.9 km awayPrep-6CoEdGovernmentView Catchment,Mickleham Secondary College1.1 km away7CoEdGovernmentView Catchment,Mount Ridley P-12 College6.6 km awayPrep-12CoEdGovernmentView Catchment",False,210051445.0,41697.8,2993.8
5502390.0,2,3,2,House,19 Harding Street,MICKLEHAM,3064.0,-37.530754,144.91231,"Gaayip-Yagila Primary School0.4 km awayPrep-6CoEdGovernmentView Catchment,Mickleham Secondary College1 km away7CoEdGovernmentView Catchment,Mount Ridley P-12 College5.6 km awayPrep-12CoEdGovernmentView Catchment",False,210051445.0,39982.9,2806.8
550.0,2,3,1,House,18 Thyridia St,MICKLEHAM,3064.0,-37.567696,144.88864,"Mickleham Primary School1.1 km awayPrep-6CoEdGovernmentView Catchment,Mount Ridley P-12 College3.4 km awayPrep-12CoEdGovernmentView Catchment,Elevation Secondary College3.4 km away7-10CoEdGovernmentMore Info",False,210051445.0,41053.4,2787.9
540.0,2,4,2,House,12 Botwood Street,MICKLEHAM,3064.0,-37.545425,144.89719,"Mickleham Secondary College2 km away7CoEdGovernmentView Catchment,Mount Ridley P-12 College4.5 km awayPrep-12CoEdGovernmentView Catchment,Yubup Primary School0.4 km awayGovernmentMore Info",False,210051445.0,43108.4,2851.0
520.0,2,3,2,House,11 Martinshaw Road,MICKLEHAM,3064.0,-37.541847,144.9134,"Mickleham Secondary College1.9 km away7CoEdGovernmentView Catchment,Mount Ridley P-12 College4.4 km awayPrep-12CoEdGovernmentView Catchment,Gaayip-Yagila Primary School1.5 km awayPrep-6CoEdGovernmentMore Info",False,210051445.0,39963.0,2800.8
500.0,2,3,2,House,7 Roseneath Way,MICKLEHAM,3064.0,-37.529995,144.90932,"Gaayip-Yagila Primary School0.1 km awayPrep-6CoEdGovernmentView Catchment,Mickleham Secondary College0.7 km away7CoEdGovernmentView Catchment,Mount Ridley P-12 College5.7 km awayPrep-12CoEdGovernmentView Catchment",False,210051445.0,40623.8,2854.5
500.0,2,3,2,House,14 Clowes Street,MICKLEHAM,3064.0,-37.526344,144.89926,"Mickleham Secondary College0.3 km away7CoEdGovernmentView Catchment,Gaayip-Yagila Primary School0.9 km awayPrep-6CoEdGovernmentView Catchment,Mount Ridley P-12 College6.4 km awayPrep-12CoEdGovernmentView Catchment",False,210051445.0,42621.0,2866.7
485.0,2,3,1,House,43 Jacka Street,MICKLEHAM,3064.0,-37.52819,144.90352,"Mickleham Secondary College0.2 km away7CoEdGovernmentView Catchment,Gaayip-Yagila Primary School0.5 km awayPrep-6CoEdGovernmentView Catchment,Mount Ridley P-12 College6 km awayPrep-12CoEdGovernmentView Catchment",False,210051445.0,42537.5,2815.7
480.0,2,3,2,House,25 Tooronga Drive,MICKLEHAM,3064.0,-37.52685,144.91147,"Gaayip-Yagila Primary School0.3 km awayPrep-6CoEdGovernmentView Catchment,Mickleham Secondary College0.8 km away7CoEdGovernmentView Catchment,Mount Ridley P-12 College6 km awayPrep-12CoEdGovernmentView Catchment",False,210051445.0,40543.2,2857.5
600.0,2,4,2,House,13 Latchford Drive,MICKLEHAM,3064.0,-37.54076,144.90244,"Mickleham Secondary College1.5 km away7CoEdGovernmentView Catchment,Mount Ridley P-12 College4.8 km awayPrep-12CoEdGovernmentView Catchment,Yubup Primary School0.8 km awayGovernmentMore Info",False,210051445.0,42243.1,2800.0
600.0,0,0,0,House,24 Beaconsfield Drive,MICKLEHAM,3064.0,-37.522335,144.91199,"Gaayip-Yagila Primary School0.8 km awayPrep-6CoEdGovernmentView Catchment,Mickleham Secondary College1.1 km away7CoEdGovernmentView Catchment,Mount Ridley P-12 College6.5 km awayPrep-12CoEdGovernmentView Catchment",False,210051445.0,41635.0,2980.8
530.0,2,4,2,House,9 Inkerman Crescent,MICKLEHAM,3064.0,-37.52897,144.89734,"Mickleham Secondary College0.4 km away7CoEdGovernmentView Catchment,Gaayip-Yagila Primary School1 km awayPrep-6CoEdGovernmentView Catchment,Mount Ridley P-12 College6.1 km awayPrep-12CoEdGovernmentView Catchment",False,210051445.0,42245.4,2836.5
530.0,2,3,1,House,4 Bedford Way,MICKLEHAM,3064.0,-37.53204,144.90932,"Gaayip-Yagila Primary School0.4 km awayPrep-6CoEdGovernmentView Catchment,Mickleham Secondary College0.8 km away7CoEdGovernmentView Catchment,Mount Ridley P-12 College5.5 km awayPrep-12CoEdGovernmentView Catchment",False,210051445.0,40064.3,2806.4
480.0,2,2,1,House,7 Hanover Way,MICKLEHAM,3064.0,-37.525814,144.90068,"Mickleham Secondary College0.2 km away7CoEdGovernmentView Catchment,Gaayip-Yagila Primary School0.8 km awayPrep-6CoEdGovernmentView Catchment,Mount Ridley P-12 College6.4 km awayPrep-12CoEdGovernmentView Catchment",False,210051445.0,43097.0,2851.0
1100.0,2,4,6,House,45 Parkland Crescent,MICKLEHAM,3064.0,-37.553944,144.86612,"Mickleham Primary School1.4 km awayPrep-6CoEdGovernmentView Catchment,Mickleham Secondary College4.3 km away7CoEdGovernmentView Catchment,Elevation Secondary College5.3 km away7-10CoEdGovernmentView Catchment",False,210051445.0,37942.0,2547.2
680.0,3,4,2,House,13 Ontario Parade,MICKLEHAM,3064.0,-37.57631,144.89198,"Aitken Creek Primary School1.4 km awayPrep-6CoEdGovernmentView Catchment,Elevation Secondary College2.4 km away7-10CoEdGovernmentView Catchment,Mount Ridley P-12 College2.8 km awayPrep-12CoEdGovernmentView Catchment",False,210051445.0,38783.8,2780.9
620.0,2,4,2,House,51 Harfield Avenue,MICKLEHAM,3064.0,-37.539658,144.9064,"Mickleham Secondary College1.4 km away7CoEdGovernmentView Catchment,Mount Ridley P-12 College4.8 km awayPrep-12CoEdGovernmentView Catchment,Yubup Primary School1.2 km awayGovernmentMore Info",False,210051445.0,42525.0,2781.5
600.0,2,4,2,House,18 Hickory Road,MICKLEHAM,3064.0,-37.574,144.89023,"Aitken Creek Primary School1.7 km awayPrep-6CoEdGovernmentView Catchment,Elevation Secondary College2.7 km away7-10CoEdGovernmentView Catchment,Mount Ridley P-12 College3 km awayPrep-12CoEdGovernmentView Catchment",False,210051445.0,39083.1,2852.7
600.0,2,4,2,House,44 Madura Promenade,MICKLEHAM,3064.0,-37.537285,144.89153,"Mickleham Secondary College1.4 km away7CoEdGovernmentView Catchment,Mount Ridley P-12 College5.5 km awayPrep-12CoEdGovernmentView Catchment,Yubup Primary School0.7 km awayGovernmentMore Info",False,210051445.0,42406.7,2904.5
600.0,2,4,2,House,33 Vautier Avenue,MICKLEHAM,3064.0,-37.530727,144.90965,"Gaayip-Yagila Primary School0.2 km awayPrep-6CoEdGovernmentView Catchment,Mickleham Secondary College0.8 km away7CoEdGovernmentView Catchment,Mount Ridley P-12 College5.6 km awayPrep-12CoEdGovernmentView Catchment",False,210051445.0,40093.2,2833.4
600.0,2,4,2,House,12 Poppy Street,MICKLEHAM,3064.0,-37.5444,144.88736,"Mickleham Secondary College2.3 km away7CoEdGovernmentView Catchment,Mount Ridley P-12 College5.1 km awayPrep-12CoEdGovernmentView Catchment,Yubup Primary School0.6 km awayGovernmentMore Info",False,210051445.0,39524.6,2675.5
580.0,2,4,2,House,9 Kenora Way,MICKLEHAM,3064.0,-37.537212,144.89746,"Mickleham Secondary College1.2 km away7CoEdGovernmentView Catchment,Mount Ridley P-12 College5.3 km awayPrep-12CoEdGovernmentView Catchment,Yubup Primary School0.7 km awayGovernmentMore Info",False,210051445.0,41629.1,2722.4
570.0,2,3,1,House,12 Chorileana Way,MICKLEHAM,3064.0,-37.571014,144.88553,"Mickleham Primary School1.1 km awayPrep-6CoEdGovernmentView Catchment,Elevation Secondary College3 km away7-10CoEdGovernmentView Catchment,Mount Ridley P-12 College3.5 km awayPrep-12CoEdGovernmentView Catchment",False,210051445.0,41656.3,2871.2
570.0,2,4,2,House,2 Lynnwood Drive,MICKLEHAM,3064.0,-37.52001,144.91083,"Gaayip-Yagila Primary School1 km awayPrep-6CoEdGovernmentView Catchment,Mickleham Secondary College1.1 km away7CoEdGovernmentView Catchment,Mount Ridley P-12 College6.8 km awayPrep-12CoEdGovernmentView Catchment",False,210051445.0,41682.0,2990.0
560.0,2,4,2,House,31 Lemongrass Drive,MICKLEHAM,3064.0,-37.54356,144.88844,"Mickleham Secondary College2.1 km away7CoEdGovernmentView Catchment,Mount Ridley P-12 College5.1 km awayPrep-12CoEdGovernmentView Catchment,Yubup Primary School0.5 km awayGovernmentMore Info",False,210051445.0,39947.3,2776.9
550.0,3,4,2,House,22 Oxbow Street,MICKLEHAM,3064.0,-37.542675,144.9001,"Mickleham Secondary College1.7 km away7CoEdGovernmentView Catchment,Mount Ridley P-12 College4.7 km awayPrep-12CoEdGovernmentView Catchment,Yubup Primary School0.6 km awayGovernmentMore Info",False,210051445.0,42347.3,2818.8
550.0,2,3,1,House,4 Nebula Crescent,MICKLEHAM,3064.0,-37.568504,144.89249,"Mickleham Primary School1.5 km awayPrep-6CoEdGovernmentView Catchment,Mount Ridley P-12 College3 km awayPrep-12CoEdGovernmentView Catchment,Elevation Secondary College3.3 km away7-10CoEdGovernmentMore Info",False,210051445.0,41231.0,2762.2
550.0,2,3,2,House,22 Tivoli Way,MICKLEHAM,3064.0,-37.531483,144.89532,"Mickleham Secondary College0.7 km away7CoEdGovernmentView Catchment,Gaayip-Yagila Primary School1.2 km awayPrep-6CoEdGovernmentView Catchment,Mount Ridley P-12 College6 km awayPrep-12CoEdGovernmentView Catchment",False,210051445.0,42006.0,2791.3
530.0,2,4,2,House,23 Yarradale Drive,MICKLEHAM,3064.0,-37.53337,144.90674,"Gaayip-Yagila Primary School0.5 km awayPrep-6CoEdGovernmentView Catchment,Mickleham Secondary College0.8 km away7CoEdGovernmentView Catchment,Mount Ridley P-12 College5.4 km awayPrep-12CoEdGovernmentView Catchment",False,210051445.0,40124.4,2805.3
500.0,2,4,2,House,22 Abloom View,MICKLEHAM,3064.0,-37.5697,144.8905,"Mickleham Primary School1.4 km awayPrep-6CoEdGovernmentView Catchment,Mount Ridley P-12 College3.1 km awayPrep-12CoEdGovernmentView Catchment,Elevation Secondary College3.2 km away7-10CoEdGovernmentMore Info",False,210051445.0,41154.7,2812.2
500.0,2,3,2,House,15 Heslop Street,MICKLEHAM,3064.0,-37.52422,144.90007,"Mickleham Secondary College0.4 km away7CoEdGovernmentView Catchment,Gaayip-Yagila Primary School0.9 km awayPrep-6CoEdGovernmentView Catchment,Mount Ridley P-12 College6.6 km awayPrep-12CoEdGovernmentView Catchment",False,210051445.0,43091.4,2872.5
500.0,2,4,2,House,15 Chomley Street,MICKLEHAM,3064.0,-37.523945,144.89935,"Mickleham Secondary College0.5 km away7CoEdGovernmentView Catchment,Gaayip-Yagila Primary School1 km awayPrep-6CoEdGovernmentView Catchment,Mount Ridley P-12 College6.6 km awayPrep-12CoEdGovernmentView Catchment",False,210051445.0,43161.7,2889.2
480.0,2,3,1,House,11 Selkirk Way,MICKLEHAM,3064.0,-37.53593,144.89937,"Mickleham Secondary College1 km away7CoEdGovernmentView Catchment,Mount Ridley P-12 College5.4 km awayPrep-12CoEdGovernmentView Catchment,Yubup Primary School0.9 km awayGovernmentMore Info",False,210051445.0,41638.7,2728.1
460.0,1,3,1,House,19 Salisbury Terrace,MICKLEHAM,3064.0,-37.530865,144.91302,"Gaayip-Yagila Primary School0.4 km awayPrep-6CoEdGovernmentView Catchment,Mickleham Secondary College1 km away7CoEdGovernmentView Catchment,Mount Ridley P-12 College5.6 km awayPrep-12CoEdGovernmentView Catchment",False,210051445.0,39944.1,2803.6
750.0,3,4,2,House,10 Reynolds Court,ROXBURGH PARK,3064.0,-37.635323,144.91946,"Roxburgh Homestead Primary School0.5 km awayPrep-6CoEdGovernmentView Catchment,Roxburgh College1 km awayU, 7-12CoEdGovernmentView Catchment,Good Samaritan Catholic Primary School1.9 km awayPrep-6CoEdCatholicMore Info",False,210051544.0,23149.0,2251.0
450.0,2,3,1,House,73 Ravenhill Boulevard,ROXBURGH PARK,3064.0,-37.634354,144.91795,"Roxburgh Homestead Primary School0.3 km awayPrep-6CoEdGovernmentView Catchment,Roxburgh College1.1 km awayU, 7-12CoEdGovernmentView Catchment,Good Samaritan Catholic Primary School1.9 km awayPrep-6CoEdCatholicMore Info",False,210051544.0,23128.3,2246.0
480.0,1,3,1,House,11 Rostron Way,ROXBURGH PARK,3064.0,-37.630512,144.9179,"Roxburgh Homestead Primary School0.1 km awayPrep-6CoEdGovernmentView Catchment,Roxburgh College1 km awayU, 7-12CoEdGovernmentView Catchment,Good Samaritan Catholic Primary School1.6 km awayPrep-6CoEdCatholicMore Info",False,210051544.0,23581.0,2286.0
690.0,2,5,2,House,10 Lachlan Crescent,ROXBURGH PARK,3064.0,-37.617672,144.92773,"Roxburgh Rise Primary School0.4 km awayPrep-6CoEdGovernmentView Catchment,Craigieburn Secondary College1.2 km away7-12CoEdGovernmentView Catchment,Good Samaritan Catholic Primary School0.9 km awayPrep-6CoEdCatholicMore Info",False,210051545.0,24697.5,2337.4
675.0,2,5,2,House,14 Westbury Parkway,ROXBURGH PARK,3064.0,-37.618736,144.9197,"Roxburgh Rise Primary School0.4 km awayPrep-6CoEdGovernmentView Catchment,Roxburgh College1.6 km awayU, 7-12CoEdGovernmentView Catchment,Kolbe Catholic College0.9 km away7-12CoEdCatholicMore Info",False,210051545.0,24813.4,2383.0
550.0,3,4,2,Townhouse,22 Attain Walk,ROXBURGH PARK,3064.0,-37.624794,144.9183,"Roxburgh Homestead Primary School0.8 km awayPrep-6CoEdGovernmentView Catchment,Roxburgh College1.2 km awayU, 7-12CoEdGovernmentView Catchment,Kolbe Catholic College1.3 km away7-12CoEdCatholicMore Info",False,210051545.0,24137.9,2395.0
790.0,2,2,1,Apartment / Unit / Flat,111/48 Rose Street,FITZROY,3065.0,-37.796375,144.9769,"Fitzroy Primary School0.5 km awayPrep-6CoEdGovernmentView Catchment,Collingwood College1.4 km awayPrep-12CoEdGovernmentView Catchment,Lynall Hall Community School-The Island Campus6.1 km awayGovernmentView Catchment",False,206071142.0,2642.3,367.8
650.0,1,2,1,Apartment / Unit / Flat,506/416 Gore Street,FITZROY,3065.0,-37.796806,144.98402,"Fitzroy Primary School0.4 km awayPrep-6CoEdGovernmentView Catchment,Collingwood College0.9 km awayPrep-12CoEdGovernmentView Catchment,Lynall Hall Community School-The Island Campus6.2 km awayGovernmentView Catchment",False,206071142.0,3320.1,507.2
620.0,1,2,1,Apartment / Unit / Flat,33/1 St David Street,FITZROY,3065.0,-37.800537,144.97856,"Fitzroy Primary School0.3 km awayPrep-6CoEdGovernmentView Catchment,Collingwood College1.1 km awayPrep-12CoEdGovernmentView Catchment,Lynall Hall Community School-The Island Campus6.6 km awayGovernmentView Catchment",False,206071142.0,2414.9,383.3
625.0,1,2,2,Apartment / Unit / Flat,3/3-25 Hanover Street,FITZROY,3065.0,-37.802635,144.97504,"Carlton Gardens Primary School0.5 km awayPrep-6CoEdGovernmentView Catchment,Collingwood College1.4 km awayPrep-12CoEdGovernmentView Catchment,Lynall Hall Community School-The Island Campus6.8 km awayGovernmentView Catchment",False,206071142.0,1825.2,269.9
550.0,1,1,1,Apartment / Unit / Flat,21/1 Saint David Street,FITZROY,3065.0,-37.800537,144.97856,"Fitzroy Primary School0.3 km awayPrep-6CoEdGovernmentView Catchment,Collingwood College1.1 km awayPrep-12CoEdGovernmentView Catchment,Lynall Hall Community School-The Island Campus6.6 km awayGovernmentView Catchment",True,206071142.0,2414.9,383.3
550.0,1,1,0,Apartment / Unit / Flat,106/45 Rose Street,FITZROY,3065.0,-37.795612,144.97696,"Carlton Primary School0.7 km awayPrep-6CoEdGovernmentView Catchment,Collingwood College1.4 km awayPrep-12CoEdGovernmentView Catchment,Lynall Hall Community School-The Island Campus6.1 km awayGovernmentView Catchment",True,206071142.0,2691.3,365.2
8503693.0,1,2,1,House,128 George Street,FITZROY,3065.0,-37.804855,144.98105,"Fitzroy Primary School0.6 km awayPrep-6CoEdGovernmentView Catchment,Collingwood College0.9 km awayPrep-12CoEdGovernmentView Catchment,Lynall Hall Community School-The Island Campus7.1 km awayGovernmentView Catchment",False,206071142.0,2207.6,353.0
8503693.0,1,2,0,Apartment / Unit / Flat,4/50 Moor Street,FITZROY,3065.0,-37.80155,144.97612,"Fitzroy Primary School0.5 km awayPrep-6CoEdGovernmentView Catchment,Collingwood College1.3 km awayPrep-12CoEdGovernmentView Catchment,Lynall Hall Community School-The Island Campus6.7 km awayGovernmentView Catchment",False,206071142.0,2071.4,300.9
8203563.0,2,2,1,Apartment / Unit / Flat,406/9-17 Smith Street,FITZROY,3065.0,-37.80804,144.9825,"Collingwood College0.9 km awayPrep-12CoEdGovernmentView Catchment,Lynall Hall Community School-The Island Campus7.5 km awayGovernmentView Catchment,Fitzroy Primary School0.9 km awayPrep-6CoEdGovernmentMore Info",False,206071142.0,2089.2,327.8
7503259.0,1,2,1,Apartment / Unit / Flat,31/1 St David Street,FITZROY,3065.0,-37.800537,144.97856,"Fitzroy Primary School0.3 km awayPrep-6CoEdGovernmentView Catchment,Collingwood College1.1 km awayPrep-12CoEdGovernmentView Catchment,Lynall Hall Community School-The Island Campus6.6 km awayGovernmentView Catchment",False,206071142.0,2414.9,383.3
7503259.0,1,2,1,Apartment / Unit / Flat,4/144 Rose Street,FITZROY,3065.0,-37.796227,144.9805,"Fitzroy Primary School0.4 km awayPrep-6CoEdGovernmentView Catchment,Collingwood College1.2 km awayPrep-12CoEdGovernmentView Catchment,Lynall Hall Community School-The Island Campus6.1 km awayGovernmentView Catchment",False,206071142.0,3165.5,458.7
5952585.0,1,1,0,House,6 Garfield Street,FITZROY,3065.0,-37.800705,144.97505,"Carlton Gardens Primary School0.5 km awayPrep-6CoEdGovernmentView Catchment,Collingwood College1.4 km awayPrep-12CoEdGovernmentView Catchment,Lynall Hall Community School-The Island Campus6.6 km awayGovernmentView Catchment",False,206071142.0,2166.2,300.2
15956931.0,2,3,2,House,5 Hargreaves Street,FITZROY,3065.0,-37.80084,144.98335,"Fitzroy Primary School0.2 km awayPrep-6CoEdGovernmentView Catchment,Collingwood College0.7 km awayPrep-12CoEdGovernmentView Catchment,Lynall Hall Community School-The Island Campus6.7 km awayGovernmentView Catchment",False,206071142.0,3039.1,476.1
1200.0,2,3,0,House,148 Johnston Street,FITZROY,3065.0,-37.798656,144.97975,"Fitzroy Primary School0.2 km awayPrep-6CoEdGovernmentView Catchment,Collingwood College1.1 km awayPrep-12CoEdGovernmentView Catchment,Lynall Hall Community School-The Island Campus6.4 km awayGovernmentView Catchment",False,206071142.0,2789.8,395.4
11504997.0,2,3,1,House,46 Gore Street,FITZROY,3065.0,-37.8072,144.98204,"Fitzroy Primary School0.8 km awayPrep-6CoEdGovernmentView Catchment,Collingwood College0.9 km awayPrep-12CoEdGovernmentView Catchment,Lynall Hall Community School-The Island Campus7.4 km awayGovernmentView Catchment",False,206071142.0,2230.0,361.6
1100.0,1,3,0,House,131 George Street,FITZROY,3065.0,-37.804802,144.98065,"Fitzroy Primary School0.6 km awayPrep-6CoEdGovernmentView Catchment,Collingwood College0.9 km awayPrep-12CoEdGovernmentView Catchment,Lynall Hall Community School-The Island Campus7.1 km awayGovernmentView Catchment",False,206071142.0,2208.8,353.3
11004780.0,1,2,1,Townhouse,147 Kerr Street,FITZROY,3065.0,-37.796562,144.9806,"Fitzroy Primary School0.3 km awayPrep-6CoEdGovernmentView Catchment,Collingwood College1.1 km awayPrep-12CoEdGovernmentView Catchment,Lynall Hall Community School-The Island Campus6.2 km awayGovernmentView Catchment",False,206071142.0,3023.1,444.7
11004780.0,2,3,2,Townhouse,5/192 Argyle Street,FITZROY,3065.0,-37.798203,144.98256,"Fitzroy Primary School0.2 km awayPrep-6CoEdGovernmentView Catchment,Collingwood College0.9 km awayPrep-12CoEdGovernmentView Catchment,Lynall Hall Community School-The Island Campus6.4 km awayGovernmentView Catchment",False,206071142.0,3175.3,472.4
10504563.0,1,3,0,House,270 Gore Street,FITZROY,3065.0,-37.800648,144.98294,"Fitzroy Primary School0.2 km awayPrep-6CoEdGovernmentView Catchment,Collingwood College0.7 km awayPrep-12CoEdGovernmentView Catchment,Lynall Hall Community School-The Island Campus6.6 km awayGovernmentView Catchment",False,206071142.0,3204.1,479.3
850.0,1,3,0,Terrace,433 Gore Street,FITZROY,3065.0,-37.79623,144.98317,"Fitzroy Primary School0.4 km awayPrep-6CoEdGovernmentView Catchment,Collingwood College1 km awayPrep-12CoEdGovernmentView Catchment,Lynall Hall Community School-The Island Campus6.2 km awayGovernmentView Catchment",False,206071142.0,3246.8,488.5
8253585.0,2,2,1,Apartment / Unit / Flat,718/338 Gore Street,FITZROY,3065.0,-37.798702,144.98355,"Fitzroy Primary School0.2 km awayPrep-6CoEdGovernmentView Catchment,Collingwood College0.8 km awayPrep-12CoEdGovernmentView Catchment,Lynall Hall Community School-The Island Campus6.4 km awayGovernmentView Catchment",False,206071142.0,3041.1,442.0
7753368.0,1,2,1,Apartment / Unit / Flat,7/5 Spring Street,FITZROY,3065.0,-37.797573,144.9759,"Carlton Primary School0.6 km awayPrep-6CoEdGovernmentView Catchment,Collingwood College1.4 km awayPrep-12CoEdGovernmentView Catchment,Lynall Hall Community School-The Island Campus6.3 km awayGovernmentView Catchment",True,206071142.0,2425.8,334.3
750.0,3,2,0,Townhouse,4 Leicester St,FITZROY,3065.0,-37.795185,144.97614,"Carlton Primary School0.6 km awayPrep-6CoEdGovernmentView Catchment,Fitzroy High School1.5 km away7-12CoEdGovernmentView Catchment,Lynall Hall Community School-The Island Campus6 km awayGovernmentView Catchment",False,206071142.0,2675.3,350.6
7503259.0,1,2,0,House,61 Bell Street,FITZROY,3065.0,-37.80004,144.97687,"Fitzroy Primary School0.4 km awayPrep-6CoEdGovernmentView Catchment,Collingwood College1.2 km awayPrep-12CoEdGovernmentView Catchment,Lynall Hall Community School-The Island Campus6.6 km awayGovernmentView Catchment",False,206071142.0,2513.1,355.9
645.0,1,2,1,Apartment / Unit / Flat,10/300 Young Street,FITZROY,3065.0,-37.797417,144.9799,"Fitzroy Primary School0.3 km awayPrep-6CoEdGovernmentView Catchment,Collingwood College1.1 km awayPrep-12CoEdGovernmentView Catchment,Lynall Hall Community School-The Island Campus6.3 km awayGovernmentView Catchment",True,206071142.0,2838.4,407.7
645.0,1,2,1,Apartment / Unit / Flat,202/300 Young Street,FITZROY,3065.0,-37.797417,144.9799,"Fitzroy Primary School0.3 km awayPrep-6CoEdGovernmentView Catchment,Collingwood College1.1 km awayPrep-12CoEdGovernmentView Catchment,Lynall Hall Community School-The Island Campus6.3 km awayGovernmentView Catchment",True,206071142.0,2838.4,407.7
645.0,1,2,1,Apartment / Unit / Flat,302/300 Young Street,FITZROY,3065.0,-37.797417,144.9799,"Fitzroy Primary School0.3 km awayPrep-6CoEdGovernmentView Catchment,Collingwood College1.1 km awayPrep-12CoEdGovernmentView Catchment,Lynall Hall Community School-The Island Campus6.3 km awayGovernmentView Catchment",True,206071142.0,2838.4,407.7
650.0,1,2,1,House,16 Garfield Street,FITZROY,3065.0,-37.800724,144.97531,"Carlton Gardens Primary School0.5 km awayPrep-6CoEdGovernmentView Catchment,Collingwood College1.4 km awayPrep-12CoEdGovernmentView Catchment,Lynall Hall Community School-The Island Campus6.6 km awayGovernmentView Catchment",False,206071142.0,2189.1,305.7
630.0,2,2,0,House,14 George Street,FITZROY,3065.0,-37.80791,144.98056,"Fitzroy Primary School0.9 km awayPrep-6CoEdGovernmentView Catchment,Collingwood College1 km awayPrep-12CoEdGovernmentView Catchment,Lynall Hall Community School-The Island Campus7.4 km awayGovernmentView Catchment",False,206071142.0,2302.5,354.6
6152672.0,1,2,1,House,84 Charles Street,FITZROY,3065.0,-37.803387,144.98204,"Fitzroy Primary School0.4 km awayPrep-6CoEdGovernmentView Catchment,Collingwood College0.7 km awayPrep-12CoEdGovernmentView Catchment,Lynall Hall Community School-The Island Campus6.9 km awayGovernmentView Catchment",False,206071142.0,2473.0,416.7
5252282.0,1,1,0,Studio,6/130 Nicholson Street,FITZROY,3065.0,-37.801712,144.9745,"Carlton Gardens Primary School0.4 km awayPrep-6CoEdGovernmentView Catchment,Collingwood College1.4 km awayPrep-12CoEdGovernmentView Catchment,Lynall Hall Community School-The Island Campus6.7 km awayGovernmentView Catchment",True,206071142.0,1866.0,260.4
400.0,1,0,0,Studio,202/70 Nicholson Street,FITZROY,3065.0,-37.80466,144.97401,"Carlton Gardens Primary School0.5 km awayPrep-6CoEdGovernmentView Catchment,Collingwood College1.5 km awayPrep-12CoEdGovernmentView Catchment,Lynall Hall Community School-The Island Campus7.1 km awayGovernmentView Catchment",True,206071142.0,1535.5,234.8
4001739.0,1,1,1,Apartment / Unit / Flat,6/443 Napier Street,FITZROY,3065.0,-37.79441,144.98122,"Fitzroy Primary School0.6 km awayPrep-6CoEdGovernmentView Catchment,Fitzroy High School1.2 km away7-12CoEdGovernmentView Catchment,Lynall Hall Community School-The Island Campus5.9 km awayGovernmentView Catchment",False,206071142.0,3417.3,438.8
12001.0,1,1,0,Apartment / Unit / Flat,110/8 Royal Lane,FITZROY,3065.0,-37.804474,144.97498,"Carlton Gardens Primary School0.6 km awayPrep-6CoEdGovernmentView Catchment,Collingwood College1.4 km awayPrep-12CoEdGovernmentView Catchment,Lynall Hall Community School-The Island Campus7 km awayGovernmentView Catchment",True,206071142.0,1725.3,272.2
1100.0,2,3,3,Apartment / Unit / Flat,1/192 Argyle Street,FITZROY,3065.0,-37.798203,144.98256,"Fitzroy Primary School0.2 km awayPrep-6CoEdGovernmentView Catchment,Collingwood College0.9 km awayPrep-12CoEdGovernmentView Catchment,Lynall Hall Community School-The Island Campus6.4 km awayGovernmentView Catchment",False,206071142.0,3175.3,472.4
990.0,1,3,0,Terrace,333 Gore St,FITZROY,3065.0,-37.799248,144.9828,"Fitzroy Primary School0.1 km awayPrep-6CoEdGovernmentView Catchment,Collingwood College0.8 km awayPrep-12CoEdGovernmentView Catchment,Lynall Hall Community School-The Island Campus6.5 km awayGovernmentView Catchment",False,206071142.0,3018.5,434.8
640.0,1,1,1,Apartment / Unit / Flat,121 Kerr Street,FITZROY,3065.0,-37.79669,144.97975,"Fitzroy Primary School0.4 km awayPrep-6CoEdGovernmentView Catchment,Collingwood College1.2 km awayPrep-12CoEdGovernmentView Catchment,Lynall Hall Community School-The Island Campus6.2 km awayGovernmentView Catchment",False,206071142.0,3174.1,464.8
620.0,1,2,1,Apartment / Unit / Flat,209/96 Charles Street,FITZROY,3065.0,-37.80347,144.98257,"Fitzroy Primary School0.4 km awayPrep-6CoEdGovernmentView Catchment,Collingwood College0.7 km awayPrep-12CoEdGovernmentView Catchment,Lynall Hall Community School-The Island Campus7 km awayGovernmentView Catchment",False,206071142.0,2520.3,418.0
770.0,2,2,1,Apartment / Unit / Flat,804/466-482 Smith Street,COLLINGWOOD,3066.0,-37.801224,144.98389,"Fitzroy Primary School0.3 km awayPrep-6CoEdGovernmentView Catchment,Collingwood College0.6 km awayPrep-12CoEdGovernmentView Catchment,Collingwood English Language School0.7 km awayPrep-12CoEdGovernmentView Catchment",False,206071141.0,2851.8,439.7
700.0,1,1,1,Apartment / Unit / Flat,414/25 Johnston Street,COLLINGWOOD,3066.0,-37.799255,144.98552,"Fitzroy Primary School0.4 km awayPrep-6CoEdGovernmentView Catchment,Collingwood College0.6 km awayPrep-12CoEdGovernmentView Catchment,Collingwood English Language School1 km awayPrep-12CoEdGovernmentView Catchment",False,206071141.0,3232.6,477.7
670.0,1,2,0,House,118 Easey Street,COLLINGWOOD,3066.0,-37.79799,144.99046,"Collingwood College0.6 km awayPrep-12CoEdGovernmentView Catchment,Lynall Hall Community School-The Island Campus6.4 km awayGovernmentView Catchment,Clifton Hill Primary School0.6 km awayPrep-6CoEdGovernmentMore Info",False,206071141.0,3832.3,574.0
625.0,1,2,1,Apartment / Unit / Flat,4/67 Easey Street,COLLINGWOOD,3066.0,-37.798065,144.98828,"Collingwood College0.6 km awayPrep-12CoEdGovernmentView Catchment,Lynall Hall Community School-The Island Campus6.4 km awayGovernmentView Catchment,Fitzroy Primary School0.6 km awayPrep-6CoEdGovernmentMore Info",False,206071141.0,3597.3,536.2
580.0,1,1,1,Apartment / Unit / Flat,106/107 Cambridge Street,COLLINGWOOD,3066.0,-37.803528,144.98503,"Collingwood English Language School0.5 km awayPrep-12CoEdGovernmentView Catchment,Collingwood College0.5 km awayPrep-12CoEdGovernmentView Catchment,Lynall Hall Community School-The Island Campus7 km awayGovernmentView Catchment",False,206071141.0,2728.5,450.5
670.0,1,1,1,Apartment / Unit / Flat,528/11 Wellington Street,COLLINGWOOD,3066.0,-37.808563,144.98563,"Collingwood English Language School0.1 km awayPrep-12CoEdGovernmentView Catchment,Collingwood College0.8 km awayPrep-12CoEdGovernmentView Catchment,Lynall Hall Community School-The Island Campus7.5 km awayGovernmentView Catchment",False,206071141.0,2337.9,344.7
650.0,1,2,2,Apartment / Unit / Flat,314/40 Stanley Street,COLLINGWOOD,3066.0,-37.801823,144.98537,"Fitzroy Primary School0.4 km awayPrep-6CoEdGovernmentView Catchment,Collingwood College0.5 km awayPrep-12CoEdGovernmentView Catchment,Collingwood English Language School0.7 km awayPrep-12CoEdGovernmentView Catchment",False,206071141.0,2918.8,464.2
640.0,1,2,1,Apartment / Unit / Flat,502/107 Cambridge Street,COLLINGWOOD,3066.0,-37.803513,144.98505,"Collingwood English Language School0.5 km awayPrep-12CoEdGovernmentView Catchment,Collingwood College0.5 km awayPrep-12CoEdGovernmentView Catchment,Lynall Hall Community School-The Island Campus7 km awayGovernmentView Catchment",False,206071141.0,2730.4,450.9
600.0,1,1,1,Apartment / Unit / Flat,201/107 Cambridge Street,COLLINGWOOD,3066.0,-37.803513,144.98505,"Collingwood English Language School0.5 km awayPrep-12CoEdGovernmentView Catchment,Collingwood College0.5 km awayPrep-12CoEdGovernmentView Catchment,Lynall Hall Community School-The Island Campus7 km awayGovernmentView Catchment",True,206071141.0,2730.4,450.9
550.0,1,1,0,Apartment / Unit / Flat,409/20 Peel Street,COLLINGWOOD,3066.0,-37.804993,144.98492,"Collingwood English Language School0.3 km awayPrep-12CoEdGovernmentView Catchment,Collingwood College0.5 km awayPrep-12CoEdGovernmentView Catchment,Lynall Hall Community School-The Island Campus7.1 km awayGovernmentView Catchment",False,206071141.0,2576.6,414.0
865.0,2,2,1,Apartment / Unit / Flat,205/27 Oxford Street,COLLINGWOOD,3066.0,-37.807167,144.98401,"Collingwood English Language School0.1 km awayPrep-12CoEdGovernmentView Catchment,Collingwood College0.7 km awayPrep-12CoEdGovernmentView Catchment,Lynall Hall Community School-The Island Campus7.4 km awayGovernmentView Catchment",False,206071141.0,2379.3,393.8
1000960.0,1,2,1,Apartment / Unit / Flat,32/115 Oxford Street,COLLINGWOOD,3066.0,-37.8026,144.98479,"Fitzroy Primary School0.4 km awayPrep-6CoEdGovernmentView Catchment,Collingwood College0.5 km awayPrep-12CoEdGovernmentView Catchment,Collingwood English Language School0.6 km awayPrep-12CoEdGovernmentView Catchment",True,206071141.0,2932.5,467.5
800.0,1,3,2,House,30 Cambridge Street,COLLINGWOOD,3066.0,-37.80796,144.98515,"Collingwood English Language School0 km awayPrep-12CoEdGovernmentView Catchment,Collingwood College0.7 km awayPrep-12CoEdGovernmentView Catchment,Lynall Hall Community School-The Island Campus7.5 km awayGovernmentView Catchment",False,206071141.0,2471.8,372.0
6902998.0,1,2,1,Townhouse,3/32 Ballarat Street,COLLINGWOOD,3066.0,-37.79543,144.99078,"Clifton Hill Primary School0.4 km awayPrep-6CoEdGovernmentView Catchment,Collingwood College0.8 km awayPrep-12CoEdGovernmentView Catchment,Lynall Hall Community School-The Island Campus6.2 km awayGovernmentView Catchment",False,206071141.0,4064.3,619.7
6902998.0,1,2,1,Apartment / Unit / Flat,201/44 Bedford Street,COLLINGWOOD,3066.0,-37.801567,144.98476,"Fitzroy Primary School0.4 km awayPrep-6CoEdGovernmentView Catchment,Collingwood College0.5 km awayPrep-12CoEdGovernmentView Catchment,Collingwood English Language School0.7 km awayPrep-12CoEdGovernmentView Catchment",False,206071141.0,2897.0,459.0
650.0,2,2,1,Apartment / Unit / Flat,906E/9 Robert Street,COLLINGWOOD,3066.0,-37.805794,144.98717,"Collingwood English Language School0.3 km awayPrep-12CoEdGovernmentView Catchment,Collingwood College0.4 km awayPrep-12CoEdGovernmentView Catchment,Lynall Hall Community School-The Island Campus7.3 km awayGovernmentView Catchment",False,206071141.0,2943.3,449.5
1350.0,2,3,1,Apartment / Unit / Flat,4/93 Oxford Street,COLLINGWOOD,3066.0,-37.80423,144.98451,"Collingwood English Language School0.4 km awayPrep-12CoEdGovernmentView Catchment,Collingwood College0.5 km awayPrep-12CoEdGovernmentView Catchment,Lynall Hall Community School-The Island Campus7.1 km awayGovernmentView Catchment",True,206071141.0,2644.9,430.4
825.0,2,2,1,Apartment / Unit / Flat,306/8 Keele Street,COLLINGWOOD,3066.0,-37.7968,144.98532,"Fitzroy Primary School0.5 km awayPrep-6CoEdGovernmentView Catchment,Collingwood College0.8 km awayPrep-12CoEdGovernmentView Catchment,Lynall Hall Community School-The Island Campus6.2 km awayGovernmentView Catchment",False,206071141.0,3401.4,504.6
700.0,1,2,1,Apartment / Unit / Flat,26/115 Oxford Street,COLLINGWOOD,3066.0,-37.8026,144.98479,"Fitzroy Primary School0.4 km awayPrep-6CoEdGovernmentView Catchment,Collingwood College0.5 km awayPrep-12CoEdGovernmentView Catchment,Collingwood English Language School0.6 km awayPrep-12CoEdGovernmentView Catchment",True,206071141.0,2932.5,467.5
700.0,2,2,1,Apartment / Unit / Flat,506/470 Smith Street,COLLINGWOOD,3066.0,-37.794514,144.98524,"Clifton Hill Primary School0.4 km awayPrep-6CoEdGovernmentView Catchment,Collingwood College1 km awayPrep-12CoEdGovernmentView Catchment,Lynall Hall Community School-The Island Campus6 km awayGovernmentView Catchment",False,206071141.0,3730.0,470.5
6752933.0,1,2,1,Apartment / Unit / Flat,308M/60 Stanley Street,COLLINGWOOD,3066.0,-37.802067,144.98587,"Collingwood College0.4 km awayPrep-12CoEdGovernmentView Catchment,Collingwood English Language School0.6 km awayPrep-12CoEdGovernmentView Catchment,Lynall Hall Community School-The Island Campus6.8 km awayGovernmentView Catchment",False,206071141.0,3123.4,466.1
5952585.0,1,2,0,House,28 Forest Street,COLLINGWOOD,3066.0,-37.79559,144.99245,"Clifton Hill Primary School0.5 km awayPrep-6CoEdGovernmentView Catchment,Collingwood College0.8 km awayPrep-12CoEdGovernmentView Catchment,Lynall Hall Community School-The Island Campus6.2 km awayGovernmentView Catchment",False,206071141.0,4358.1,561.5
550.0,1,2,0,Terrace,64 Sackville St,COLLINGWOOD,3066.0,-37.79836,144.98718,"Fitzroy Primary School0.5 km awayPrep-6CoEdGovernmentView Catchment,Collingwood College0.6 km awayPrep-12CoEdGovernmentView Catchment,Lynall Hall Community School-The Island Campus6.4 km awayGovernmentView Catchment",True,206071141.0,3432.0,513.8
5302303.0,1,2,0,Apartment / Unit / Flat,504/28 Stanley Street,COLLINGWOOD,3066.0,-37.801968,144.98508,"Fitzroy Primary School0.4 km awayPrep-6CoEdGovernmentView Catchment,Collingwood College0.5 km awayPrep-12CoEdGovernmentView Catchment,Collingwood English Language School0.7 km awayPrep-12CoEdGovernmentView Catchment",False,206071141.0,2875.9,453.9
5152238.0,1,1,1,Apartment / Unit / Flat,11/18 Stanley Street,COLLINGWOOD,3066.0,-37.801968,144.98482,"Fitzroy Primary School0.4 km awayPrep-6CoEdGovernmentView Catchment,Collingwood College0.5 km awayPrep-12CoEdGovernmentView Catchment,Collingwood English Language School0.7 km awayPrep-12CoEdGovernmentView Catchment",False,206071141.0,2856.5,449.2
490.0,1,1,1,Apartment / Unit / Flat,320/3 Hoddle Street,COLLINGWOOD,3066.0,-37.808956,144.99112,"Collingwood English Language School0.6 km awayPrep-12CoEdGovernmentView Catchment,Richmond West Primary School0.7 km awayPrep-6CoEdGovernmentView Catchment,Collingwood College0.7 km awayPrep-12CoEdGovernmentView Catchment",False,206071141.0,3291.5,491.1
490.0,1,1,0,Apartment / Unit / Flat,209/20 Peel Street,COLLINGWOOD,3066.0,-37.804993,144.98492,"Collingwood English Language School0.3 km awayPrep-12CoEdGovernmentView Catchment,Collingwood College0.5 km awayPrep-12CoEdGovernmentView Catchment,Lynall Hall Community School-The Island Campus7.1 km awayGovernmentView Catchment",False,206071141.0,2576.6,414.0
365.0,1,1,0,Studio,411/45 Victoria Parade,COLLINGWOOD,3066.0,-37.808685,144.98413,"Collingwood English Language School0.1 km awayPrep-12CoEdGovernmentView Catchment,Collingwood College0.8 km awayPrep-12CoEdGovernmentView Catchment,Lynall Hall Community School-The Island Campus7.5 km awayGovernmentView Catchment",True,206071141.0,2420.8,353.1
330.0,1,0,0,Studio,503/45 Victoria Pde,COLLINGWOOD,3066.0,-37.808685,144.98413,"Collingwood English Language School0.1 km awayPrep-12CoEdGovernmentView Catchment,Collingwood College0.8 km awayPrep-12CoEdGovernmentView Catchment,Lynall Hall Community School-The Island Campus7.5 km awayGovernmentView Catchment",True,206071141.0,2420.8,353.1
680.0,2,2,1,Apartment / Unit / Flat,101/22 Peel Street,COLLINGWOOD,3066.0,-37.80499,144.98485,"Collingwood English Language School0.3 km awayPrep-12CoEdGovernmentView Catchment,Collingwood College0.5 km awayPrep-12CoEdGovernmentView Catchment,Lynall Hall Community School-The Island Campus7.1 km awayGovernmentView Catchment",False,206071141.0,2570.5,412.6
695.0,1,2,1,Apartment / Unit / Flat,703/75 Wellington Street,COLLINGWOOD,3066.0,-37.80639,144.9859,"Collingwood English Language School0.2 km awayPrep-12CoEdGovernmentView Catchment,Collingwood College0.6 km awayPrep-12CoEdGovernmentView Catchment,Lynall Hall Community School-The Island Campus7.3 km awayGovernmentView Catchment",False,206071141.0,2581.5,379.8
670.0,1,2,1,Apartment / Unit / Flat,4GF/50 Stanley Street,COLLINGWOOD,3066.0,-37.8021,144.9858,"Collingwood College0.4 km awayPrep-12CoEdGovernmentView Catchment,Collingwood English Language School0.6 km awayPrep-12CoEdGovernmentView Catchment,Lynall Hall Community School-The Island Campus6.8 km awayGovernmentView Catchment",True,206071141.0,3128.7,467.4
650.0,1,2,1,Apartment / Unit / Flat,201/51 Napoleon Street,COLLINGWOOD,3066.0,-37.80181,144.98668,"Collingwood College0.4 km awayPrep-12CoEdGovernmentView Catchment,Collingwood English Language School0.7 km awayPrep-12CoEdGovernmentView Catchment,Lynall Hall Community School-The Island Campus6.8 km awayGovernmentView Catchment",True,206071141.0,3094.6,462.1
620.0,1,2,1,Apartment / Unit / Flat,23/34 Smith Street,COLLINGWOOD,3066.0,-37.80723,144.98343,"Collingwood English Language School0.1 km awayPrep-12CoEdGovernmentView Catchment,Collingwood College0.8 km awayPrep-12CoEdGovernmentView Catchment,Lynall Hall Community School-The Island Campus7.4 km awayGovernmentView Catchment",False,206071141.0,2321.5,379.9
590.0,1,1,0,Apartment / Unit / Flat,903/68 Cambridge Street,COLLINGWOOD,3066.0,-37.806786,144.98537,"Collingwood English Language School0.1 km awayPrep-12CoEdGovernmentView Catchment,Collingwood College0.6 km awayPrep-12CoEdGovernmentView Catchment,Lynall Hall Community School-The Island Campus7.3 km awayGovernmentView Catchment",False,206071141.0,2606.3,393.2
550.0,1,1,1,Apartment / Unit / Flat,606/51 Napoleon Street,COLLINGWOOD,3066.0,-37.80181,144.98668,"Collingwood College0.4 km awayPrep-12CoEdGovernmentView Catchment,Collingwood English Language School0.7 km awayPrep-12CoEdGovernmentView Catchment,Lynall Hall Community School-The Island Campus6.8 km awayGovernmentView Catchment",False,206071141.0,3094.6,462.1
485.0,1,1,1,Apartment / Unit / Flat,18/34 Smith Street,COLLINGWOOD,3066.0,-37.80723,144.98343,"Collingwood English Language School0.1 km awayPrep-12CoEdGovernmentView Catchment,Collingwood College0.8 km awayPrep-12CoEdGovernmentView Catchment,Lynall Hall Community School-The Island Campus7.4 km awayGovernmentView Catchment",False,206071141.0,2321.5,379.9
790.0,1,2,0,House,193 Vere Street,ABBOTSFORD,3067.0,-37.8031,144.9969,"Collingwood College0.6 km awayPrep-12CoEdGovernmentView Catchment,Abbotsford Primary School0.7 km awayPrep-6CoEdGovernmentMore Info,Richmond West Primary School1.2 km awayPrep-6CoEdGovernmentMore Info",False,206071139.0,3934.2,573.4
915.0,2,3,1,Townhouse,30 Park Street,ABBOTSFORD,3067.0,-37.808064,144.99423,"Abbotsford Primary School0.4 km awayPrep-6CoEdGovernmentView Catchment,Collingwood College0.7 km awayPrep-12CoEdGovernmentView Catchment,Lynall Hall Community School1.2 km away7-12CoEdGovernmentMore Info",False,206071139.0,3174.0,487.1
680.0,2,2,1,Apartment / Unit / Flat,509/20 Shamrock St,ABBOTSFORD,3067.0,-37.810143,145.00822,"Yarra Primary School0.5 km awayPrep-6CoEdGovernmentView Catchment,Richmond High School-Gleadell Street Campus0.9 km away7CoEdGovernmentView Catchment,Richmond High School1 km away7-12CoEdGovernmentView Catchment",False,206071139.0,4345.7,617.1
680.0,1,2,1,House,145 Yarra St,ABBOTSFORD,3067.0,-37.802757,145.0006,"Abbotsford Primary School0.7 km awayPrep-6CoEdGovernmentView Catchment,Collingwood College0.9 km awayPrep-12CoEdGovernmentView Catchment,Lynall Hall Community School1.5 km away7-12CoEdGovernmentMore Info",False,206071139.0,4366.7,663.2
600.0,1,1,1,Apartment / Unit / Flat,218/6 Acacia Place,ABBOTSFORD,3067.0,-37.81176,145.01414,"Yarra Primary School0.7 km awayPrep-6CoEdGovernmentView Catchment,Melbourne Girls College1.2 km away7-12GirlsGovernmentView Catchment,Richmond High School1.2 km away7-12CoEdGovernmentView Catchment",True,206071139.0,4898.8,671.7
690.0,2,2,1,Apartment / Unit / Flat,302/119 Turner Street,ABBOTSFORD,3067.0,-37.799286,145.00043,"Collingwood College1 km awayPrep-12CoEdGovernmentView Catchment,Abbotsford Primary School1.1 km awayPrep-6CoEdGovernmentMore Info,Clifton Hill Primary School1.3 km awayPrep-6CoEdGovernmentMore Info",False,206071139.0,4671.3,683.8
550.0,1,1,1,House,611 Victoria Street,ABBOTSFORD,3067.0,-37.811085,145.00761,"Yarra Primary School0.4 km awayPrep-6CoEdGovernmentView Catchment,Richmond High School-Gleadell Street Campus0.8 km away7CoEdGovernmentView Catchment,Richmond High School0.8 km away7-12CoEdGovernmentView Catchment",True,206071139.0,4191.3,572.8
595.0,1,2,1,Apartment / Unit / Flat,B603/10 Trenerry Crescent,ABBOTSFORD,3067.0,-37.799652,145.00117,"Collingwood College1 km awayPrep-12CoEdGovernmentView Catchment,Abbotsford Primary School1.1 km awayPrep-6CoEdGovernmentMore Info,Clifton Hill Primary School1.3 km awayPrep-6CoEdGovernmentMore Info",False,206071139.0,4676.8,685.4
530.0,1,1,0,Apartment / Unit / Flat,102/631 Victoria Street,ABBOTSFORD,3067.0,-37.81123,145.00946,"Yarra Primary School0.4 km awayPrep-6CoEdGovernmentView Catchment,Richmond High School0.9 km away7-12CoEdGovernmentView Catchment,Richmond High School-Gleadell Street Campus0.9 km away7CoEdGovernmentView Catchment",False,206071139.0,4442.2,605.7
700.0,2,2,2,Apartment / Unit / Flat,804/4 Acacia Place,ABBOTSFORD,3067.0,-37.81176,145.01414,"Yarra Primary School0.7 km awayPrep-6CoEdGovernmentView Catchment,Melbourne Girls College1.2 km away7-12GirlsGovernmentView Catchment,Richmond High School1.2 km away7-12CoEdGovernmentView Catchment",False,206071139.0,4898.8,671.7
895.0,2,3,1,Townhouse,5/1 Abbott St,ABBOTSFORD,3067.0,-37.797054,144.9961,"Clifton Hill Primary School0.8 km awayPrep-6CoEdGovernmentView Catchment,Collingwood College0.8 km awayPrep-12CoEdGovernmentView Catchment,Fitzroy High School - Wurun Senior Campus1.2 km awayGovernmentMore Info",False,206071139.0,4424.8,677.9
660.0,1,2,0,House,98 Yarra Street,ABBOTSFORD,3067.0,-37.802246,144.99825,"Collingwood College0.7 km awayPrep-12CoEdGovernmentView Catchment,Abbotsford Primary School0.8 km awayPrep-6CoEdGovernmentMore Info,Richmond West Primary School1.3 km awayPrep-6CoEdGovernmentMore Info",False,206071139.0,4159.1,614.3
590.0,1,2,1,Townhouse,3/2 Princes Street,ABBOTSFORD,3067.0,-37.809273,144.99985,"Abbotsford Primary School0.1 km awayPrep-6CoEdGovernmentView Catchment,Richmond High School-Gleadell Street Campus0.9 km away7CoEdGovernmentView Catchment,Richmond High School0.9 km away7-12CoEdGovernmentView Catchment",False,206071139.0,3767.9,556.3
580.0,1,2,1,Apartment / Unit / Flat,230/4 Acacia Pl,ABBOTSFORD,3067.0,-37.81177,145.01414,"Yarra Primary School0.7 km awayPrep-6CoEdGovernmentView Catchment,Melbourne Girls College1.2 km away7-12GirlsGovernmentView Catchment,Richmond High School1.2 km away7-12CoEdGovernmentView Catchment",False,206071139.0,4898.5,671.7
5502390.0,1,1,0,Apartment / Unit / Flat,214/20 Shamrock Street,ABBOTSFORD,3067.0,-37.810143,145.00822,"Yarra Primary School0.5 km awayPrep-6CoEdGovernmentView Catchment,Richmond High School-Gleadell Street Campus0.9 km away7CoEdGovernmentView Catchment,Richmond High School1 km away7-12CoEdGovernmentView Catchment",True,206071139.0,4345.7,617.1
5002173.0,1,2,1,Apartment / Unit / Flat,105/112 - 120 Vere Street,ABBOTSFORD,3067.0,-37.802456,144.99345,"Collingwood College0.3 km awayPrep-12CoEdGovernmentView Catchment,Abbotsford Primary School0.9 km awayPrep-6CoEdGovernmentMore Info,Fitzroy Primary School1.1 km awayPrep-6CoEdGovernmentMore Info",False,206071139.0,3652.1,543.3
485.0,1,1,0,Apartment / Unit / Flat,418/4 Acacia Place,ABBOTSFORD,3067.0,-37.81176,145.01414,"Yarra Primary School0.7 km awayPrep-6CoEdGovernmentView Catchment,Melbourne Girls College1.2 km away7-12GirlsGovernmentView Catchment,Richmond High School1.2 km away7-12CoEdGovernmentView Catchment",False,206071139.0,4898.8,671.7
4752064.0,1,2,0,Apartment / Unit / Flat,208/20 Shamrock Street,ABBOTSFORD,3067.0,-37.810143,145.00822,"Yarra Primary School0.5 km awayPrep-6CoEdGovernmentView Catchment,Richmond High School-Gleadell Street Campus0.9 km away7CoEdGovernmentView Catchment,Richmond High School1 km away7-12CoEdGovernmentView Catchment",False,206071139.0,4345.7,617.1
4301868.0,1,1,1,Apartment / Unit / Flat,104/125 Turner Street,ABBOTSFORD,3067.0,-37.7992,145.00105,"Collingwood College1 km awayPrep-12CoEdGovernmentView Catchment,Abbotsford Primary School1.1 km awayPrep-6CoEdGovernmentMore Info,Clifton Hill Primary School1.3 km awayPrep-6CoEdGovernmentMore Info",False,206071139.0,4696.7,688.4
750.0,2,2,1,Apartment / Unit / Flat,720/627 Victoria Street,ABBOTSFORD,3067.0,-37.811188,145.00966,"Yarra Primary School0.4 km awayPrep-6CoEdGovernmentView Catchment,Richmond High School0.9 km away7-12CoEdGovernmentView Catchment,Richmond High School-Gleadell Street Campus0.9 km away7CoEdGovernmentView Catchment",False,206071139.0,4428.4,606.0
500.0,1,1,0,Apartment / Unit / Flat,707/4 Acacia Place,ABBOTSFORD,3067.0,-37.81176,145.01414,"Yarra Primary School0.7 km awayPrep-6CoEdGovernmentView Catchment,Melbourne Girls College1.2 km away7-12GirlsGovernmentView Catchment,Richmond High School1.2 km away7-12CoEdGovernmentView Catchment",True,206071139.0,4898.8,671.7
2900.0,3,3,2,Apartment / Unit / Flat,401/312 Johnston Street,ABBOTSFORD,3067.0,-37.799957,144.99583,"Collingwood College0.6 km awayPrep-12CoEdGovernmentView Catchment,Clifton Hill Primary School1 km awayPrep-6CoEdGovernmentMore Info,Abbotsford Primary School1 km awayPrep-6CoEdGovernmentMore Info",True,206071139.0,4127.6,616.8
900.0,2,2,1,Apartment / Unit / Flat,109/6 Acacia place,ABBOTSFORD,3067.0,-37.81176,145.01414,"Yarra Primary School0.7 km awayPrep-6CoEdGovernmentView Catchment,Melbourne Girls College1.2 km away7-12GirlsGovernmentView Catchment,Richmond High School1.2 km away7-12CoEdGovernmentView Catchment",True,206071139.0,4898.8,671.7
795.0,2,2,1,Apartment / Unit / Flat,A914/627 Victoria Street,ABBOTSFORD,3067.0,-37.810673,145.00867,"Yarra Primary School0.5 km awayPrep-6CoEdGovernmentView Catchment,Richmond High School0.9 km away7-12CoEdGovernmentView Catchment,Richmond High School-Gleadell Street Campus0.9 km away7CoEdGovernmentView Catchment",True,206071139.0,4590.4,636.4
775.0,2,2,1,Apartment / Unit / Flat,B620/631 Victoria Street,ABBOTSFORD,3067.0,-37.81123,145.00946,"Yarra Primary School0.4 km awayPrep-6CoEdGovernmentView Catchment,Richmond High School0.9 km away7-12CoEdGovernmentView Catchment,Richmond High School-Gleadell Street Campus0.9 km away7CoEdGovernmentView Catchment",False,206071139.0,4442.2,605.7
750.0,2,2,1,Apartment / Unit / Flat,B611/631 Victoria Street,ABBOTSFORD,3067.0,-37.81123,145.00946,"Yarra Primary School0.4 km awayPrep-6CoEdGovernmentView Catchment,Richmond High School0.9 km away7-12CoEdGovernmentView Catchment,Richmond High School-Gleadell Street Campus0.9 km away7CoEdGovernmentView Catchment",False,206071139.0,4442.2,605.7
680.0,1,2,1,Apartment / Unit / Flat,506/251 Johnston Street,ABBOTSFORD,3067.0,-37.80016,144.9948,"Collingwood College0.5 km awayPrep-12CoEdGovernmentView Catchment,Clifton Hill Primary School1 km awayPrep-6CoEdGovernmentMore Info,Abbotsford Primary School1.1 km awayPrep-6CoEdGovernmentMore Info",False,206071139.0,4038.6,607.8
550.0,1,1,1,Apartment / Unit / Flat,611 Victoria Street,ABBOTSFORD,3067.0,-37.811085,145.00761,"Yarra Primary School0.4 km awayPrep-6CoEdGovernmentView Catchment,Richmond High School-Gleadell Street Campus0.8 km away7CoEdGovernmentView Catchment,Richmond High School0.8 km away7-12CoEdGovernmentView Catchment",True,206071139.0,4191.3,572.8
870.0,1,3,1,Townhouse,201 Roseneath Street,CLIFTON HILL,3068.0,-37.793175,145.00171,"Spensley Street Primary School0.7 km awayPrep-6CoEdGovernmentView Catchment,Collingwood College1.5 km awayPrep-12CoEdGovernmentView Catchment,Croxton Special School3.5 km awayUCoEdGovernmentView Catchment",False,206071145.0,5926.2,808.1
500.0,1,1,1,Apartment / Unit / Flat,303/247 Gold Street,CLIFTON HILL,3068.0,-37.789185,144.99048,"Clifton Hill Primary School0.4 km awayPrep-6CoEdGovernmentView Catchment,Fitzroy High School0.5 km away7-12CoEdGovernmentView Catchment,Croxton Special School2.8 km awayUCoEdGovernmentView Catchment",False,206071145.0,4498.6,570.6
670.0,1,2,0,House,10 Peckville Street,CLIFTON HILL,3068.0,-37.79296,144.99147,"Clifton Hill Primary School0.2 km awayPrep-6CoEdGovernmentView Catchment,Fitzroy High School1 km away7-12CoEdGovernmentView Catchment,Croxton Special School3.2 km awayUCoEdGovernmentView Catchment",False,206071145.0,4402.0,616.5
860.0,2,3,1,Townhouse,167 Ramsden Street,CLIFTON HILL,3068.0,-37.791275,145.00185,"Spensley Street Primary School0.5 km awayPrep-6CoEdGovernmentView Catchment,Fitzroy High School1.5 km away7-12CoEdGovernmentView Catchment,Croxton Special School3.3 km awayUCoEdGovernmentView Catchment",False,206071145.0,5659.0,774.5
850.0,1,3,1,House,22 Aitken St,CLIFTON HILL,3068.0,-37.791378,145.00056,"Spensley Street Primary School0.6 km awayPrep-6CoEdGovernmentView Catchment,Fitzroy High School1.4 km away7-12CoEdGovernmentView Catchment,Croxton Special School3.3 km awayUCoEdGovernmentView Catchment",False,206071145.0,5673.9,774.8
5502390.0,1,2,2,Apartment / Unit / Flat,12/56 John Street,CLIFTON HILL,3068.0,-37.78731,144.9958,"Spensley Street Primary School0.7 km awayPrep-6CoEdGovernmentView Catchment,Fitzroy High School0.8 km away7-12CoEdGovernmentView Catchment,Croxton Special School2.7 km awayUCoEdGovernmentView Catchment",False,206071145.0,5418.2,731.2
8653759.0,3,3,1,Townhouse,88 Alexandra Parade,CLIFTON HILL,3068.0,-37.79409,144.99028,"Clifton Hill Primary School0.2 km awayPrep-6CoEdGovernmentView Catchment,Collingwood College1 km awayPrep-12CoEdGovernmentView Catchment,Croxton Special School3.3 km awayUCoEdGovernmentView Catchment",False,206071145.0,4413.5,617.8
7003041.0,1,2,0,House,46 Hilton Street,CLIFTON HILL,3068.0,-37.791622,144.98763,"Clifton Hill Primary School0.2 km awayPrep-6CoEdGovernmentView Catchment,Fitzroy High School0.7 km away7-12CoEdGovernmentView Catchment,Croxton Special School3.1 km awayUCoEdGovernmentView Catchment",False,206071145.0,4131.6,538.6
6802955.0,1,2,0,House,24 Ramsden Street,CLIFTON HILL,3068.0,-37.790234,144.99641,"Clifton Hill Primary School0.7 km awayPrep-6CoEdGovernmentView Catchment,Fitzroy High School1 km away7-12CoEdGovernmentView Catchment,Croxton Special School3 km awayUCoEdGovernmentView Catchment",False,206071145.0,5168.8,686.3
6502824.0,1,2,0,House,6 Abbott Grove,CLIFTON HILL,3068.0,-37.78887,144.99875,"Spensley Street Primary School0.5 km awayPrep-6CoEdGovernmentView Catchment,Fitzroy High School1.1 km away7-12CoEdGovernmentView Catchment,Croxton Special School2.9 km awayUCoEdGovernmentView Catchment",False,206071145.0,5814.4,750.3
6252716.0,1,2,0,House,13 Hilton Street,CLIFTON HILL,3068.0,-37.793064,144.98729,"Clifton Hill Primary School0.2 km awayPrep-6CoEdGovernmentView Catchment,Fitzroy High School0.9 km away7-12CoEdGovernmentView Catchment,Croxton Special School3.2 km awayUCoEdGovernmentView Catchment",False,206071145.0,4108.5,540.1
550.0,1,2,1,Apartment / Unit / Flat,3/31-33 Heidelberg Road,CLIFTON HILL,3068.0,-37.786667,144.99751,"Spensley Street Primary School0.6 km awayPrep-6CoEdGovernmentView Catchment,Fitzroy High School0.9 km away7-12CoEdGovernmentView Catchment,Croxton Special School2.7 km awayUCoEdGovernmentView Catchment",False,206071145.0,5785.5,746.6
4201825.0,1,1,1,Apartment / Unit / Flat,5/18 South Terrace,CLIFTON HILL,3068.0,-37.792446,144.9934,"Clifton Hill Primary School0.4 km awayPrep-6CoEdGovernmentView Catchment,Fitzroy High School1 km away7-12CoEdGovernmentView Catchment,Croxton Special School3.2 km awayUCoEdGovernmentView Catchment",False,206071145.0,4672.3,681.3
1200.0,1,4,0,House,30 Council Street,CLIFTON HILL,3068.0,-37.792355,144.98682,"Clifton Hill Primary School0.2 km awayPrep-6CoEdGovernmentView Catchment,Fitzroy High School0.8 km away7-12CoEdGovernmentView Catchment,Croxton Special School3.1 km awayUCoEdGovernmentView Catchment",False,206071145.0,4018.1,518.4
500.0,1,1,1,Apartment / Unit / Flat,3/264 Alexandra Parade,CLIFTON HILL,3068.0,-37.794968,144.99976,"Clifton Hill Primary School1 km awayPrep-6CoEdGovernmentView Catchment,Collingwood College1.2 km awayPrep-12CoEdGovernmentView Catchment,Croxton Special School3.6 km awayUCoEdGovernmentView Catchment",False,206071145.0,5287.5,836.8
685.0,2,2,1,Apartment / Unit / Flat,19/137 McKean Street,FITZROY NORTH,3068.0,-37.788445,144.98721,"Fitzroy High School0.4 km away7-12CoEdGovernmentView Catchment,Clifton Hill Primary School0.5 km awayPrep-6CoEdGovernmentView Catchment,Croxton Special School2.7 km awayUCoEdGovernmentView Catchment",False,206071143.0,4292.3,607.0
1200.0,3,4,2,Townhouse,24 Miller Street,FITZROY NORTH,3068.0,-37.776646,144.98009,"Merri Creek Primary School0.7 km awayPrep-6CoEdGovernmentView Catchment,Northcote High School0.9 km away7-12CoEdGovernmentView Catchment,Croxton Special School1.5 km awayUCoEdGovernmentView Catchment",False,206071143.0,4861.5,545.1
710.0,1,2,1,Apartment / Unit / Flat,86/682 Nicholson Street,FITZROY NORTH,3068.0,-37.78333,144.97783,"Fitzroy North Primary School0.6 km awayPrep-6CoEdGovernmentView Catchment,Fitzroy High School0.9 km away7-12CoEdGovernmentView Catchment,Croxton Special School2.3 km awayUCoEdGovernmentView Catchment",False,206071143.0,3954.8,434.0
675.0,2,2,1,Apartment / Unit / Flat,507/392 St Georges Road,FITZROY NORTH,3068.0,-37.778294,144.98839,"Merri Creek Primary School0.2 km awayPrep-6CoEdGovernmentView Catchment,Northcote High School0.5 km away7-12CoEdGovernmentView Catchment,Croxton Special School1.6 km awayUCoEdGovernmentView Catchment",False,206071143.0,5165.9,584.3
650.0,2,2,1,Townhouse,7/672 Nicholson Street,FITZROY NORTH,3068.0,-37.78378,144.97772,"Fitzroy North Primary School0.6 km awayPrep-6CoEdGovernmentView Catchment,Fitzroy High School0.9 km away7-12CoEdGovernmentView Catchment,Croxton Special School2.4 km awayUCoEdGovernmentView Catchment",False,206071143.0,3903.9,430.0
685.0,1,2,0,House,154 Rae Street,FITZROY NORTH,3068.0,-37.788883,144.97934,"Fitzroy North Primary School0.6 km awayPrep-6CoEdGovernmentView Catchment,Fitzroy High School0.8 km away7-12CoEdGovernmentView Catchment,Croxton Special School2.9 km awayUCoEdGovernmentView Catchment",False,206071143.0,3585.9,446.7
650.0,1,2,1,Townhouse,2/157 Holden Street,FITZROY NORTH,3068.0,-37.77961,144.98535,"Merri Creek Primary School0.4 km awayPrep-6CoEdGovernmentView Catchment,Fitzroy High School0.6 km away7-12CoEdGovernmentView Catchment,Croxton Special School1.7 km awayUCoEdGovernmentView Catchment",False,206071143.0,5020.9,571.6
5902564.0,2,2,1,Apartment / Unit / Flat,202/58- 72 Queens Parade,FITZROY NORTH,3068.0,-37.791965,144.98161,"Clifton Hill Primary School0.7 km awayPrep-6CoEdGovernmentView Catchment,Fitzroy High School0.9 km away7-12CoEdGovernmentView Catchment,Croxton Special School3.1 km awayUCoEdGovernmentView Catchment",False,206071143.0,3694.8,485.6
520.0,1,1,1,Apartment / Unit / Flat,5/38-42 York Street,FITZROY NORTH,3068.0,-37.792007,144.97748,"Carlton North Primary School0.4 km awayPrep-6CoEdGovernmentView Catchment,Fitzroy High School1.2 km away7-12CoEdGovernmentView Catchment,Croxton Special School3.2 km awayUCoEdGovernmentView Catchment",False,206071143.0,3151.7,380.2
2100.0,2,5,1,House,24 Rowe Street,FITZROY NORTH,3068.0,-37.786686,144.98795,"Fitzroy High School0.2 km away7-12CoEdGovernmentView Catchment,Fitzroy North Primary School0.4 km awayPrep-6CoEdGovernmentView Catchment,Croxton Special School2.5 km awayUCoEdGovernmentView Catchment",False,206071143.0,5239.8,631.0
1410.0,2,3,1,Apartment / Unit / Flat,249 Queens Parade,FITZROY NORTH,3068.0,-37.78611,144.99472,"Fitzroy High School0.7 km away7-12CoEdGovernmentView Catchment,Spensley Street Primary School0.8 km awayPrep-6CoEdGovernmentView Catchment,Croxton Special School2.5 km awayUCoEdGovernmentView Catchment",True,206071143.0,5015.1,648.9
1100.0,2,3,1,Townhouse,12/22-28 Best Street,FITZROY NORTH,3068.0,-37.78421,144.98335,"Fitzroy North Primary School0.1 km awayPrep-6CoEdGovernmentView Catchment,Fitzroy High School0.4 km away7-12CoEdGovernmentView Catchment,Croxton Special School2.3 km awayUCoEdGovernmentView Catchment",True,206071143.0,4372.9,502.6
995.0,2,2,1,Townhouse,186 Queens Pde,FITZROY NORTH,3068.0,-37.79004,144.98575,"Clifton Hill Primary School0.4 km awayPrep-6CoEdGovernmentView Catchment,Fitzroy High School0.6 km away7-12CoEdGovernmentView Catchment,Croxton Special School2.9 km awayUCoEdGovernmentView Catchment",True,206071143.0,4196.0,583.9
850.0,2,2,1,Apartment / Unit / Flat,249 Queens Parade,FITZROY NORTH,3068.0,-37.78611,144.99472,"Fitzroy High School0.7 km away7-12CoEdGovernmentView Catchment,Spensley Street Primary School0.8 km awayPrep-6CoEdGovernmentView Catchment,Croxton Special School2.5 km awayUCoEdGovernmentView Catchment",True,206071143.0,5015.1,648.9
8203563.0,1,2,0,House,4 Ivan Street,FITZROY NORTH,3068.0,-37.782787,144.98715,"Fitzroy High School0.2 km away7-12CoEdGovernmentView Catchment,Fitzroy North Primary School0.4 km awayPrep-6CoEdGovernmentView Catchment,Croxton Special School2.1 km awayUCoEdGovernmentView Catchment",False,206071143.0,5065.5,595.4
7753368.0,1,2,0,House,38 Fergie Street,FITZROY NORTH,3068.0,-37.784492,144.98477,"Fitzroy North Primary School0.1 km awayPrep-6CoEdGovernmentView Catchment,Fitzroy High School0.2 km away7-12CoEdGovernmentView Catchment,Croxton Special School2.3 km awayUCoEdGovernmentView Catchment",False,206071143.0,4728.1,569.0
6602868.0,2,2,1,Apartment / Unit / Flat,92A Fergie Street,FITZROY NORTH,3068.0,-37.782425,144.98505,"Fitzroy North Primary School0.3 km awayPrep-6CoEdGovernmentView Catchment,Fitzroy High School0.3 km away7-12CoEdGovernmentView Catchment,Croxton Special School2.1 km awayUCoEdGovernmentView Catchment",False,206071143.0,4667.5,554.4
650.0,1,2,1,Apartment / Unit / Flat,29/682 Nicholson Street,FITZROY NORTH,3068.0,-37.78333,144.97783,"Fitzroy North Primary School0.6 km awayPrep-6CoEdGovernmentView Catchment,Fitzroy High School0.9 km away7-12CoEdGovernmentView Catchment,Croxton Special School2.3 km awayUCoEdGovernmentView Catchment",False,206071143.0,3954.8,434.0
595.0,1,1,1,Apartment / Unit / Flat,249 Queens Parade,FITZROY NORTH,3068.0,-37.78611,144.99472,"Fitzroy High School0.7 km away7-12CoEdGovernmentView Catchment,Spensley Street Primary School0.8 km awayPrep-6CoEdGovernmentView Catchment,Croxton Special School2.5 km awayUCoEdGovernmentView Catchment",True,206071143.0,5015.1,648.9
515.0,1,2,1,Apartment / Unit / Flat,4/16 Nicholson Street,FITZROY NORTH,3068.0,-37.775085,144.97964,"Merri Creek Primary School0.7 km awayPrep-6CoEdGovernmentView Catchment,Northcote High School0.9 km away7-12CoEdGovernmentView Catchment,Croxton Special School1.4 km awayUCoEdGovernmentView Catchment",False,206071143.0,4962.2,558.0
500.0,1,2,1,Apartment / Unit / Flat,9/55-59 York Street,FITZROY NORTH,3068.0,-37.791706,144.97803,"Carlton North Primary School0.4 km awayPrep-6CoEdGovernmentView Catchment,Fitzroy High School1.1 km away7-12CoEdGovernmentView Catchment,Croxton Special School3.2 km awayUCoEdGovernmentView Catchment",False,206071143.0,3215.0,391.7
440.0,1,1,1,Apartment / Unit / Flat,6/14 Rae St,FITZROY NORTH,3068.0,-37.792553,144.97864,"Carlton North Primary School0.5 km awayPrep-6CoEdGovernmentView Catchment,Fitzroy High School1.2 km away7-12CoEdGovernmentView Catchment,Croxton Special School3.3 km awayUCoEdGovernmentView Catchment",False,206071143.0,3292.8,405.2
430.0,1,1,1,Apartment / Unit / Flat,5/118 Holden Street,FITZROY NORTH,3068.0,-37.779816,144.98364,"Merri Creek Primary School0.5 km awayPrep-6CoEdGovernmentView Catchment,Fitzroy High School0.7 km away7-12CoEdGovernmentView Catchment,Croxton Special School1.8 km awayUCoEdGovernmentView Catchment",False,206071143.0,4894.7,569.9
1160.0,1,4,1,House,226 Scotchmer Street,FITZROY NORTH,3068.0,-37.78385,144.9872,"Fitzroy High School0.1 km away7-12CoEdGovernmentView Catchment,Fitzroy North Primary School0.3 km awayPrep-6CoEdGovernmentView Catchment,Croxton Special School2.2 km awayUCoEdGovernmentView Catchment",False,206071143.0,4784.7,557.9
970.0,1,4,2,Apartment / Unit / Flat,218A St Georges Road,FITZROY NORTH,3068.0,-37.784,144.98349,"Fitzroy North Primary School0.1 km awayPrep-6CoEdGovernmentView Catchment,Fitzroy High School0.4 km away7-12CoEdGovernmentView Catchment,Croxton Special School2.2 km awayUCoEdGovernmentView Catchment",False,206071143.0,4399.1,504.7
900.0,1,3,1,House,208 Scotchmer Street,FITZROY NORTH,3068.0,-37.783794,144.98654,"Fitzroy High School0.1 km away7-12CoEdGovernmentView Catchment,Fitzroy North Primary School0.3 km awayPrep-6CoEdGovernmentView Catchment,Croxton Special School2.2 km awayUCoEdGovernmentView Catchment",False,206071143.0,4733.4,611.8
580.0,1,2,1,Apartment / Unit / Flat,307/461 Brunswick Street,FITZROY NORTH,3068.0,-37.792847,144.979,"Carlton North Primary School0.6 km awayPrep-6CoEdGovernmentView Catchment,Fitzroy High School1.2 km away7-12CoEdGovernmentView Catchment,Croxton Special School3.3 km awayUCoEdGovernmentView Catchment",False,206071143.0,3275.9,413.2
850.0,1,3,0,House,118 Bastings Street,NORTHCOTE,3070.0,-37.77519,145.00739,"Westgarth Primary School0.2 km awayPrep-6CoEdGovernmentView Catchment,Northcote High School1.6 km away7-12CoEdGovernmentView Catchment,Croxton Special School2.2 km awayUCoEdGovernmentView Catchment",False,206021499.0,7199.6,959.0
470.0,1,2,1,Apartment / Unit / Flat,10/23-25 Derby Street,NORTHCOTE,3070.0,-37.773876,145.00478,"Westgarth Primary School0.3 km awayPrep-6CoEdGovernmentView Catchment,Northcote High School1.3 km away7-12CoEdGovernmentView Catchment,Croxton Special School1.9 km awayUCoEdGovernmentView Catchment",False,206021499.0,7403.9,942.7
980.0,1,3,1,House,50 Beaconsfield Parade,NORTHCOTE,3070.0,-37.764416,144.99492,"Croxton Special School0.7 km awayUCoEdGovernmentView Catchment,Northcote Primary School0.8 km awayPrep-6CoEdGovernmentView Catchment,Northcote High School1.2 km away7-12CoEdGovernmentView Catchment",True,206021500.0,7033.6,791.5
980.0,1,3,2,House,95 Beaconsfield Parade,NORTHCOTE,3070.0,-37.764618,144.9933,"Croxton Special School0.5 km awayUCoEdGovernmentView Catchment,Northcote Primary School0.9 km awayPrep-6CoEdGovernmentView Catchment,Northcote High School1.1 km away7-12CoEdGovernmentView Catchment",False,206021500.0,6853.3,768.8
625.0,1,2,0,House,31 South Crescent,NORTHCOTE,3070.0,-37.77893,145.0018,"Westgarth Primary School0.4 km awayPrep-6CoEdGovernmentView Catchment,Northcote High School1.2 km away7-12CoEdGovernmentView Catchment,Croxton Special School2.1 km awayUCoEdGovernmentView Catchment",False,206021499.0,6154.8,831.0
950.0,1,4,2,House,208 St Georges Road,NORTHCOTE,3070.0,-37.765305,144.99248,"Croxton Special School0.5 km awayUCoEdGovernmentView Catchment,Northcote Primary School0.8 km awayPrep-6CoEdGovernmentView Catchment,Northcote High School1 km away7-12CoEdGovernmentView Catchment",False,206021500.0,6702.9,747.4
650.0,1,2,1,House,443 Clarke Street,NORTHCOTE,3070.0,-37.77838,145.01443,"Fairfield Primary School0.5 km awayPrep-6CoEdGovernmentView Catchment,Northcote High School2.2 km away7-12CoEdGovernmentView Catchment,Croxton Special School2.9 km awayUCoEdGovernmentView Catchment",True,206021499.0,7342.7,963.6
8503693.0,1,3,1,House,48 Union Street,NORTHCOTE,3070.0,-37.779125,144.99446,"Merri Creek Primary School0.7 km awayPrep-6CoEdGovernmentView Catchment,Northcote High School0.7 km away7-12CoEdGovernmentView Catchment,Croxton Special School1.8 km awayUCoEdGovernmentView Catchment",False,206021500.0,6099.6,732.4
850.0,2,2,1,Apartment / Unit / Flat,101/63-65 High Street,NORTHCOTE,3070.0,-37.780632,144.99654,"Merri Creek Primary School0.9 km awayPrep-6CoEdGovernmentView Catchment,Fitzroy High School0.9 km away7-12CoEdGovernmentView Catchment,Croxton Special School2 km awayUCoEdGovernmentView Catchment",False,206021500.0,5769.9,754.2
8203563.0,1,3,2,Townhouse,2/126 Victoria Road,NORTHCOTE,3070.0,-37.773018,145.0117,"Westgarth Primary School0.7 km awayPrep-6CoEdGovernmentView Catchment,Northcote High School1.9 km away7-12CoEdGovernmentView Catchment,Croxton Special School2.4 km awayUCoEdGovernmentView Catchment",False,206021499.0,8493.1,1009.0
780.0,2,2,1,Apartment / Unit / Flat,202/63-65 High Street,NORTHCOTE,3070.0,-37.780632,144.99654,"Merri Creek Primary School0.9 km awayPrep-6CoEdGovernmentView Catchment,Fitzroy High School0.9 km away7-12CoEdGovernmentView Catchment,Croxton Special School2 km awayUCoEdGovernmentView Catchment",False,206021500.0,5769.9,754.2
650.0,1,2,1,Apartment / Unit / Flat,3/172 Darebin Road,NORTHCOTE,3070.0,-37.76481,145.01207,"Wales Street Primary School0.5 km awayPrep-6CoEdGovernmentView Catchment,Thornbury High School1.5 km away7-12CoEdGovernmentView Catchment,Croxton Special School2.2 km awayUCoEdGovernmentView Catchment",False,206021499.0,8739.6,1090.8
650.0,1,2,2,House,238 Mitchell Street,NORTHCOTE,3070.0,-37.77427,145.01599,"Fairfield Primary School0.6 km awayPrep-6CoEdGovernmentView Catchment,Thornbury High School2.1 km away7-12CoEdGovernmentView Catchment,Croxton Special School2.8 km awayUCoEdGovernmentView Catchment",False,206021110.0,7927.9,1059.3
4501955.0,1,1,1,Apartment / Unit / Flat,4/52 Gadd Street,NORTHCOTE,3070.0,-37.762413,144.99161,"Croxton Special School0.4 km awayUCoEdGovernmentView Catchment,Thornbury Primary School0.9 km awayPrep-6CoEdGovernmentView Catchment,Northcote High School1.3 km away7-12CoEdGovernmentView Catchment",False,206021500.0,7074.2,784.3
450.0,1,1,1,Apartment / Unit / Flat,3/3 Jessie Street,NORTHCOTE,3070.0,-37.78112,145.00354,"Westgarth Primary School0.5 km awayPrep-6CoEdGovernmentView Catchment,Northcote High School1.4 km away7-12CoEdGovernmentView Catchment,Croxton Special School2.4 km awayUCoEdGovernmentView Catchment",False,206021499.0,6288.6,864.3
420.0,1,1,1,Apartment / Unit / Flat,8/25 Spencer Street,NORTHCOTE,3070.0,-37.763554,144.99652,"Croxton Special School0.8 km awayUCoEdGovernmentView Catchment,Thornbury Primary School0.9 km awayPrep-6CoEdGovernmentView Catchment,Northcote High School1.3 km away7-12CoEdGovernmentView Catchment",False,206021500.0,7270.3,832.2
390.0,1,1,1,Apartment / Unit / Flat,2/30 Aberdeen Grove,NORTHCOTE,3070.0,-37.774464,144.99222,"Northcote High School0.2 km away7-12CoEdGovernmentView Catchment,Merri Creek Primary School0.5 km awayPrep-6CoEdGovernmentView Catchment,Croxton Special School1.2 km awayUCoEdGovernmentView Catchment",False,206021500.0,5838.0,698.2
690.0,1,3,0,House,34 Auburn Avenue,NORTHCOTE,3070.0,-37.768684,144.98805,"Croxton Special School0.5 km awayUCoEdGovernmentView Catchment,Northcote High School0.6 km away7-12CoEdGovernmentView Catchment,Brunswick East Primary School0.9 km awayPrep-6CoEdGovernmentView Catchment",False,206021500.0,6601.8,762.3
420.0,1,1,1,Apartment / Unit / Flat,409/469 High Street,NORTHCOTE,3070.0,-37.76619,144.99908,"Northcote Primary School0.6 km awayPrep-6CoEdGovernmentView Catchment,Croxton Special School1.1 km awayUCoEdGovernmentView Catchment,Northcote High School1.2 km away7-12CoEdGovernmentView Catchment",False,206021500.0,7322.3,850.3
1250.0,2,2,0,Townhouse,12 Westfield Street,NORTHCOTE,3070.0,-37.783268,145.00787,"Spensley Street Primary School0.5 km awayPrep-6CoEdGovernmentView Catchment,Fitzroy High School1.8 km away7-12CoEdGovernmentView Catchment,Croxton Special School2.8 km awayUCoEdGovernmentView Catchment",True,206021499.0,6395.1,801.6
1050.0,2,4,2,House,34 Bird Avenue,NORTHCOTE,3070.0,-37.761463,144.98956,"Croxton Special School0.3 km awayUCoEdGovernmentView Catchment,Thornbury Primary School0.9 km awayPrep-6CoEdGovernmentView Catchment,Northcote High School1.4 km away7-12CoEdGovernmentView Catchment",False,206021112.0,7647.0,832.7
8503693.0,1,3,1,House,10 Park Street,NORTHCOTE,3070.0,-37.77538,144.99312,"Northcote High School0.3 km away7-12CoEdGovernmentView Catchment,Northcote Primary School0.5 km awayPrep-6CoEdGovernmentView Catchment,Croxton Special School1.4 km awayUCoEdGovernmentView Catchment",False,206021500.0,5808.6,702.7
850.0,1,3,2,House,279 St Georges Road,NORTHCOTE,3070.0,-37.76338,144.99196,"Croxton Special School0.4 km awayUCoEdGovernmentView Catchment,Thornbury Primary School1 km awayPrep-6CoEdGovernmentView Catchment,Northcote High School1.2 km away7-12CoEdGovernmentView Catchment",False,206021500.0,7089.5,777.4
840.0,2,3,1,Townhouse,113 Herbert Street,NORTHCOTE,3070.0,-37.76715,144.99661,"Northcote Primary School0.5 km awayPrep-6CoEdGovernmentView Catchment,Croxton Special School0.9 km awayUCoEdGovernmentView Catchment,Northcote High School1 km away7-12CoEdGovernmentView Catchment",False,206021500.0,6928.2,829.9
760.0,2,3,0,Apartment / Unit / Flat,597 High Street,NORTHCOTE,3070.0,-37.76278,144.99965,"Wales Street Primary School0.8 km awayPrep-6CoEdGovernmentView Catchment,Croxton Special School1.1 km awayUCoEdGovernmentView Catchment,Northcote High School1.5 km away7-12CoEdGovernmentView Catchment",False,206021500.0,8382.8,890.4
7203129.0,1,3,1,House,124 Christmas Street,NORTHCOTE,3070.0,-37.76741,145.01756,"Wales Street Primary School1 km awayPrep-6CoEdGovernmentView Catchment,Thornbury High School1.4 km away7-12CoEdGovernmentView Catchment,Croxton Special School2.7 km awayUCoEdGovernmentView Catchment",True,206021499.0,9043.0,1093.6
700.0,1,2,0,House,40 Charles Street,NORTHCOTE,3070.0,-37.777058,144.99173,"Merri Creek Primary School0.4 km awayPrep-6CoEdGovernmentView Catchment,Northcote High School0.4 km away7-12CoEdGovernmentView Catchment,Croxton Special School1.5 km awayUCoEdGovernmentView Catchment",False,206021500.0,5776.4,695.1
6953020.0,1,2,1,House,59 Charles Street,NORTHCOTE,3070.0,-37.776566,144.99216,"Northcote High School0.3 km away7-12CoEdGovernmentView Catchment,Merri Creek Primary School0.4 km awayPrep-6CoEdGovernmentView Catchment,Croxton Special School1.5 km awayUCoEdGovernmentView Catchment",False,206021500.0,5674.4,681.7
6802955.0,1,2,0,House,31 Park Street,NORTHCOTE,3070.0,-37.7752,144.99275,"Northcote High School0.3 km away7-12CoEdGovernmentView Catchment,Merri Creek Primary School0.5 km awayPrep-6CoEdGovernmentView Catchment,Croxton Special School1.3 km awayUCoEdGovernmentView Catchment",False,206021500.0,5817.7,703.1
630.0,2,2,0,Apartment / Unit / Flat,801/8 Breavington Way,NORTHCOTE,3070.0,-37.768066,145.00224,"Northcote Primary School0.6 km awayPrep-6CoEdGovernmentView Catchment,Northcote High School1.3 km away7-12CoEdGovernmentView Catchment,Croxton Special School1.4 km awayUCoEdGovernmentView Catchment",True,206021499.0,7588.9,902.5
6202694.0,1,2,0,House,54 Elm Street,NORTHCOTE,3070.0,-37.767723,144.99554,"Northcote Primary School0.5 km awayPrep-6CoEdGovernmentView Catchment,Croxton Special School0.8 km awayUCoEdGovernmentView Catchment,Northcote High School0.9 km away7-12CoEdGovernmentView Catchment",False,206021500.0,6764.2,775.4
590.0,1,2,1,Apartment / Unit / Flat,301/44 Eastment Street,NORTHCOTE,3070.0,-37.773014,144.99738,"Northcote Primary School0.1 km awayPrep-6CoEdGovernmentView Catchment,Northcote High School0.7 km away7-12CoEdGovernmentView Catchment,Croxton Special School1.3 km awayUCoEdGovernmentView Catchment",False,206021500.0,6886.8,897.0
550.0,1,2,1,Townhouse,3/402 High Street,NORTHCOTE,3070.0,-37.768085,144.9994,"Northcote Primary School0.5 km awayPrep-6CoEdGovernmentView Catchment,Northcote High School1.1 km away7-12CoEdGovernmentView Catchment,Croxton Special School1.2 km awayUCoEdGovernmentView Catchment",False,206021499.0,7137.4,832.6
525.0,1,1,1,Apartment / Unit / Flat,310/26-38 Merri Parade,NORTHCOTE,3070.0,-37.778175,144.99068,"Merri Creek Primary School0.3 km awayPrep-6CoEdGovernmentView Catchment,Northcote High School0.5 km away7-12CoEdGovernmentView Catchment,Croxton Special School1.6 km awayUCoEdGovernmentView Catchment",False,206021500.0,5590.9,658.6
500.0,1,2,0,Apartment / Unit / Flat,1/497 High Street,NORTHCOTE,3070.0,-37.765514,144.99907,"Northcote Primary School0.7 km awayPrep-6CoEdGovernmentView Catchment,Croxton Special School1 km awayUCoEdGovernmentView Catchment,Northcote High School1.3 km away7-12CoEdGovernmentView Catchment",False,206021500.0,7442.5,869.9
5002173.0,1,1,1,Apartment / Unit / Flat,306C/168 Victoria Road,NORTHCOTE,3070.0,-37.770226,145.01175,"Westgarth Primary School0.9 km awayPrep-6CoEdGovernmentView Catchment,Thornbury High School1.9 km away7-12CoEdGovernmentView Catchment,Croxton Special School2.3 km awayUCoEdGovernmentView Catchment",False,206021499.0,8148.9,965.6
4952151.0,1,2,1,Apartment / Unit / Flat,9/10 Union Street,NORTHCOTE,3070.0,-37.77876,144.99136,"Merri Creek Primary School0.4 km awayPrep-6CoEdGovernmentView Catchment,Northcote High School0.5 km away7-12CoEdGovernmentView Catchment,Croxton Special School1.7 km awayUCoEdGovernmentView Catchment",False,206021500.0,6005.2,712.7
490.0,1,1,1,Apartment / Unit / Flat,8.10/8 Breavington Way,NORTHCOTE,3070.0,-37.768066,145.00224,"Northcote Primary School0.6 km awayPrep-6CoEdGovernmentView Catchment,Northcote High School1.3 km away7-12CoEdGovernmentView Catchment,Croxton Special School1.4 km awayUCoEdGovernmentView Catchment",False,206021499.0,7588.9,902.5
410.0,1,1,1,Apartment / Unit / Flat,9/31 Emmaline Street,NORTHCOTE,3070.0,-37.76392,144.99428,"Croxton Special School0.6 km awayUCoEdGovernmentView Catchment,Northcote Primary School0.9 km awayPrep-6CoEdGovernmentView Catchment,Northcote High School1.2 km away7-12CoEdGovernmentView Catchment",False,206021500.0,7014.0,782.9
400.0,1,1,1,Apartment / Unit / Flat,3/17 Roberts Street,NORTHCOTE,3070.0,-37.777603,144.99908,"Westgarth Primary School0.6 km awayPrep-6CoEdGovernmentView Catchment,Northcote High School0.9 km away7-12CoEdGovernmentView Catchment,Croxton Special School1.8 km awayUCoEdGovernmentView Catchment",False,206021499.0,6138.7,816.9
390.0,1,1,1,Apartment / Unit / Flat,1/13 Christmas Street,NORTHCOTE,3070.0,-37.76586,145.00662,"Wales Street Primary School0.5 km awayPrep-6CoEdGovernmentView Catchment,Croxton Special School1.7 km awayUCoEdGovernmentView Catchment,Northcote High School1.8 km away7-12CoEdGovernmentView Catchment",False,206021499.0,8063.3,1019.5
380.0,1,1,0,Apartment / Unit / Flat,3/149 High Street,NORTHCOTE,3070.0,-37.776714,144.9973,"Northcote Primary School0.6 km awayPrep-6CoEdGovernmentView Catchment,Northcote High School0.7 km away7-12CoEdGovernmentView Catchment,Croxton Special School1.7 km awayUCoEdGovernmentView Catchment",False,206021500.0,6143.6,761.7
365.0,1,1,1,Apartment / Unit / Flat,1/30 Aberdeen Grove,NORTHCOTE,3070.0,-37.774464,144.99222,"Northcote High School0.2 km away7-12CoEdGovernmentView Catchment,Merri Creek Primary School0.5 km awayPrep-6CoEdGovernmentView Catchment,Croxton Special School1.2 km awayUCoEdGovernmentView Catchment",False,206021500.0,5838.0,698.2
215.0,1,1,0,Studio,206/267 High Street,NORTHCOTE,3070.0,-37.772495,144.99817,"Northcote Primary School0.1 km awayPrep-6CoEdGovernmentView Catchment,Northcote High School0.8 km away7-12CoEdGovernmentView Catchment,Croxton Special School1.3 km awayUCoEdGovernmentView Catchment",True,206021500.0,6618.6,821.1
720.0,1,3,2,House,119 Bastings Street,NORTHCOTE,3070.0,-37.774773,145.00728,"Westgarth Primary School0.2 km awayPrep-6CoEdGovernmentView Catchment,Northcote High School1.6 km away7-12CoEdGovernmentView Catchment,Croxton Special School2.1 km awayUCoEdGovernmentView Catchment",False,206021499.0,7305.0,978.9
860.0,1,3,1,House,17 Hartley Street,NORTHCOTE,3070.0,-37.773808,145.00958,"Westgarth Primary School0.5 km awayPrep-6CoEdGovernmentView Catchment,Northcote High School1.8 km away7-12CoEdGovernmentView Catchment,Croxton Special School2.2 km awayUCoEdGovernmentView Catchment",False,206021499.0,7766.1,993.9
450.0,1,1,1,House,3 Frederick Street,NORTHCOTE,3070.0,-37.77154,144.99904,"Northcote Primary School0.2 km awayPrep-6CoEdGovernmentView Catchment,Northcote High School0.9 km away7-12CoEdGovernmentView Catchment,Croxton Special School1.3 km awayUCoEdGovernmentView Catchment",False,206021499.0,6793.1,854.1
415.0,1,2,1,Apartment / Unit / Flat,4/265 Rossmoyne Street,THORNBURY,3071.0,-37.758804,145.01765,"Penders Grove Primary School0.6 km awayPrep-6CoEdGovernmentView Catchment,Thornbury High School0.7 km away7-12CoEdGovernmentView Catchment,Croxton Special School2.7 km awayUCoEdGovernmentView Catchment",False,206021112.0,9765.8,1145.8
950.0,2,3,2,Apartment / Unit / Flat,4/8 Strettle Street,THORNBURY,3071.0,-37.75452,144.98242,"Bell Primary School1 km awayPrep-6CoEdGovernmentView Catchment,Croxton Special School1.1 km awayUCoEdGovernmentView Catchment,Coburg High School1.7 km away7-12CoEdGovernmentView Catchment",False,206021112.0,7211.1,860.4
870.0,1,3,1,House,118 Normanby Avenue,THORNBURY,3071.0,-37.7581,144.98941,"Croxton Special School0.7 km awayUCoEdGovernmentView Catchment,Thornbury Primary School0.7 km awayPrep-6CoEdGovernmentView Catchment,Northcote High School1.8 km away7-12CoEdGovernmentView Catchment",False,206021112.0,8077.5,880.9
680.0,1,2,4,House,230 Rossmoyne Street,THORNBURY,3071.0,-37.75876,145.01466,"Penders Grove Primary School0.5 km awayPrep-6CoEdGovernmentView Catchment,Thornbury High School1 km away7-12CoEdGovernmentView Catchment,Croxton Special School2.5 km awayUCoEdGovernmentView Catchment",False,206021112.0,9504.7,1098.8
