price,bathrooms,bedrooms,parking,type,street,suburb,postcode,latitude,longitude,school,furnished,SA2_code,nearestHospital,hospital_distance,to_hospital_time
550.0,2,4,2,House,572 Cameron Street,DONNYBROOK,3064.0,-37.530876,144.9989,"Donnybrook Primary School0.7 km awayPrep-6CoEdGovernmentView Catchment,Mickleham Secondary College8.6 km away7CoEdGovernmentView Catchment,Mount Ridley P-12 College8.6 km awayPrep-12CoEdGovernmentView Catchment",False,209041225.0,"{'dist': 10.085307691296766, 'nearest_coord': (-37.596015, 144.91928)}",15310.0,1287.4
550.0,2,4,2,House,559 Cameron Street,DONNYBROOK,3064.0,-37.531075,144.99704,"Donnybrook Primary School0.7 km awayPrep-6CoEdGovernmentView Catchment,Mickleham Secondary College8.4 km away7CoEdGovernmentView Catchment,Mount Ridley P-12 College8.5 km awayPrep-12CoEdGovernmentView Catchment",False,209041225.0,"{'dist': 9.955855046043608, 'nearest_coord': (-37.596015, 144.91928)}",15240.0,1279.5
540.0,2,4,2,House,10 Tannery Street,DONNYBROOK,3064.0,-37.529613,145.00014,"Donnybrook Primary School0.8 km awayPrep-6CoEdGovernmentView Catchment,Mickleham Secondary College8.7 km away7CoEdGovernmentView Catchment,Mount Ridley P-12 College8.8 km awayPrep-12CoEdGovernmentView Catchment",False,209041225.0,"{'dist': 10.262283039511331, 'nearest_coord': (-37.596015, 144.91928)}",15568.9,1355.7
550.0,2,4,2,Townhouse,38 Hawkesbury Drive,DONNYBROOK,3064.0,-37.540028,144.96925,"Gilgai Plains Primary School1.2 km awayPrep-6CoEdGovernmentView Catchment,Mount Ridley P-12 College6 km awayPrep-12CoEdGovernmentView Catchment,Merriang Special Developmental School14.7 km awayUCoEdGovernmentView Catchment",False,209041225.0,"{'dist': 7.625839258513456, 'nearest_coord': (-37.596015, 144.91928)}",11265.4,897.8
530.0,2,3,2,Townhouse,55 Curbridge Drive,DONNYBROOK,3064.0,-37.544876,144.959,"Gilgai Plains Primary School1.3 km awayPrep-6CoEdGovernmentView Catchment,Mount Ridley P-12 College5 km awayPrep-12CoEdGovernmentView Catchment,Merriang Special Developmental School14.5 km awayUCoEdGovernmentView Catchment",False,209041225.0,"{'dist': 6.677566736000977, 'nearest_coord': (-37.596015, 144.91928)}",11115.1,895.1
550.0,2,4,2,House,3 Vestige Street,DONNYBROOK,3064.0,-37.542976,144.97868,"Donnybrook Primary School1.8 km awayPrep-6CoEdGovernmentView Catchment,Mount Ridley P-12 College6.4 km awayPrep-12CoEdGovernmentView Catchment,Merriang Special Developmental School14.2 km awayUCoEdGovernmentView Catchment",False,209041225.0,"{'dist': 7.886062611908487, 'nearest_coord': (-37.596015, 144.91928)}",12130.5,977.5
520.0,2,4,2,House,11 FAYALITE CIRCUIT,DONNYBROOK,3064.0,-37.530155,144.99615,"Donnybrook Primary School0.8 km awayPrep-6CoEdGovernmentView Catchment,Mickleham Secondary College8.3 km away7CoEdGovernmentView Catchment,Mount Ridley P-12 College8.5 km awayPrep-12CoEdGovernmentView Catchment",False,209041225.0,"{'dist': 9.976889250931533, 'nearest_coord': (-37.596015, 144.91928)}",15459.2,1329.4
520.0,2,4,2,House,55 Langford Road,DONNYBROOK,3064.0,-37.548893,144.96085,"Gilgai Plains Primary School1.8 km awayPrep-6CoEdGovernmentView Catchment,Mount Ridley P-12 College4.8 km awayPrep-12CoEdGovernmentView Catchment,Merriang Special Developmental School14 km awayUCoEdGovernmentView Catchment",False,209041225.0,"{'dist': 6.393506237507977, 'nearest_coord': (-37.596015, 144.91928)}",11457.5,902.2
500.0,2,4,2,House,546 CAMERON STREET,DONNYBROOK,3064.0,-37.530563,144.99617,"Donnybrook Primary School0.7 km awayPrep-6CoEdGovernmentView Catchment,Mickleham Secondary College8.3 km away7CoEdGovernmentView Catchment,Mount Ridley P-12 College8.5 km awayPrep-12CoEdGovernmentView Catchment",False,209041225.0,"{'dist': 9.944824568480797, 'nearest_coord': (-37.596015, 144.91928)}",15334.2,1288.2
500.0,2,3,2,House,19 Oakham Street,DONNYBROOK,3064.0,-37.54847,144.96526,"Gilgai Plains Primary School1.8 km awayPrep-6CoEdGovernmentView Catchment,Mount Ridley P-12 College5.1 km awayPrep-12CoEdGovernmentView Catchment,Merriang Special Developmental School13.9 km awayUCoEdGovernmentView Catchment",False,209041225.0,"{'dist': 6.661155164359626, 'nearest_coord': (-37.596015, 144.91928)}",11921.9,927.5
500.0,2,3,2,House,5 Selby Way,DONNYBROOK,3064.0,-37.546658,144.96114,"Gilgai Plains Primary School1.5 km awayPrep-6CoEdGovernmentView Catchment,Mount Ridley P-12 College5 km awayPrep-12CoEdGovernmentView Catchment,Merriang Special Developmental School14.2 km awayUCoEdGovernmentView Catchment",False,209041225.0,"{'dist': 6.61297093849626, 'nearest_coord': (-37.596015, 144.91928)}",11192.0,870.5
490.0,2,4,2,House,29 Leafspring Road,DONNYBROOK,3064.0,-37.54003,144.97966,"Donnybrook Primary School1.6 km awayPrep-6CoEdGovernmentView Catchment,Mount Ridley P-12 College6.7 km awayPrep-12CoEdGovernmentView Catchment,Merriang Special Developmental School14.5 km awayUCoEdGovernmentView Catchment",False,209041225.0,"{'dist': 8.189881199239352, 'nearest_coord': (-37.596015, 144.91928)}",12282.3,1013.9
450.0,2,4,2,House,28 River Redgum Blvd,DONNYBROOK,3064.0,-37.542564,144.96875,"Gilgai Plains Primary School1.4 km awayPrep-6CoEdGovernmentView Catchment,Mount Ridley P-12 College5.8 km awayPrep-12CoEdGovernmentView Catchment,Merriang Special Developmental School14.4 km awayUCoEdGovernmentView Catchment",False,209041225.0,"{'dist': 7.371228790738684, 'nearest_coord': (-37.596015, 144.91928)}",10993.1,834.1
600.0,2,4,2,House,16 Danzig Street,KALKALLO,3064.0,-37.52442,144.96191,"Mickleham Secondary College5.3 km away7CoEdGovernmentView Catchment,Mount Ridley P-12 College7.1 km awayPrep-12CoEdGovernmentView Catchment,Merriang Special Developmental School16.5 km awayUCoEdGovernmentView Catchment",False,210051445.0,"{'dist': 8.803276737302483, 'nearest_coord': (-37.596015, 144.91928)}",12382.0,984.0
600.0,2,5,2,House,23 Roscoe Avenue,KALKALLO,3064.0,-37.52506,144.95956,"Mickleham Secondary College5.1 km away7CoEdGovernmentView Catchment,Mount Ridley P-12 College6.9 km awayPrep-12CoEdGovernmentView Catchment,Merriang Special Developmental School16.5 km awayUCoEdGovernmentView Catchment",False,210051445.0,"{'dist': 8.651919813524755, 'nearest_coord': (-37.596015, 144.91928)}",11810.7,955.2
470.0,2,3,1,House,25 Tucholsky Dr,KALKALLO,3064.0,-37.518654,144.95702,"Mickleham Secondary College5 km away7CoEdGovernmentView Catchment,Mount Ridley P-12 College7.5 km awayPrep-12CoEdGovernmentView Catchment,Merriang Special Developmental School17.3 km awayUCoEdGovernmentView Catchment",False,210051445.0,"{'dist': 9.223040425608781, 'nearest_coord': (-37.596015, 144.91928)}",12916.2,1014.6
500.0,2,4,2,House,17 Kales Circuit,KALKALLO,3064.0,-37.53617,144.96202,"Gilgai Plains Primary School0.5 km awayPrep-6CoEdGovernmentView Catchment,Mickleham Secondary College5.4 km away7CoEdGovernmentView Catchment,Mount Ridley P-12 College6 km awayPrep-12CoEdGovernmentView Catchment",False,210051445.0,"{'dist': 7.646741986146622, 'nearest_coord': (-37.596015, 144.91928)}",10954.2,911.1
650.0,3,4,2,House,8 Taketa Way,KALKALLO,3064.0,-37.532337,144.96895,"Gilgai Plains Primary School0.9 km awayPrep-6CoEdGovernmentView Catchment,Mickleham Secondary College5.9 km away7CoEdGovernmentView Catchment,Mount Ridley P-12 College6.7 km awayPrep-12CoEdGovernmentView Catchment",False,210051445.0,"{'dist': 8.324821054237148, 'nearest_coord': (-37.596015, 144.91928)}",11951.6,974.0
600.0,2,4,2,House,19 Hackney Way,KALKALLO,3064.0,-37.532375,144.96408,"Gilgai Plains Primary School0.5 km awayPrep-6CoEdGovernmentView Catchment,Mickleham Secondary College5.5 km away7CoEdGovernmentView Catchment,Mount Ridley P-12 College6.4 km awayPrep-12CoEdGovernmentView Catchment",False,210051445.0,"{'dist': 8.103617086108455, 'nearest_coord': (-37.596015, 144.91928)}",11859.5,979.7
590.0,2,4,2,House,5 Firewheel Road,KALKALLO,3064.0,-37.520397,144.95251,"Mickleham Secondary College4.5 km away7CoEdGovernmentView Catchment,Mount Ridley P-12 College7.1 km awayPrep-12CoEdGovernmentView Catchment,Merriang Special Developmental School17.2 km awayUCoEdGovernmentView Catchment",False,210051445.0,"{'dist': 8.903951098475275, 'nearest_coord': (-37.596015, 144.91928)}",12718.6,1021.5
570.0,2,4,2,House,17 Roscoe Avenue,KALKALLO,3064.0,-37.52555,144.9594,"Mickleham Secondary College5.1 km away7CoEdGovernmentView Catchment,Mount Ridley P-12 College6.9 km awayPrep-12CoEdGovernmentView Catchment,Merriang Special Developmental School16.5 km awayUCoEdGovernmentView Catchment",False,210051445.0,"{'dist': 8.596446282566252, 'nearest_coord': (-37.596015, 144.91928)}",11759.9,943.0
530.0,2,4,2,House,6 Dwarf Road,KALKALLO,3064.0,-37.518436,144.95872,"Mickleham Secondary College5.1 km away7CoEdGovernmentView Catchment,Mount Ridley P-12 College7.5 km awayPrep-12CoEdGovernmentView Catchment,Merriang Special Developmental School17.2 km awayUCoEdGovernmentView Catchment",False,210051445.0,"{'dist': 9.300626155939131, 'nearest_coord': (-37.596015, 144.91928)}",12429.3,991.5
520.0,2,3,2,House,1 Pippa Way,KALKALLO,3064.0,-37.537674,144.96051,"Gilgai Plains Primary School0.5 km awayPrep-6CoEdGovernmentView Catchment,Mickleham Secondary College5.3 km away7CoEdGovernmentView Catchment,Mount Ridley P-12 College5.8 km awayPrep-12CoEdGovernmentView Catchment",False,210051445.0,"{'dist': 7.435698589812573, 'nearest_coord': (-37.596015, 144.91928)}",10635.5,843.1
520.0,2,4,2,House,32 Columbus Road,KALKALLO,3064.0,-37.518456,144.96121,"Mickleham Secondary College5.3 km away7CoEdGovernmentView Catchment,Mount Ridley P-12 College7.6 km awayPrep-12CoEdGovernmentView Catchment,Merriang Special Developmental School17.2 km awayUCoEdGovernmentView Catchment",False,210051445.0,"{'dist': 9.382837028345412, 'nearest_coord': (-37.596015, 144.91928)}",12691.5,998.8
520.0,2,4,2,House,1 Yasuda Way,KALKALLO,3064.0,-37.52266,144.95216,"Mickleham Secondary College4.5 km away7CoEdGovernmentView Catchment,Mount Ridley P-12 College6.9 km awayPrep-12CoEdGovernmentView Catchment,Merriang Special Developmental School17 km awayUCoEdGovernmentView Catchment",False,210051445.0,"{'dist': 8.656324875303278, 'nearest_coord': (-37.596015, 144.91928)}",12927.8,1040.3
500.0,2,4,2,Townhouse,243 Dwyer Street,KALKALLO,3064.0,-37.520412,144.95844,"Mickleham Secondary College5 km away7CoEdGovernmentView Catchment,Mount Ridley P-12 College7.3 km awayPrep-12CoEdGovernmentView Catchment,Merriang Special Developmental School17 km awayUCoEdGovernmentView Catchment",False,210051445.0,"{'dist': 9.087782322296755, 'nearest_coord': (-37.596015, 144.91928)}",12130.4,944.6
480.0,2,3,2,House,7 Sodium Street,KALKALLO,3064.0,-37.518974,144.95242,"Mickleham Secondary College4.6 km away7CoEdGovernmentView Catchment,Mount Ridley P-12 College7.3 km awayPrep-12CoEdGovernmentView Catchment,Merriang Special Developmental School17.4 km awayUCoEdGovernmentView Catchment",False,210051445.0,"{'dist': 9.050969470179037, 'nearest_coord': (-37.596015, 144.91928)}",12798.3,1040.3
475.0,2,3,1,House,41 Klandy Drive,KALKALLO,3064.0,-37.53791,144.95882,"Gilgai Plains Primary School0.5 km awayPrep-6CoEdGovernmentView Catchment,Mickleham Secondary College5.2 km away7CoEdGovernmentView Catchment,Mount Ridley P-12 College5.6 km awayPrep-12CoEdGovernmentView Catchment",False,210051445.0,"{'dist': 7.34094030495052, 'nearest_coord': (-37.596015, 144.91928)}",10481.7,815.4
460.0,2,3,2,Townhouse,12 Furphy Walk,KALKALLO,3064.0,-37.525448,144.96672,"Gilgai Plains Primary School1.1 km awayPrep-6CoEdGovernmentView Catchment,Mickleham Secondary College5.7 km away7CoEdGovernmentView Catchment,Mount Ridley P-12 College7.2 km awayPrep-12CoEdGovernmentView Catchment",False,210051445.0,"{'dist': 8.891377467664066, 'nearest_coord': (-37.596015, 144.91928)}",13143.0,1163.9
460.0,2,3,2,House,9 Peck Place,KALKALLO,3064.0,-37.53057,144.96614,"Gilgai Plains Primary School0.7 km awayPrep-6CoEdGovernmentView Catchment,Mickleham Secondary College5.7 km away7CoEdGovernmentView Catchment,Mount Ridley P-12 College6.7 km awayPrep-12CoEdGovernmentView Catchment",False,210051445.0,"{'dist': 8.36760463608424, 'nearest_coord': (-37.596015, 144.91928)}",12178.8,1008.8
440.0,2,3,1,House,28 Sodium Street,KALKALLO,3064.0,-37.518055,144.953,"Mickleham Secondary College4.6 km away7CoEdGovernmentView Catchment,Mount Ridley P-12 College7.4 km awayPrep-12CoEdGovernmentView Catchment,Merriang Special Developmental School17.4 km awayUCoEdGovernmentView Catchment",False,210051445.0,"{'dist': 9.164209119109136, 'nearest_coord': (-37.596015, 144.91928)}",13013.6,1054.3
600.0,2,4,2,House,20 Fadaro Street,KALKALLO,3064.0,-37.531532,144.9652,"Gilgai Plains Primary School0.6 km awayPrep-6CoEdGovernmentView Catchment,Mickleham Secondary College5.6 km away7CoEdGovernmentView Catchment,Mount Ridley P-12 College6.5 km awayPrep-12CoEdGovernmentView Catchment",False,210051445.0,"{'dist': 8.233687175310186, 'nearest_coord': (-37.596015, 144.91928)}",11884.2,973.0
560.0,2,4,2,House,12 Thunder Drive,KALKALLO,3064.0,-37.526608,144.96498,"Gilgai Plains Primary School0.9 km awayPrep-6CoEdGovernmentView Catchment,Mickleham Secondary College5.6 km away7CoEdGovernmentView Catchment,Mount Ridley P-12 College7 km awayPrep-12CoEdGovernmentView Catchment",False,210051445.0,"{'dist': 8.705721054277959, 'nearest_coord': (-37.596015, 144.91928)}",13271.6,1181.0
490.0,2,3,2,House,40 Fadaro Street,KALKALLO,3064.0,-37.5317,144.96732,"Gilgai Plains Primary School0.8 km awayPrep-6CoEdGovernmentView Catchment,Mickleham Secondary College5.8 km away7CoEdGovernmentView Catchment,Mount Ridley P-12 College6.6 km awayPrep-12CoEdGovernmentView Catchment",False,210051445.0,"{'dist': 8.311050394787957, 'nearest_coord': (-37.596015, 144.91928)}",11982.8,973.9
550.0,2,4,2,House,72 Bells Avenue,KALKALLO,3064.0,-37.53328,144.96756,"Gilgai Plains Primary School0.8 km awayPrep-6CoEdGovernmentView Catchment,Mickleham Secondary College5.8 km away7CoEdGovernmentView Catchment,Mount Ridley P-12 College6.5 km awayPrep-12CoEdGovernmentView Catchment",False,210051445.0,"{'dist': 8.171337763175583, 'nearest_coord': (-37.596015, 144.91928)}",11728.9,941.2
550.0,2,4,2,House,6 Kips Street,KALKALLO,3064.0,-37.52001,144.96341,"Mickleham Secondary College5.5 km away7CoEdGovernmentView Catchment,Mount Ridley P-12 College7.6 km awayPrep-12CoEdGovernmentView Catchment,Merriang Special Developmental School17 km awayUCoEdGovernmentView Catchment",False,210051445.0,"{'dist': 9.303648385101365, 'nearest_coord': (-37.596015, 144.91928)}",13052.4,1039.6
550.0,3,4,2,House,27 Cooney Circuit,KALKALLO,3064.0,-37.527912,144.96227,"Gilgai Plains Primary School0.7 km awayPrep-6CoEdGovernmentView Catchment,Mickleham Secondary College5.3 km away7CoEdGovernmentView Catchment,Mount Ridley P-12 College6.7 km awayPrep-12CoEdGovernmentView Catchment",False,210051445.0,"{'dist': 8.467871788191749, 'nearest_coord': (-37.596015, 144.91928)}",11765.1,985.0
540.0,2,4,2,House,10 Frankel Road,KALKALLO,3064.0,-37.524197,144.95921,"Mickleham Secondary College5.1 km away7CoEdGovernmentView Catchment,Mount Ridley P-12 College7 km awayPrep-12CoEdGovernmentView Catchment,Merriang Special Developmental School16.6 km awayUCoEdGovernmentView Catchment",False,210051445.0,"{'dist': 8.727037819289766, 'nearest_coord': (-37.596015, 144.91928)}",12103.6,946.5
530.0,2,3,1,House,28 Columbus Road,KALKALLO,3064.0,-37.51866,144.96118,"Mickleham Secondary College5.3 km away7CoEdGovernmentView Catchment,Mount Ridley P-12 College7.6 km awayPrep-12CoEdGovernmentView Catchment,Merriang Special Developmental School17.2 km awayUCoEdGovernmentView Catchment",False,210051445.0,"{'dist': 9.3609458995938, 'nearest_coord': (-37.596015, 144.91928)}",12714.3,1001.5
530.0,2,4,2,House,6 Yasuda Way,KALKALLO,3064.0,-37.522438,144.95262,"Mickleham Secondary College4.5 km away7CoEdGovernmentView Catchment,Mount Ridley P-12 College6.9 km awayPrep-12CoEdGovernmentView Catchment,Merriang Special Developmental School17 km awayUCoEdGovernmentView Catchment",False,210051445.0,"{'dist': 8.69321441282213, 'nearest_coord': (-37.596015, 144.91928)}",12884.1,1042.8
520.0,2,4,2,House,7 Fenska Street,KALKALLO,3064.0,-37.521072,144.95357,"Mickleham Secondary College4.6 km away7CoEdGovernmentView Catchment,Mount Ridley P-12 College7.1 km awayPrep-12CoEdGovernmentView Catchment,Merriang Special Developmental School17.1 km awayUCoEdGovernmentView Catchment",False,210051445.0,"{'dist': 8.86452511692575, 'nearest_coord': (-37.596015, 144.91928)}",12558.2,991.7
520.0,2,4,2,House,5 Laurina Street,KALKALLO,3064.0,-37.5185,144.95505,"Mickleham Secondary College4.8 km away7CoEdGovernmentView Catchment,Mount Ridley P-12 College7.4 km awayPrep-12CoEdGovernmentView Catchment,Merriang Special Developmental School17.3 km awayUCoEdGovernmentView Catchment",False,210051445.0,"{'dist': 9.177916176279739, 'nearest_coord': (-37.596015, 144.91928)}",12634.1,1022.0
520.0,2,4,2,House,272 Dwyer Street,KALKALLO,3064.0,-37.51863,144.95966,"Mickleham Secondary College5.2 km away7CoEdGovernmentView Catchment,Mount Ridley P-12 College7.6 km awayPrep-12CoEdGovernmentView Catchment,Merriang Special Developmental School17.2 km awayUCoEdGovernmentView Catchment",False,210051445.0,"{'dist': 9.311977039754554, 'nearest_coord': (-37.596015, 144.91928)}",12351.2,962.3
510.0,2,4,2,House,3 Flame Road,KALKALLO,3064.0,-37.51854,144.95583,"Mickleham Secondary College4.9 km away7CoEdGovernmentView Catchment,Mount Ridley P-12 College7.4 km awayPrep-12CoEdGovernmentView Catchment,Merriang Special Developmental School17.3 km awayUCoEdGovernmentView Catchment",False,210051445.0,"{'dist': 9.197597786648538, 'nearest_coord': (-37.596015, 144.91928)}",12556.0,1021.3
505.0,2,4,2,House,27 Maryland Road,KALKALLO,3064.0,-37.518394,144.96011,"Mickleham Secondary College5.2 km away7CoEdGovernmentView Catchment,Mount Ridley P-12 College7.6 km awayPrep-12CoEdGovernmentView Catchment,Merriang Special Developmental School17.2 km awayUCoEdGovernmentView Catchment",False,210051445.0,"{'dist': 9.351428969300366, 'nearest_coord': (-37.596015, 144.91928)}",12483.7,992.7
500.0,2,4,2,House,31 Times Street,KALKALLO,3064.0,-37.51866,144.96295,"Mickleham Secondary College5.5 km away7CoEdGovernmentView Catchment,Mount Ridley P-12 College7.7 km awayPrep-12CoEdGovernmentView Catchment,Merriang Special Developmental School17.1 km awayUCoEdGovernmentView Catchment",False,210051445.0,"{'dist': 9.4235972988736, 'nearest_coord': (-37.596015, 144.91928)}",12883.1,1014.3
490.0,2,4,2,House,14 Cromarty Crescent,KALKALLO,3064.0,-37.529224,144.96779,"Gilgai Plains Primary School0.9 km awayPrep-6CoEdGovernmentView Catchment,Mickleham Secondary College5.8 km away7CoEdGovernmentView Catchment,Mount Ridley P-12 College6.9 km awayPrep-12CoEdGovernmentView Catchment",False,210051445.0,"{'dist': 8.569737622926318, 'nearest_coord': (-37.596015, 144.91928)}",12319.7,1008.2
485.0,2,3,2,House,3 Tucholsky Drive,KALKALLO,3064.0,-37.51883,144.95483,"Mickleham Secondary College4.8 km away7CoEdGovernmentView Catchment,Mount Ridley P-12 College7.4 km awayPrep-12CoEdGovernmentView Catchment,Merriang Special Developmental School17.3 km awayUCoEdGovernmentView Catchment",False,210051445.0,"{'dist': 9.136792138087294, 'nearest_coord': (-37.596015, 144.91928)}",12727.2,1008.6
480.0,2,3,2,Townhouse,18 Nick Way,KALKALLO,3064.0,-37.52972,144.9695,"Gilgai Plains Primary School1.1 km awayPrep-6CoEdGovernmentView Catchment,Mickleham Secondary College6 km away7CoEdGovernmentView Catchment,Mount Ridley P-12 College6.9 km awayPrep-12CoEdGovernmentView Catchment",False,210051445.0,"{'dist': 8.598590063089269, 'nearest_coord': (-37.596015, 144.91928)}",12253.3,1001.4
475.0,2,3,2,House,21 Firnberg Street,KALKALLO,3064.0,-37.519073,144.9553,"Mickleham Secondary College4.8 km away7CoEdGovernmentView Catchment,Mount Ridley P-12 College7.4 km awayPrep-12CoEdGovernmentView Catchment,Merriang Special Developmental School17.3 km awayUCoEdGovernmentView Catchment",False,210051445.0,"{'dist': 9.125745604852387, 'nearest_coord': (-37.596015, 144.91928)}",12581.3,1015.2
450.0,2,3,1,Townhouse,7 Cilantro Street,KALKALLO,3064.0,-37.522083,144.95825,"Mickleham Secondary College5 km away7CoEdGovernmentView Catchment,Mount Ridley P-12 College7.2 km awayPrep-12CoEdGovernmentView Catchment,Merriang Special Developmental School16.9 km awayUCoEdGovernmentView Catchment",False,210051445.0,"{'dist': 8.909694841054044, 'nearest_coord': (-37.596015, 144.91928)}",11946.4,935.4
440.0,2,3,1,Townhouse,22 Quill Circuit,KALKALLO,3064.0,-37.535675,144.96443,"Gilgai Plains Primary School0.6 km awayPrep-6CoEdGovernmentView Catchment,Mickleham Secondary College5.6 km away7CoEdGovernmentView Catchment,Mount Ridley P-12 College6.1 km awayPrep-12CoEdGovernmentView Catchment",False,210051445.0,"{'dist': 7.800885655241579, 'nearest_coord': (-37.596015, 144.91928)}",11540.2,945.6
550.0,2,3,2,House,11 Latchford Drive,MICKLEHAM,3064.0,-37.54067,144.90239,"Mickleham Secondary College1.5 km away7CoEdGovernmentView Catchment,Mount Ridley P-12 College4.8 km awayPrep-12CoEdGovernmentView Catchment,Yubup Primary School0.8 km awayGovernmentMore Info",False,210051445.0,"{'dist': 6.331574589805, 'nearest_coord': (-37.596015, 144.91928)}",9738.6,822.6
500.0,2,4,2,House,5 Bedgebury Street,MICKLEHAM,3064.0,-37.538673,144.91228,"Mickleham Secondary College1.5 km away7CoEdGovernmentView Catchment,Mount Ridley P-12 College4.7 km awayPrep-12CoEdGovernmentView Catchment,Gaayip-Yagila Primary School1.1 km awayPrep-6CoEdGovernmentMore Info",False,210051445.0,"{'dist': 6.405927807305638, 'nearest_coord': (-37.596015, 144.91928)}",12847.4,898.5
790.0,2,5,4,House,33 Birdsong Avenue,MICKLEHAM,3064.0,-37.566246,144.8902,"Mickleham Primary School1.2 km awayPrep-6CoEdGovernmentView Catchment,Mount Ridley P-12 College3.3 km awayPrep-12CoEdGovernmentView Catchment,Elevation Secondary College3.5 km away7-10CoEdGovernmentMore Info",True,210051445.0,"{'dist': 4.186157691525146, 'nearest_coord': (-37.596015, 144.91928)}",7366.4,657.4
680.0,3,4,2,House,5 Valetta St,MICKLEHAM,3064.0,-37.52534,144.91122,"Gaayip-Yagila Primary School0.4 km awayPrep-6CoEdGovernmentView Catchment,Mickleham Secondary College0.8 km away7CoEdGovernmentView Catchment,Mount Ridley P-12 College6.2 km awayPrep-12CoEdGovernmentView Catchment",False,210051445.0,"{'dist': 7.8907606046436385, 'nearest_coord': (-37.596015, 144.91928)}",13642.4,1040.4
670.0,2,4,2,House,19 Straun Road,MICKLEHAM,3064.0,-37.53046,144.89543,"Mickleham Secondary College0.7 km away7CoEdGovernmentView Catchment,Gaayip-Yagila Primary School1.2 km awayPrep-6CoEdGovernmentView Catchment,Mount Ridley P-12 College6.1 km awayPrep-12CoEdGovernmentView Catchment",False,210051445.0,"{'dist': 7.586466303074497, 'nearest_coord': (-37.596015, 144.91928)}",12304.9,930.0
620.0,2,4,2,House,17 Rowena Way,MICKLEHAM,3064.0,-37.53169,144.90004,"Mickleham Secondary College0.5 km away7CoEdGovernmentView Catchment,Gaayip-Yagila Primary School0.8 km awayPrep-6CoEdGovernmentView Catchment,Mount Ridley P-12 College5.8 km awayPrep-12CoEdGovernmentView Catchment",False,210051445.0,"{'dist': 7.350912009872234, 'nearest_coord': (-37.596015, 144.91928)}",11871.9,845.0
620.0,2,4,2,House,8 Leaf Street,MICKLEHAM,3064.0,-37.575836,144.89236,"Aitken Creek Primary School1.4 km awayPrep-6CoEdGovernmentView Catchment,Elevation Secondary College2.5 km away7-10CoEdGovernmentView Catchment,Mount Ridley P-12 College2.8 km awayPrep-12CoEdGovernmentView Catchment",False,210051445.0,"{'dist': 3.2651738307672793, 'nearest_coord': (-37.596015, 144.91928)}",4361.8,483.0
6002607.0,2,4,2,House,11 Masala Street,MICKLEHAM,3064.0,-37.54561,144.88647,"Mickleham Secondary College2.4 km away7CoEdGovernmentView Catchment,Mount Ridley P-12 College5 km awayPrep-12CoEdGovernmentView Catchment,Yubup Primary School0.7 km awayGovernmentMore Info",False,210051445.0,"{'dist': 6.306766410642282, 'nearest_coord': (-37.596015, 144.91928)}",9699.9,802.4
520.0,2,3,1,House,13 Bringa Drive,MICKLEHAM,3064.0,-37.528355,144.90234,"Mickleham Secondary College0.1 km away7CoEdGovernmentView Catchment,Gaayip-Yagila Primary School0.6 km awayPrep-6CoEdGovernmentView Catchment,Mount Ridley P-12 College6.1 km awayPrep-12CoEdGovernmentView Catchment",False,210051445.0,"{'dist': 7.670198056833351, 'nearest_coord': (-37.596015, 144.91928)}",12364.7,922.3
680.0,3,4,2,House,13 Onoway Approach,MICKLEHAM,3064.0,-37.543926,144.90025,"Mickleham Secondary College1.8 km away7CoEdGovernmentView Catchment,Mount Ridley P-12 College4.5 km awayPrep-12CoEdGovernmentView Catchment,Yubup Primary School0.6 km awayGovernmentMore Info",False,210051445.0,"{'dist': 6.0299849129146, 'nearest_coord': (-37.596015, 144.91928)}",8921.7,743.0
670.0,2,4,2,House,11 Docker Circuit,MICKLEHAM,3064.0,-37.53272,144.89536,"Mickleham Secondary College0.8 km away7CoEdGovernmentView Catchment,Gaayip-Yagila Primary School1.3 km awayPrep-6CoEdGovernmentView Catchment,Mount Ridley P-12 College5.8 km awayPrep-12CoEdGovernmentView Catchment",False,210051445.0,"{'dist': 7.347095005961539, 'nearest_coord': (-37.596015, 144.91928)}",12001.9,895.5
650.0,2,4,2,House,12 Belson Street,MICKLEHAM,3064.0,-37.52156,144.90198,"Mickleham Secondary College0.7 km away7CoEdGovernmentView Catchment,Gaayip-Yagila Primary School1 km awayPrep-6CoEdGovernmentView Catchment,Mount Ridley P-12 College6.8 km awayPrep-12CoEdGovernmentView Catchment",False,210051445.0,"{'dist': 8.418302293735218, 'nearest_coord': (-37.596015, 144.91928)}",13153.9,986.8
650.0,2,4,2,New House & Land,15 Roseneath Way,MICKLEHAM,3064.0,-37.530067,144.90988,"Gaayip-Yagila Primary School0.2 km awayPrep-6CoEdGovernmentView Catchment,Mickleham Secondary College0.8 km away7CoEdGovernmentView Catchment,Mount Ridley P-12 College5.7 km awayPrep-12CoEdGovernmentView Catchment",False,210051445.0,"{'dist': 7.37975171613869, 'nearest_coord': (-37.596015, 144.91928)}",12939.2,965.8
620.0,3,4,2,House,9 Langridge Way,MICKLEHAM,3064.0,-37.5208,144.9085,"Gaayip-Yagila Primary School0.9 km awayPrep-6CoEdGovernmentView Catchment,Mickleham Secondary College0.9 km away7CoEdGovernmentView Catchment,Mount Ridley P-12 College6.7 km awayPrep-12CoEdGovernmentView Catchment",False,210051445.0,"{'dist': 8.41734622130264, 'nearest_coord': (-37.596015, 144.91928)}",13833.0,1045.4
610.0,2,4,1,House,72 Darwinia Drive,MICKLEHAM,3064.0,-37.570496,144.88623,"Mickleham Primary School1.1 km awayPrep-6CoEdGovernmentView Catchment,Elevation Secondary College3.1 km away7-10CoEdGovernmentView Catchment,Mount Ridley P-12 College3.5 km awayPrep-12CoEdGovernmentView Catchment",False,210051445.0,"{'dist': 4.0661401257573235, 'nearest_coord': (-37.596015, 144.91928)}",5365.4,670.1
595.0,2,4,2,House,20 Botwood Street,MICKLEHAM,3064.0,-37.54581,144.8971,"Mickleham Secondary College2.1 km away7CoEdGovernmentView Catchment,Mount Ridley P-12 College4.5 km awayPrep-12CoEdGovernmentView Catchment,Yubup Primary School0.4 km awayGovernmentMore Info",False,210051445.0,"{'dist': 5.914902443436038, 'nearest_coord': (-37.596015, 144.91928)}",8697.9,732.3
600.0,2,3,2,House,5 Moonlight Way,MICKLEHAM,3064.0,-37.573875,144.89131,"Aitken Creek Primary School1.6 km awayPrep-6CoEdGovernmentView Catchment,Elevation Secondary College2.7 km away7-10CoEdGovernmentView Catchment,Mount Ridley P-12 College2.9 km awayPrep-12CoEdGovernmentView Catchment",False,210051445.0,"{'dist': 3.4835470043875665, 'nearest_coord': (-37.596015, 144.91928)}",4721.6,569.4
600.0,3,4,2,House,16 Northall Road,MICKLEHAM,3064.0,-37.53788,144.9059,"Mickleham Secondary College1.2 km away7CoEdGovernmentView Catchment,Mount Ridley P-12 College5 km awayPrep-12CoEdGovernmentView Catchment,Gaayip-Yagila Primary School1 km awayPrep-6CoEdGovernmentMore Info",False,210051445.0,"{'dist': 6.571013935626957, 'nearest_coord': (-37.596015, 144.91928)}",12363.9,866.3
580.0,2,4,2,House,42 Beaconsfield Drive,MICKLEHAM,3064.0,-37.521503,144.91234,"Gaayip-Yagila Primary School0.9 km awayPrep-6CoEdGovernmentView Catchment,Mickleham Secondary College1.1 km away7CoEdGovernmentView Catchment,Mount Ridley P-12 College6.6 km awayPrep-12CoEdGovernmentView Catchment",False,210051445.0,"{'dist': 8.307921193200274, 'nearest_coord': (-37.596015, 144.91928)}",13963.2,1099.0
5502390.0,2,3,2,House,19 Harding Street,MICKLEHAM,3064.0,-37.530754,144.91231,"Gaayip-Yagila Primary School0.4 km awayPrep-6CoEdGovernmentView Catchment,Mickleham Secondary College1 km away7CoEdGovernmentView Catchment,Mount Ridley P-12 College5.6 km awayPrep-12CoEdGovernmentView Catchment",False,210051445.0,"{'dist': 7.2826612625193485, 'nearest_coord': (-37.596015, 144.91928)}",13459.7,974.7
550.0,2,3,1,House,18 Thyridia St,MICKLEHAM,3064.0,-37.567696,144.88864,"Mickleham Primary School1.1 km awayPrep-6CoEdGovernmentView Catchment,Mount Ridley P-12 College3.4 km awayPrep-12CoEdGovernmentView Catchment,Elevation Secondary College3.4 km away7-10CoEdGovernmentMore Info",False,210051445.0,"{'dist': 4.147987105009843, 'nearest_coord': (-37.596015, 144.91928)}",5564.1,710.2
540.0,2,4,2,House,12 Botwood Street,MICKLEHAM,3064.0,-37.545425,144.89719,"Mickleham Secondary College2 km away7CoEdGovernmentView Catchment,Mount Ridley P-12 College4.5 km awayPrep-12CoEdGovernmentView Catchment,Yubup Primary School0.4 km awayGovernmentMore Info",False,210051445.0,"{'dist': 5.9527266366754485, 'nearest_coord': (-37.596015, 144.91928)}",8741.2,742.7
520.0,2,3,2,House,11 Martinshaw Road,MICKLEHAM,3064.0,-37.541847,144.9134,"Mickleham Secondary College1.9 km away7CoEdGovernmentView Catchment,Mount Ridley P-12 College4.4 km awayPrep-12CoEdGovernmentView Catchment,Gaayip-Yagila Primary School1.5 km awayPrep-6CoEdGovernmentMore Info",False,210051445.0,"{'dist': 6.04546869088726, 'nearest_coord': (-37.596015, 144.91928)}",10841.2,957.9
500.0,2,3,2,House,7 Roseneath Way,MICKLEHAM,3064.0,-37.529995,144.90932,"Gaayip-Yagila Primary School0.1 km awayPrep-6CoEdGovernmentView Catchment,Mickleham Secondary College0.7 km away7CoEdGovernmentView Catchment,Mount Ridley P-12 College5.7 km awayPrep-12CoEdGovernmentView Catchment",False,210051445.0,"{'dist': 7.393405695110743, 'nearest_coord': (-37.596015, 144.91928)}",12889.2,959.8
500.0,2,3,2,House,14 Clowes Street,MICKLEHAM,3064.0,-37.526344,144.89926,"Mickleham Secondary College0.3 km away7CoEdGovernmentView Catchment,Gaayip-Yagila Primary School0.9 km awayPrep-6CoEdGovernmentView Catchment,Mount Ridley P-12 College6.4 km awayPrep-12CoEdGovernmentView Catchment",False,210051445.0,"{'dist': 7.945511010286018, 'nearest_coord': (-37.596015, 144.91928)}",12675.9,964.8
485.0,2,3,1,House,43 Jacka Street,MICKLEHAM,3064.0,-37.52819,144.90352,"Mickleham Secondary College0.2 km away7CoEdGovernmentView Catchment,Gaayip-Yagila Primary School0.5 km awayPrep-6CoEdGovernmentView Catchment,Mount Ridley P-12 College6 km awayPrep-12CoEdGovernmentView Catchment",False,210051445.0,"{'dist': 7.668674120408447, 'nearest_coord': (-37.596015, 144.91928)}",12592.5,913.7
480.0,2,3,2,House,25 Tooronga Drive,MICKLEHAM,3064.0,-37.52685,144.91147,"Gaayip-Yagila Primary School0.3 km awayPrep-6CoEdGovernmentView Catchment,Mickleham Secondary College0.8 km away7CoEdGovernmentView Catchment,Mount Ridley P-12 College6 km awayPrep-12CoEdGovernmentView Catchment",False,210051445.0,"{'dist': 7.721556309838478, 'nearest_coord': (-37.596015, 144.91928)}",13537.9,1003.3
600.0,2,4,2,House,13 Latchford Drive,MICKLEHAM,3064.0,-37.54076,144.90244,"Mickleham Secondary College1.5 km away7CoEdGovernmentView Catchment,Mount Ridley P-12 College4.8 km awayPrep-12CoEdGovernmentView Catchment,Yubup Primary School0.8 km awayGovernmentMore Info",False,210051445.0,"{'dist': 6.320811554847532, 'nearest_coord': (-37.596015, 144.91928)}",9747.9,824.8
600.0,0,0,0,House,24 Beaconsfield Drive,MICKLEHAM,3064.0,-37.522335,144.91199,"Gaayip-Yagila Primary School0.8 km awayPrep-6CoEdGovernmentView Catchment,Mickleham Secondary College1.1 km away7CoEdGovernmentView Catchment,Mount Ridley P-12 College6.5 km awayPrep-12CoEdGovernmentView Catchment",False,210051445.0,"{'dist': 8.218015394685013, 'nearest_coord': (-37.596015, 144.91928)}",13900.4,1086.0
530.0,2,4,2,House,9 Inkerman Crescent,MICKLEHAM,3064.0,-37.52897,144.89734,"Mickleham Secondary College0.4 km away7CoEdGovernmentView Catchment,Gaayip-Yagila Primary School1 km awayPrep-6CoEdGovernmentView Catchment,Mount Ridley P-12 College6.1 km awayPrep-12CoEdGovernmentView Catchment",False,210051445.0,"{'dist': 7.701814500491847, 'nearest_coord': (-37.596015, 144.91928)}",12300.4,934.5
530.0,2,3,1,House,4 Bedford Way,MICKLEHAM,3064.0,-37.53204,144.90932,"Gaayip-Yagila Primary School0.4 km awayPrep-6CoEdGovernmentView Catchment,Mickleham Secondary College0.8 km away7CoEdGovernmentView Catchment,Mount Ridley P-12 College5.5 km awayPrep-12CoEdGovernmentView Catchment",False,210051445.0,"{'dist': 7.167669879469365, 'nearest_coord': (-37.596015, 144.91928)}",12707.0,927.6
480.0,2,2,1,House,7 Hanover Way,MICKLEHAM,3064.0,-37.525814,144.90068,"Mickleham Secondary College0.2 km away7CoEdGovernmentView Catchment,Gaayip-Yagila Primary School0.8 km awayPrep-6CoEdGovernmentView Catchment,Mount Ridley P-12 College6.4 km awayPrep-12CoEdGovernmentView Catchment",False,210051445.0,"{'dist': 7.9763198739793095, 'nearest_coord': (-37.596015, 144.91928)}",13152.0,949.1
1100.0,2,4,6,House,45 Parkland Crescent,MICKLEHAM,3064.0,-37.553944,144.86612,"Mickleham Primary School1.4 km awayPrep-6CoEdGovernmentView Catchment,Mickleham Secondary College4.3 km away7CoEdGovernmentView Catchment,Elevation Secondary College5.3 km away7-10CoEdGovernmentView Catchment",False,210051445.0,"{'dist': 6.62063557923815, 'nearest_coord': (-37.596015, 144.91928)}",8746.9,647.0
680.0,3,4,2,House,13 Ontario Parade,MICKLEHAM,3064.0,-37.57631,144.89198,"Aitken Creek Primary School1.4 km awayPrep-6CoEdGovernmentView Catchment,Elevation Secondary College2.4 km away7-10CoEdGovernmentView Catchment,Mount Ridley P-12 College2.8 km awayPrep-12CoEdGovernmentView Catchment",False,210051445.0,"{'dist': 3.253851266065131, 'nearest_coord': (-37.596015, 144.91928)}",4441.9,502.3
620.0,2,4,2,House,51 Harfield Avenue,MICKLEHAM,3064.0,-37.539658,144.9064,"Mickleham Secondary College1.4 km away7CoEdGovernmentView Catchment,Mount Ridley P-12 College4.8 km awayPrep-12CoEdGovernmentView Catchment,Yubup Primary School1.2 km awayGovernmentMore Info",False,210051445.0,"{'dist': 6.368612544903638, 'nearest_coord': (-37.596015, 144.91928)}",10051.7,843.8
600.0,2,4,2,House,18 Hickory Road,MICKLEHAM,3064.0,-37.574,144.89023,"Aitken Creek Primary School1.7 km awayPrep-6CoEdGovernmentView Catchment,Elevation Secondary College2.7 km away7-10CoEdGovernmentView Catchment,Mount Ridley P-12 College3 km awayPrep-12CoEdGovernmentView Catchment",False,210051445.0,"{'dist': 3.541891734660836, 'nearest_coord': (-37.596015, 144.91928)}",4741.2,574.1
600.0,2,4,2,House,44 Madura Promenade,MICKLEHAM,3064.0,-37.537285,144.89153,"Mickleham Secondary College1.4 km away7CoEdGovernmentView Catchment,Mount Ridley P-12 College5.5 km awayPrep-12CoEdGovernmentView Catchment,Yubup Primary School0.7 km awayGovernmentMore Info",False,210051445.0,"{'dist': 6.973476178525304, 'nearest_coord': (-37.596015, 144.91928)}",10420.6,982.2
600.0,2,4,2,House,33 Vautier Avenue,MICKLEHAM,3064.0,-37.530727,144.90965,"Gaayip-Yagila Primary School0.2 km awayPrep-6CoEdGovernmentView Catchment,Mickleham Secondary College0.8 km away7CoEdGovernmentView Catchment,Mount Ridley P-12 College5.6 km awayPrep-12CoEdGovernmentView Catchment",False,210051445.0,"{'dist': 7.309157698721597, 'nearest_coord': (-37.596015, 144.91928)}",12841.0,954.4
600.0,2,4,2,House,12 Poppy Street,MICKLEHAM,3064.0,-37.5444,144.88736,"Mickleham Secondary College2.3 km away7CoEdGovernmentView Catchment,Mount Ridley P-12 College5.1 km awayPrep-12CoEdGovernmentView Catchment,Yubup Primary School0.6 km awayGovernmentMore Info",False,210051445.0,"{'dist': 6.391733434399848, 'nearest_coord': (-37.596015, 144.91928)}",9579.6,773.5
580.0,2,4,2,House,9 Kenora Way,MICKLEHAM,3064.0,-37.537212,144.89746,"Mickleham Secondary College1.2 km away7CoEdGovernmentView Catchment,Mount Ridley P-12 College5.3 km awayPrep-12CoEdGovernmentView Catchment,Yubup Primary School0.7 km awayGovernmentMore Info",False,210051445.0,"{'dist': 6.815567091103184, 'nearest_coord': (-37.596015, 144.91928)}",11684.1,820.5
570.0,2,3,1,House,12 Chorileana Way,MICKLEHAM,3064.0,-37.571014,144.88553,"Mickleham Primary School1.1 km awayPrep-6CoEdGovernmentView Catchment,Elevation Secondary College3 km away7-10CoEdGovernmentView Catchment,Mount Ridley P-12 College3.5 km awayPrep-12CoEdGovernmentView Catchment",False,210051445.0,"{'dist': 4.070989137919797, 'nearest_coord': (-37.596015, 144.91928)}",5371.5,651.2
570.0,2,4,2,House,2 Lynnwood Drive,MICKLEHAM,3064.0,-37.52001,144.91083,"Gaayip-Yagila Primary School1 km awayPrep-6CoEdGovernmentView Catchment,Mickleham Secondary College1.1 km away7CoEdGovernmentView Catchment,Mount Ridley P-12 College6.8 km awayPrep-12CoEdGovernmentView Catchment",False,210051445.0,"{'dist': 8.484142311106394, 'nearest_coord': (-37.596015, 144.91928)}",13947.4,1095.2
560.0,2,4,2,House,31 Lemongrass Drive,MICKLEHAM,3064.0,-37.54356,144.88844,"Mickleham Secondary College2.1 km away7CoEdGovernmentView Catchment,Mount Ridley P-12 College5.1 km awayPrep-12CoEdGovernmentView Catchment,Yubup Primary School0.5 km awayGovernmentMore Info",False,210051445.0,"{'dist': 6.434960916750162, 'nearest_coord': (-37.596015, 144.91928)}",10002.3,875.0
550.0,3,4,2,House,22 Oxbow Street,MICKLEHAM,3064.0,-37.542675,144.9001,"Mickleham Secondary College1.7 km away7CoEdGovernmentView Catchment,Mount Ridley P-12 College4.7 km awayPrep-12CoEdGovernmentView Catchment,Yubup Primary School0.6 km awayGovernmentMore Info",False,210051445.0,"{'dist': 6.167336598688374, 'nearest_coord': (-37.596015, 144.91928)}",9089.4,759.4
550.0,2,3,1,House,4 Nebula Crescent,MICKLEHAM,3064.0,-37.568504,144.89249,"Mickleham Primary School1.5 km awayPrep-6CoEdGovernmentView Catchment,Mount Ridley P-12 College3 km awayPrep-12CoEdGovernmentView Catchment,Elevation Secondary College3.3 km away7-10CoEdGovernmentMore Info",False,210051445.0,"{'dist': 3.86407189396892, 'nearest_coord': (-37.596015, 144.91928)}",5148.2,610.4
550.0,2,3,2,House,22 Tivoli Way,MICKLEHAM,3064.0,-37.531483,144.89532,"Mickleham Secondary College0.7 km away7CoEdGovernmentView Catchment,Gaayip-Yagila Primary School1.2 km awayPrep-6CoEdGovernmentView Catchment,Mount Ridley P-12 College6 km awayPrep-12CoEdGovernmentView Catchment",False,210051445.0,"{'dist': 7.479962103796592, 'nearest_coord': (-37.596015, 144.91928)}",12061.0,889.4
530.0,2,4,2,House,23 Yarradale Drive,MICKLEHAM,3064.0,-37.53337,144.90674,"Gaayip-Yagila Primary School0.5 km awayPrep-6CoEdGovernmentView Catchment,Mickleham Secondary College0.8 km away7CoEdGovernmentView Catchment,Mount Ridley P-12 College5.4 km awayPrep-12CoEdGovernmentView Catchment",False,210051445.0,"{'dist': 7.0529597071248045, 'nearest_coord': (-37.596015, 144.91928)}",12389.8,910.6
500.0,2,4,2,House,22 Abloom View,MICKLEHAM,3064.0,-37.5697,144.8905,"Mickleham Primary School1.4 km awayPrep-6CoEdGovernmentView Catchment,Mount Ridley P-12 College3.1 km awayPrep-12CoEdGovernmentView Catchment,Elevation Secondary College3.2 km away7-10CoEdGovernmentMore Info",False,210051445.0,"{'dist': 3.8721671927174697, 'nearest_coord': (-37.596015, 144.91928)}",5158.1,634.1
500.0,2,3,2,House,15 Heslop Street,MICKLEHAM,3064.0,-37.52422,144.90007,"Mickleham Secondary College0.4 km away7CoEdGovernmentView Catchment,Gaayip-Yagila Primary School0.9 km awayPrep-6CoEdGovernmentView Catchment,Mount Ridley P-12 College6.6 km awayPrep-12CoEdGovernmentView Catchment",False,210051445.0,"{'dist': 8.160851893723787, 'nearest_coord': (-37.596015, 144.91928)}",13146.4,970.5
500.0,2,4,2,House,15 Chomley Street,MICKLEHAM,3064.0,-37.523945,144.89935,"Mickleham Secondary College0.5 km away7CoEdGovernmentView Catchment,Gaayip-Yagila Primary School1 km awayPrep-6CoEdGovernmentView Catchment,Mount Ridley P-12 College6.6 km awayPrep-12CoEdGovernmentView Catchment",False,210051445.0,"{'dist': 8.204123382389488, 'nearest_coord': (-37.596015, 144.91928)}",13216.7,987.3
480.0,2,3,1,House,11 Selkirk Way,MICKLEHAM,3064.0,-37.53593,144.89937,"Mickleham Secondary College1 km away7CoEdGovernmentView Catchment,Mount Ridley P-12 College5.4 km awayPrep-12CoEdGovernmentView Catchment,Yubup Primary School0.9 km awayGovernmentMore Info",False,210051445.0,"{'dist': 6.907774014375544, 'nearest_coord': (-37.596015, 144.91928)}",11693.7,826.2
460.0,1,3,1,House,19 Salisbury Terrace,MICKLEHAM,3064.0,-37.530865,144.91302,"Gaayip-Yagila Primary School0.4 km awayPrep-6CoEdGovernmentView Catchment,Mickleham Secondary College1 km away7CoEdGovernmentView Catchment,Mount Ridley P-12 College5.6 km awayPrep-12CoEdGovernmentView Catchment",False,210051445.0,"{'dist': 7.265342131555849, 'nearest_coord': (-37.596015, 144.91928)}",13321.1,985.4
750.0,3,4,2,House,10 Reynolds Court,ROXBURGH PARK,3064.0,-37.635323,144.91946,"Roxburgh Homestead Primary School0.5 km awayPrep-6CoEdGovernmentView Catchment,Roxburgh College1 km awayU, 7-12CoEdGovernmentView Catchment,Good Samaritan Catholic Primary School1.9 km awayPrep-6CoEdCatholicMore Info",False,210051544.0,"{'dist': 4.370885105353676, 'nearest_coord': (-37.596015, 144.91928)}",6236.0,591.0
450.0,2,3,1,House,73 Ravenhill Boulevard,ROXBURGH PARK,3064.0,-37.634354,144.91795,"Roxburgh Homestead Primary School0.3 km awayPrep-6CoEdGovernmentView Catchment,Roxburgh College1.1 km awayU, 7-12CoEdGovernmentView Catchment,Good Samaritan Catholic Primary School1.9 km awayPrep-6CoEdCatholicMore Info",False,210051544.0,"{'dist': 4.264717576770448, 'nearest_coord': (-37.596015, 144.91928)}",6215.3,586.0
480.0,1,3,1,House,11 Rostron Way,ROXBURGH PARK,3064.0,-37.630512,144.9179,"Roxburgh Homestead Primary School0.1 km awayPrep-6CoEdGovernmentView Catchment,Roxburgh College1 km awayU, 7-12CoEdGovernmentView Catchment,Good Samaritan Catholic Primary School1.6 km awayPrep-6CoEdCatholicMore Info",False,210051544.0,"{'dist': 3.837822272040555, 'nearest_coord': (-37.596015, 144.91928)}",5443.7,482.3
690.0,2,5,2,House,10 Lachlan Crescent,ROXBURGH PARK,3064.0,-37.617672,144.92773,"Roxburgh Rise Primary School0.4 km awayPrep-6CoEdGovernmentView Catchment,Craigieburn Secondary College1.2 km away7-12CoEdGovernmentView Catchment,Good Samaritan Catholic Primary School0.9 km awayPrep-6CoEdCatholicMore Info",False,210051545.0,"{'dist': 2.5205705517783863, 'nearest_coord': (-37.596015, 144.91928)}",4070.7,370.2
675.0,2,5,2,House,14 Westbury Parkway,ROXBURGH PARK,3064.0,-37.618736,144.9197,"Roxburgh Rise Primary School0.4 km awayPrep-6CoEdGovernmentView Catchment,Roxburgh College1.6 km awayU, 7-12CoEdGovernmentView Catchment,Kolbe Catholic College0.9 km away7-12CoEdCatholicMore Info",False,210051545.0,"{'dist': 2.52673438249372, 'nearest_coord': (-37.596015, 144.91928)}",4294.5,381.2
550.0,3,4,2,Townhouse,22 Attain Walk,ROXBURGH PARK,3064.0,-37.624794,144.9183,"Roxburgh Homestead Primary School0.8 km awayPrep-6CoEdGovernmentView Catchment,Roxburgh College1.2 km awayU, 7-12CoEdGovernmentView Catchment,Kolbe Catholic College1.3 km away7-12CoEdCatholicMore Info",False,210051545.0,"{'dist': 3.2012474391813934, 'nearest_coord': (-37.596015, 144.91928)}",5671.5,561.7
790.0,2,2,1,Apartment / Unit / Flat,111/48 Rose Street,FITZROY,3065.0,-37.796375,144.9769,"Fitzroy Primary School0.5 km awayPrep-6CoEdGovernmentView Catchment,Collingwood College1.4 km awayPrep-12CoEdGovernmentView Catchment,Lynall Hall Community School-The Island Campus6.1 km awayGovernmentView Catchment",False,206071142.0,"{'dist': 1.134550344024265, 'nearest_coord': (-37.799299, 144.964529)}",1541.9,222.4
650.0,1,2,1,Apartment / Unit / Flat,506/416 Gore Street,FITZROY,3065.0,-37.796806,144.98402,"Fitzroy Primary School0.4 km awayPrep-6CoEdGovernmentView Catchment,Collingwood College0.9 km awayPrep-12CoEdGovernmentView Catchment,Lynall Hall Community School-The Island Campus6.2 km awayGovernmentView Catchment",False,206071142.0,"{'dist': 1.3300457021703556, 'nearest_coord': (-37.806545, 144.975231)}",2176.5,331.6
620.0,1,2,1,Apartment / Unit / Flat,33/1 St David Street,FITZROY,3065.0,-37.800537,144.97856,"Fitzroy Primary School0.3 km awayPrep-6CoEdGovernmentView Catchment,Collingwood College1.1 km awayPrep-12CoEdGovernmentView Catchment,Lynall Hall Community School-The Island Campus6.6 km awayGovernmentView Catchment",False,206071142.0,"{'dist': 0.7292782078942207, 'nearest_coord': (-37.806545, 144.975231)}",1271.3,207.7
625.0,1,2,2,Apartment / Unit / Flat,3/3-25 Hanover Street,FITZROY,3065.0,-37.802635,144.97504,"Carlton Gardens Primary School0.5 km awayPrep-6CoEdGovernmentView Catchment,Collingwood College1.4 km awayPrep-12CoEdGovernmentView Catchment,Lynall Hall Community School-The Island Campus6.8 km awayGovernmentView Catchment",False,206071142.0,"{'dist': 0.4350964861871918, 'nearest_coord': (-37.806545, 144.975231)}",681.6,94.3
550.0,1,1,1,Apartment / Unit / Flat,21/1 Saint David Street,FITZROY,3065.0,-37.800537,144.97856,"Fitzroy Primary School0.3 km awayPrep-6CoEdGovernmentView Catchment,Collingwood College1.1 km awayPrep-12CoEdGovernmentView Catchment,Lynall Hall Community School-The Island Campus6.6 km awayGovernmentView Catchment",True,206071142.0,"{'dist': 0.7292782078942207, 'nearest_coord': (-37.806545, 144.975231)}",1271.3,207.7
550.0,1,1,0,Apartment / Unit / Flat,106/45 Rose Street,FITZROY,3065.0,-37.795612,144.97696,"Carlton Primary School0.7 km awayPrep-6CoEdGovernmentView Catchment,Collingwood College1.4 km awayPrep-12CoEdGovernmentView Catchment,Lynall Hall Community School-The Island Campus6.1 km awayGovernmentView Catchment",True,206071142.0,"{'dist': 1.1666504811614558, 'nearest_coord': (-37.799299, 144.964529)}",1591.0,219.8
8503693.0,1,2,1,House,128 George Street,FITZROY,3065.0,-37.804855,144.98105,"Fitzroy Primary School0.6 km awayPrep-6CoEdGovernmentView Catchment,Collingwood College0.9 km awayPrep-12CoEdGovernmentView Catchment,Lynall Hall Community School-The Island Campus7.1 km awayGovernmentView Catchment",False,206071142.0,"{'dist': 0.5013741404717519, 'nearest_coord': (-37.809284, 144.98212)}",703.2,137.7
8503693.0,1,2,0,Apartment / Unit / Flat,4/50 Moor Street,FITZROY,3065.0,-37.80155,144.97612,"Fitzroy Primary School0.5 km awayPrep-6CoEdGovernmentView Catchment,Collingwood College1.3 km awayPrep-12CoEdGovernmentView Catchment,Lynall Hall Community School-The Island Campus6.7 km awayGovernmentView Catchment",False,206071142.0,"{'dist': 0.5608841813784267, 'nearest_coord': (-37.806545, 144.975231)}",927.8,125.2
8203563.0,2,2,1,Apartment / Unit / Flat,406/9-17 Smith Street,FITZROY,3065.0,-37.80804,144.9825,"Collingwood College0.9 km awayPrep-12CoEdGovernmentView Catchment,Lynall Hall Community School-The Island Campus7.5 km awayGovernmentView Catchment,Fitzroy Primary School0.9 km awayPrep-6CoEdGovernmentMore Info",False,206071142.0,"{'dist': 0.14229800714857033, 'nearest_coord': (-37.809284, 144.98212)}",152.9,41.5
7503259.0,1,2,1,Apartment / Unit / Flat,31/1 St David Street,FITZROY,3065.0,-37.800537,144.97856,"Fitzroy Primary School0.3 km awayPrep-6CoEdGovernmentView Catchment,Collingwood College1.1 km awayPrep-12CoEdGovernmentView Catchment,Lynall Hall Community School-The Island Campus6.6 km awayGovernmentView Catchment",False,206071142.0,"{'dist': 0.7292782078942207, 'nearest_coord': (-37.806545, 144.975231)}",1271.3,207.7
7503259.0,1,2,1,Apartment / Unit / Flat,4/144 Rose Street,FITZROY,3065.0,-37.796227,144.9805,"Fitzroy Primary School0.4 km awayPrep-6CoEdGovernmentView Catchment,Collingwood College1.2 km awayPrep-12CoEdGovernmentView Catchment,Lynall Hall Community School-The Island Campus6.1 km awayGovernmentView Catchment",False,206071142.0,"{'dist': 1.2371859194522346, 'nearest_coord': (-37.806545, 144.975231)}",2021.9,283.1
5952585.0,1,1,0,House,6 Garfield Street,FITZROY,3065.0,-37.800705,144.97505,"Carlton Gardens Primary School0.5 km awayPrep-6CoEdGovernmentView Catchment,Collingwood College1.4 km awayPrep-12CoEdGovernmentView Catchment,Lynall Hall Community School-The Island Campus6.6 km awayGovernmentView Catchment",False,206071142.0,"{'dist': 0.6495739669002337, 'nearest_coord': (-37.806545, 144.975231)}",1022.6,124.6
15956931.0,2,3,2,House,5 Hargreaves Street,FITZROY,3065.0,-37.80084,144.98335,"Fitzroy Primary School0.2 km awayPrep-6CoEdGovernmentView Catchment,Collingwood College0.7 km awayPrep-12CoEdGovernmentView Catchment,Lynall Hall Community School-The Island Campus6.7 km awayGovernmentView Catchment",False,206071142.0,"{'dist': 0.9451292873706593, 'nearest_coord': (-37.809284, 144.98212)}",1107.5,211.1
1200.0,2,3,0,House,148 Johnston Street,FITZROY,3065.0,-37.798656,144.97975,"Fitzroy Primary School0.2 km awayPrep-6CoEdGovernmentView Catchment,Collingwood College1.1 km awayPrep-12CoEdGovernmentView Catchment,Lynall Hall Community School-The Island Campus6.4 km awayGovernmentView Catchment",False,206071142.0,"{'dist': 0.9628839169846961, 'nearest_coord': (-37.806545, 144.975231)}",1646.2,219.8
11504997.0,2,3,1,House,46 Gore Street,FITZROY,3065.0,-37.8072,144.98204,"Fitzroy Primary School0.8 km awayPrep-6CoEdGovernmentView Catchment,Collingwood College0.9 km awayPrep-12CoEdGovernmentView Catchment,Lynall Hall Community School-The Island Campus7.4 km awayGovernmentView Catchment",False,206071142.0,"{'dist': 0.2318371074795501, 'nearest_coord': (-37.809284, 144.98212)}",293.8,75.3
1100.0,1,3,0,House,131 George Street,FITZROY,3065.0,-37.804802,144.98065,"Fitzroy Primary School0.6 km awayPrep-6CoEdGovernmentView Catchment,Collingwood College0.9 km awayPrep-12CoEdGovernmentView Catchment,Lynall Hall Community School-The Island Campus7.1 km awayGovernmentView Catchment",False,206071142.0,"{'dist': 0.5140229170241593, 'nearest_coord': (-37.806545, 144.975231)}",1065.2,177.7
11004780.0,1,2,1,Townhouse,147 Kerr Street,FITZROY,3065.0,-37.796562,144.9806,"Fitzroy Primary School0.3 km awayPrep-6CoEdGovernmentView Catchment,Collingwood College1.1 km awayPrep-12CoEdGovernmentView Catchment,Lynall Hall Community School-The Island Campus6.2 km awayGovernmentView Catchment",False,206071142.0,"{'dist': 1.206130975222968, 'nearest_coord': (-37.806545, 144.975231)}",1879.6,269.1
11004780.0,2,3,2,Townhouse,5/192 Argyle Street,FITZROY,3065.0,-37.798203,144.98256,"Fitzroy Primary School0.2 km awayPrep-6CoEdGovernmentView Catchment,Collingwood College0.9 km awayPrep-12CoEdGovernmentView Catchment,Lynall Hall Community School-The Island Campus6.4 km awayGovernmentView Catchment",False,206071142.0,"{'dist': 1.1291805887036186, 'nearest_coord': (-37.806545, 144.975231)}",2031.7,296.8
10504563.0,1,3,0,House,270 Gore Street,FITZROY,3065.0,-37.800648,144.98294,"Fitzroy Primary School0.2 km awayPrep-6CoEdGovernmentView Catchment,Collingwood College0.7 km awayPrep-12CoEdGovernmentView Catchment,Lynall Hall Community School-The Island Campus6.6 km awayGovernmentView Catchment",False,206071142.0,"{'dist': 0.9427021362742101, 'nearest_coord': (-37.806545, 144.975231)}",2060.6,303.7
850.0,1,3,0,Terrace,433 Gore Street,FITZROY,3065.0,-37.79623,144.98317,"Fitzroy Primary School0.4 km awayPrep-6CoEdGovernmentView Catchment,Collingwood College1 km awayPrep-12CoEdGovernmentView Catchment,Lynall Hall Community School-The Island Campus6.2 km awayGovernmentView Catchment",False,206071142.0,"{'dist': 1.342418900168367, 'nearest_coord': (-37.806545, 144.975231)}",2103.3,312.9
8253585.0,2,2,1,Apartment / Unit / Flat,718/338 Gore Street,FITZROY,3065.0,-37.798702,144.98355,"Fitzroy Primary School0.2 km awayPrep-6CoEdGovernmentView Catchment,Collingwood College0.8 km awayPrep-12CoEdGovernmentView Catchment,Lynall Hall Community School-The Island Campus6.4 km awayGovernmentView Catchment",False,206071142.0,"{'dist': 1.1378786195441284, 'nearest_coord': (-37.806545, 144.975231)}",1897.5,266.4
7753368.0,1,2,1,Apartment / Unit / Flat,7/5 Spring Street,FITZROY,3065.0,-37.797573,144.9759,"Carlton Primary School0.6 km awayPrep-6CoEdGovernmentView Catchment,Collingwood College1.4 km awayPrep-12CoEdGovernmentView Catchment,Lynall Hall Community School-The Island Campus6.3 km awayGovernmentView Catchment",True,206071142.0,"{'dist': 0.999372277052408, 'nearest_coord': (-37.806545, 144.975231)}",1282.2,158.7
750.0,3,2,0,Townhouse,4 Leicester St,FITZROY,3065.0,-37.795185,144.97614,"Carlton Primary School0.6 km awayPrep-6CoEdGovernmentView Catchment,Fitzroy High School1.5 km away7-12CoEdGovernmentView Catchment,Lynall Hall Community School-The Island Campus6 km awayGovernmentView Catchment",False,206071142.0,"{'dist': 1.118063914481264, 'nearest_coord': (-37.799299, 144.964529)}",1574.9,205.2
7503259.0,1,2,0,House,61 Bell Street,FITZROY,3065.0,-37.80004,144.97687,"Fitzroy Primary School0.4 km awayPrep-6CoEdGovernmentView Catchment,Collingwood College1.2 km awayPrep-12CoEdGovernmentView Catchment,Lynall Hall Community School-The Island Campus6.6 km awayGovernmentView Catchment",False,206071142.0,"{'dist': 0.7375182429285921, 'nearest_coord': (-37.806545, 144.975231)}",1369.5,180.3
645.0,1,2,1,Apartment / Unit / Flat,10/300 Young Street,FITZROY,3065.0,-37.797417,144.9799,"Fitzroy Primary School0.3 km awayPrep-6CoEdGovernmentView Catchment,Collingwood College1.1 km awayPrep-12CoEdGovernmentView Catchment,Lynall Hall Community School-The Island Campus6.3 km awayGovernmentView Catchment",True,206071142.0,"{'dist': 1.0947499034704453, 'nearest_coord': (-37.806545, 144.975231)}",1694.9,232.1
645.0,1,2,1,Apartment / Unit / Flat,202/300 Young Street,FITZROY,3065.0,-37.797417,144.9799,"Fitzroy Primary School0.3 km awayPrep-6CoEdGovernmentView Catchment,Collingwood College1.1 km awayPrep-12CoEdGovernmentView Catchment,Lynall Hall Community School-The Island Campus6.3 km awayGovernmentView Catchment",True,206071142.0,"{'dist': 1.0947499034704453, 'nearest_coord': (-37.806545, 144.975231)}",1694.9,232.1
645.0,1,2,1,Apartment / Unit / Flat,302/300 Young Street,FITZROY,3065.0,-37.797417,144.9799,"Fitzroy Primary School0.3 km awayPrep-6CoEdGovernmentView Catchment,Collingwood College1.1 km awayPrep-12CoEdGovernmentView Catchment,Lynall Hall Community School-The Island Campus6.3 km awayGovernmentView Catchment",True,206071142.0,"{'dist': 1.0947499034704453, 'nearest_coord': (-37.806545, 144.975231)}",1694.9,232.1
650.0,1,2,1,House,16 Garfield Street,FITZROY,3065.0,-37.800724,144.97531,"Carlton Gardens Primary School0.5 km awayPrep-6CoEdGovernmentView Catchment,Collingwood College1.4 km awayPrep-12CoEdGovernmentView Catchment,Lynall Hall Community School-The Island Campus6.6 km awayGovernmentView Catchment",False,206071142.0,"{'dist': 0.6473037942321205, 'nearest_coord': (-37.806545, 144.975231)}",1045.6,130.1
630.0,2,2,0,House,14 George Street,FITZROY,3065.0,-37.80791,144.98056,"Fitzroy Primary School0.9 km awayPrep-6CoEdGovernmentView Catchment,Collingwood College1 km awayPrep-12CoEdGovernmentView Catchment,Lynall Hall Community School-The Island Campus7.4 km awayGovernmentView Catchment",False,206071142.0,"{'dist': 0.20524239516860113, 'nearest_coord': (-37.809284, 144.98212)}",366.2,68.3
6152672.0,1,2,1,House,84 Charles Street,FITZROY,3065.0,-37.803387,144.98204,"Fitzroy Primary School0.4 km awayPrep-6CoEdGovernmentView Catchment,Collingwood College0.7 km awayPrep-12CoEdGovernmentView Catchment,Lynall Hall Community School-The Island Campus6.9 km awayGovernmentView Catchment",False,206071142.0,"{'dist': 0.6557550740746801, 'nearest_coord': (-37.809284, 144.98212)}",968.6,201.3
5252282.0,1,1,0,Studio,6/130 Nicholson Street,FITZROY,3065.0,-37.801712,144.9745,"Carlton Gardens Primary School0.4 km awayPrep-6CoEdGovernmentView Catchment,Collingwood College1.4 km awayPrep-12CoEdGovernmentView Catchment,Lynall Hall Community School-The Island Campus6.7 km awayGovernmentView Catchment",True,206071142.0,"{'dist': 0.5412297458268721, 'nearest_coord': (-37.806545, 144.975231)}",722.4,84.8
400.0,1,0,0,Studio,202/70 Nicholson Street,FITZROY,3065.0,-37.80466,144.97401,"Carlton Gardens Primary School0.5 km awayPrep-6CoEdGovernmentView Catchment,Collingwood College1.5 km awayPrep-12CoEdGovernmentView Catchment,Lynall Hall Community School-The Island Campus7.1 km awayGovernmentView Catchment",True,206071142.0,"{'dist': 0.23545760070488622, 'nearest_coord': (-37.806545, 144.975231)}",391.9,59.2
4001739.0,1,1,1,Apartment / Unit / Flat,6/443 Napier Street,FITZROY,3065.0,-37.79441,144.98122,"Fitzroy Primary School0.6 km awayPrep-6CoEdGovernmentView Catchment,Fitzroy High School1.2 km away7-12CoEdGovernmentView Catchment,Lynall Hall Community School-The Island Campus5.9 km awayGovernmentView Catchment",False,206071142.0,"{'dist': 1.4483218996305014, 'nearest_coord': (-37.806545, 144.975231)}",2250.4,284.1
12001.0,1,1,0,Apartment / Unit / Flat,110/8 Royal Lane,FITZROY,3065.0,-37.804474,144.97498,"Carlton Gardens Primary School0.6 km awayPrep-6CoEdGovernmentView Catchment,Collingwood College1.4 km awayPrep-12CoEdGovernmentView Catchment,Lynall Hall Community School-The Island Campus7 km awayGovernmentView Catchment",True,206071142.0,"{'dist': 0.2313384117542108, 'nearest_coord': (-37.806545, 144.975231)}",581.7,96.6
1100.0,2,3,3,Apartment / Unit / Flat,1/192 Argyle Street,FITZROY,3065.0,-37.798203,144.98256,"Fitzroy Primary School0.2 km awayPrep-6CoEdGovernmentView Catchment,Collingwood College0.9 km awayPrep-12CoEdGovernmentView Catchment,Lynall Hall Community School-The Island Campus6.4 km awayGovernmentView Catchment",False,206071142.0,"{'dist': 1.1291805887036186, 'nearest_coord': (-37.806545, 144.975231)}",2031.7,296.8
990.0,1,3,0,Terrace,333 Gore St,FITZROY,3065.0,-37.799248,144.9828,"Fitzroy Primary School0.1 km awayPrep-6CoEdGovernmentView Catchment,Collingwood College0.8 km awayPrep-12CoEdGovernmentView Catchment,Lynall Hall Community School-The Island Campus6.5 km awayGovernmentView Catchment",False,206071142.0,"{'dist': 1.0490828991353767, 'nearest_coord': (-37.806545, 144.975231)}",1875.0,259.2
640.0,1,1,1,Apartment / Unit / Flat,121 Kerr Street,FITZROY,3065.0,-37.79669,144.97975,"Fitzroy Primary School0.4 km awayPrep-6CoEdGovernmentView Catchment,Collingwood College1.2 km awayPrep-12CoEdGovernmentView Catchment,Lynall Hall Community School-The Island Campus6.2 km awayGovernmentView Catchment",False,206071142.0,"{'dist': 1.1655368745794552, 'nearest_coord': (-37.806545, 144.975231)}",2030.5,289.1
620.0,1,2,1,Apartment / Unit / Flat,209/96 Charles Street,FITZROY,3065.0,-37.80347,144.98257,"Fitzroy Primary School0.4 km awayPrep-6CoEdGovernmentView Catchment,Collingwood College0.7 km awayPrep-12CoEdGovernmentView Catchment,Lynall Hall Community School-The Island Campus7 km awayGovernmentView Catchment",False,206071142.0,"{'dist': 0.6476958908350907, 'nearest_coord': (-37.809284, 144.98212)}",802.4,177.7
770.0,2,2,1,Apartment / Unit / Flat,804/466-482 Smith Street,COLLINGWOOD,3066.0,-37.801224,144.98389,"Fitzroy Primary School0.3 km awayPrep-6CoEdGovernmentView Catchment,Collingwood College0.6 km awayPrep-12CoEdGovernmentView Catchment,Collingwood English Language School0.7 km awayPrep-12CoEdGovernmentView Catchment",False,206071141.0,"{'dist': 0.9096228988083788, 'nearest_coord': (-37.809284, 144.98212)}",920.3,174.6
700.0,1,1,1,Apartment / Unit / Flat,414/25 Johnston Street,COLLINGWOOD,3066.0,-37.799255,144.98552,"Fitzroy Primary School0.4 km awayPrep-6CoEdGovernmentView Catchment,Collingwood College0.6 km awayPrep-12CoEdGovernmentView Catchment,Collingwood English Language School1 km awayPrep-12CoEdGovernmentView Catchment",False,206071141.0,"{'dist': 1.1544889964548515, 'nearest_coord': (-37.809284, 144.98212)}",1298.9,232.2
670.0,1,2,0,House,118 Easey Street,COLLINGWOOD,3066.0,-37.79799,144.99046,"Collingwood College0.6 km awayPrep-12CoEdGovernmentView Catchment,Lynall Hall Community School-The Island Campus6.4 km awayGovernmentView Catchment,Clifton Hill Primary School0.6 km awayPrep-6CoEdGovernmentMore Info",False,206071141.0,"{'dist': 1.4539659535252667, 'nearest_coord': (-37.809284, 144.98212)}",1899.2,298.2
625.0,1,2,1,Apartment / Unit / Flat,4/67 Easey Street,COLLINGWOOD,3066.0,-37.798065,144.98828,"Collingwood College0.6 km awayPrep-12CoEdGovernmentView Catchment,Lynall Hall Community School-The Island Campus6.4 km awayGovernmentView Catchment,Fitzroy Primary School0.6 km awayPrep-6CoEdGovernmentMore Info",False,206071141.0,"{'dist': 1.3598333486589986, 'nearest_coord': (-37.809284, 144.98212)}",1664.2,260.4
580.0,1,1,1,Apartment / Unit / Flat,106/107 Cambridge Street,COLLINGWOOD,3066.0,-37.803528,144.98503,"Collingwood English Language School0.5 km awayPrep-12CoEdGovernmentView Catchment,Collingwood College0.5 km awayPrep-12CoEdGovernmentView Catchment,Lynall Hall Community School-The Island Campus7 km awayGovernmentView Catchment",False,206071141.0,"{'dist': 0.6892089293069399, 'nearest_coord': (-37.809284, 144.98212)}",797.0,185.4
670.0,1,1,1,Apartment / Unit / Flat,528/11 Wellington Street,COLLINGWOOD,3066.0,-37.808563,144.98563,"Collingwood English Language School0.1 km awayPrep-12CoEdGovernmentView Catchment,Collingwood College0.8 km awayPrep-12CoEdGovernmentView Catchment,Lynall Hall Community School-The Island Campus7.5 km awayGovernmentView Catchment",False,206071141.0,"{'dist': 0.2721207390835874, 'nearest_coord': (-37.810694, 144.984107)}",501.4,85.6
650.0,1,2,2,Apartment / Unit / Flat,314/40 Stanley Street,COLLINGWOOD,3066.0,-37.801823,144.98537,"Fitzroy Primary School0.4 km awayPrep-6CoEdGovernmentView Catchment,Collingwood College0.5 km awayPrep-12CoEdGovernmentView Catchment,Collingwood English Language School0.7 km awayPrep-12CoEdGovernmentView Catchment",False,206071141.0,"{'dist': 0.8773860943228675, 'nearest_coord': (-37.809284, 144.98212)}",987.3,199.1
640.0,1,2,1,Apartment / Unit / Flat,502/107 Cambridge Street,COLLINGWOOD,3066.0,-37.803513,144.98505,"Collingwood English Language School0.5 km awayPrep-12CoEdGovernmentView Catchment,Collingwood College0.5 km awayPrep-12CoEdGovernmentView Catchment,Lynall Hall Community School-The Island Campus7 km awayGovernmentView Catchment",False,206071141.0,"{'dist': 0.691410380276736, 'nearest_coord': (-37.809284, 144.98212)}",798.9,185.9
600.0,1,1,1,Apartment / Unit / Flat,201/107 Cambridge Street,COLLINGWOOD,3066.0,-37.803513,144.98505,"Collingwood English Language School0.5 km awayPrep-12CoEdGovernmentView Catchment,Collingwood College0.5 km awayPrep-12CoEdGovernmentView Catchment,Lynall Hall Community School-The Island Campus7 km awayGovernmentView Catchment",True,206071141.0,"{'dist': 0.691410380276736, 'nearest_coord': (-37.809284, 144.98212)}",798.9,185.9
550.0,1,1,0,Apartment / Unit / Flat,409/20 Peel Street,COLLINGWOOD,3066.0,-37.804993,144.98492,"Collingwood English Language School0.3 km awayPrep-12CoEdGovernmentView Catchment,Collingwood College0.5 km awayPrep-12CoEdGovernmentView Catchment,Lynall Hall Community School-The Island Campus7.1 km awayGovernmentView Catchment",False,206071141.0,"{'dist': 0.5368154914484191, 'nearest_coord': (-37.809284, 144.98212)}",890.6,140.7
865.0,2,2,1,Apartment / Unit / Flat,205/27 Oxford Street,COLLINGWOOD,3066.0,-37.807167,144.98401,"Collingwood English Language School0.1 km awayPrep-12CoEdGovernmentView Catchment,Collingwood College0.7 km awayPrep-12CoEdGovernmentView Catchment,Lynall Hall Community School-The Island Campus7.4 km awayGovernmentView Catchment",False,206071141.0,"{'dist': 0.28806641533343885, 'nearest_coord': (-37.809284, 144.98212)}",443.1,107.5
1000960.0,1,2,1,Apartment / Unit / Flat,32/115 Oxford Street,COLLINGWOOD,3066.0,-37.8026,144.98479,"Fitzroy Primary School0.4 km awayPrep-6CoEdGovernmentView Catchment,Collingwood College0.5 km awayPrep-12CoEdGovernmentView Catchment,Collingwood English Language School0.6 km awayPrep-12CoEdGovernmentView Catchment",True,206071141.0,"{'dist': 0.7793659574369258, 'nearest_coord': (-37.809284, 144.98212)}",1001.0,202.4
800.0,1,3,2,House,30 Cambridge Street,COLLINGWOOD,3066.0,-37.80796,144.98515,"Collingwood English Language School0 km awayPrep-12CoEdGovernmentView Catchment,Collingwood College0.7 km awayPrep-12CoEdGovernmentView Catchment,Lynall Hall Community School-The Island Campus7.5 km awayGovernmentView Catchment",False,206071141.0,"{'dist': 0.3041889073552064, 'nearest_coord': (-37.809284, 144.98212)}",535.6,85.7
6902998.0,1,2,1,Townhouse,3/32 Ballarat Street,COLLINGWOOD,3066.0,-37.79543,144.99078,"Clifton Hill Primary School0.4 km awayPrep-6CoEdGovernmentView Catchment,Collingwood College0.8 km awayPrep-12CoEdGovernmentView Catchment,Lynall Hall Community School-The Island Campus6.2 km awayGovernmentView Catchment",False,206071141.0,"{'dist': 1.7181473823786215, 'nearest_coord': (-37.809284, 144.98212)}",2131.2,343.9
6902998.0,1,2,1,Apartment / Unit / Flat,201/44 Bedford Street,COLLINGWOOD,3066.0,-37.801567,144.98476,"Fitzroy Primary School0.4 km awayPrep-6CoEdGovernmentView Catchment,Collingwood College0.5 km awayPrep-12CoEdGovernmentView Catchment,Collingwood English Language School0.7 km awayPrep-12CoEdGovernmentView Catchment",False,206071141.0,"{'dist': 0.8888854889220462, 'nearest_coord': (-37.809284, 144.98212)}",965.5,193.9
650.0,2,2,1,Apartment / Unit / Flat,906E/9 Robert Street,COLLINGWOOD,3066.0,-37.805794,144.98717,"Collingwood English Language School0.3 km awayPrep-12CoEdGovernmentView Catchment,Collingwood College0.4 km awayPrep-12CoEdGovernmentView Catchment,Lynall Hall Community School-The Island Campus7.3 km awayGovernmentView Catchment",False,206071141.0,"{'dist': 0.5894305139071297, 'nearest_coord': (-37.809284, 144.98212)}",1007.0,163.2
1350.0,2,3,1,Apartment / Unit / Flat,4/93 Oxford Street,COLLINGWOOD,3066.0,-37.80423,144.98451,"Collingwood English Language School0.4 km awayPrep-12CoEdGovernmentView Catchment,Collingwood College0.5 km awayPrep-12CoEdGovernmentView Catchment,Lynall Hall Community School-The Island Campus7.1 km awayGovernmentView Catchment",True,206071141.0,"{'dist': 0.5999238501710479, 'nearest_coord': (-37.809284, 144.98212)}",713.4,165.4
825.0,2,2,1,Apartment / Unit / Flat,306/8 Keele Street,COLLINGWOOD,3066.0,-37.7968,144.98532,"Fitzroy Primary School0.5 km awayPrep-6CoEdGovernmentView Catchment,Collingwood College0.8 km awayPrep-12CoEdGovernmentView Catchment,Lynall Hall Community School-The Island Campus6.2 km awayGovernmentView Catchment",False,206071141.0,"{'dist': 1.3999673907396821, 'nearest_coord': (-37.806545, 144.975231)}",2257.9,328.9
700.0,1,2,1,Apartment / Unit / Flat,26/115 Oxford Street,COLLINGWOOD,3066.0,-37.8026,144.98479,"Fitzroy Primary School0.4 km awayPrep-6CoEdGovernmentView Catchment,Collingwood College0.5 km awayPrep-12CoEdGovernmentView Catchment,Collingwood English Language School0.6 km awayPrep-12CoEdGovernmentView Catchment",True,206071141.0,"{'dist': 0.7793659574369258, 'nearest_coord': (-37.809284, 144.98212)}",1001.0,202.4
700.0,2,2,1,Apartment / Unit / Flat,506/470 Smith Street,COLLINGWOOD,3066.0,-37.794514,144.98524,"Clifton Hill Primary School0.4 km awayPrep-6CoEdGovernmentView Catchment,Collingwood College1 km awayPrep-12CoEdGovernmentView Catchment,Lynall Hall Community School-The Island Campus6 km awayGovernmentView Catchment",False,206071141.0,"{'dist': 1.600942742211553, 'nearest_coord': (-37.806545, 144.975231)}",2563.1,315.8
6752933.0,1,2,1,Apartment / Unit / Flat,308M/60 Stanley Street,COLLINGWOOD,3066.0,-37.802067,144.98587,"Collingwood College0.4 km awayPrep-12CoEdGovernmentView Catchment,Collingwood English Language School0.6 km awayPrep-12CoEdGovernmentView Catchment,Lynall Hall Community School-The Island Campus6.8 km awayGovernmentView Catchment",False,206071141.0,"{'dist': 0.8674897871466629, 'nearest_coord': (-37.809284, 144.98212)}",1187.2,179.9
5952585.0,1,2,0,House,28 Forest Street,COLLINGWOOD,3066.0,-37.79559,144.99245,"Clifton Hill Primary School0.5 km awayPrep-6CoEdGovernmentView Catchment,Collingwood College0.8 km awayPrep-12CoEdGovernmentView Catchment,Lynall Hall Community School-The Island Campus6.2 km awayGovernmentView Catchment",False,206071141.0,"{'dist': 1.7726616913260733, 'nearest_coord': (-37.809284, 144.98212)}",2399.6,354.7
550.0,1,2,0,Terrace,64 Sackville St,COLLINGWOOD,3066.0,-37.79836,144.98718,"Fitzroy Primary School0.5 km awayPrep-6CoEdGovernmentView Catchment,Collingwood College0.6 km awayPrep-12CoEdGovernmentView Catchment,Lynall Hall Community School-The Island Campus6.4 km awayGovernmentView Catchment",True,206071141.0,"{'dist': 1.2934889680765491, 'nearest_coord': (-37.809284, 144.98212)}",1553.3,239.0
5302303.0,1,2,0,Apartment / Unit / Flat,504/28 Stanley Street,COLLINGWOOD,3066.0,-37.801968,144.98508,"Fitzroy Primary School0.4 km awayPrep-6CoEdGovernmentView Catchment,Collingwood College0.5 km awayPrep-12CoEdGovernmentView Catchment,Collingwood English Language School0.7 km awayPrep-12CoEdGovernmentView Catchment",False,206071141.0,"{'dist': 0.8540570266078839, 'nearest_coord': (-37.809284, 144.98212)}",944.4,188.8
5152238.0,1,1,1,Apartment / Unit / Flat,11/18 Stanley Street,COLLINGWOOD,3066.0,-37.801968,144.98482,"Fitzroy Primary School0.4 km awayPrep-6CoEdGovernmentView Catchment,Collingwood College0.5 km awayPrep-12CoEdGovernmentView Catchment,Collingwood English Language School0.7 km awayPrep-12CoEdGovernmentView Catchment",False,206071141.0,"{'dist': 0.8473812285324183, 'nearest_coord': (-37.809284, 144.98212)}",925.0,184.2
490.0,1,1,1,Apartment / Unit / Flat,320/3 Hoddle Street,COLLINGWOOD,3066.0,-37.808956,144.99112,"Collingwood English Language School0.6 km awayPrep-12CoEdGovernmentView Catchment,Richmond West Primary School0.7 km awayPrep-6CoEdGovernmentView Catchment,Collingwood College0.7 km awayPrep-12CoEdGovernmentView Catchment",False,206071141.0,"{'dist': 0.6456894043272705, 'nearest_coord': (-37.810694, 144.984107)}",1297.9,203.0
490.0,1,1,0,Apartment / Unit / Flat,209/20 Peel Street,COLLINGWOOD,3066.0,-37.804993,144.98492,"Collingwood English Language School0.3 km awayPrep-12CoEdGovernmentView Catchment,Collingwood College0.5 km awayPrep-12CoEdGovernmentView Catchment,Lynall Hall Community School-The Island Campus7.1 km awayGovernmentView Catchment",False,206071141.0,"{'dist': 0.5368154914484191, 'nearest_coord': (-37.809284, 144.98212)}",890.6,140.7
365.0,1,1,0,Studio,411/45 Victoria Parade,COLLINGWOOD,3066.0,-37.808685,144.98413,"Collingwood English Language School0.1 km awayPrep-12CoEdGovernmentView Catchment,Collingwood College0.8 km awayPrep-12CoEdGovernmentView Catchment,Lynall Hall Community School-The Island Campus7.5 km awayGovernmentView Catchment",True,206071141.0,"{'dist': 0.18872408032577914, 'nearest_coord': (-37.809284, 144.98212)}",484.6,66.8
330.0,1,0,0,Studio,503/45 Victoria Pde,COLLINGWOOD,3066.0,-37.808685,144.98413,"Collingwood English Language School0.1 km awayPrep-12CoEdGovernmentView Catchment,Collingwood College0.8 km awayPrep-12CoEdGovernmentView Catchment,Lynall Hall Community School-The Island Campus7.5 km awayGovernmentView Catchment",True,206071141.0,"{'dist': 0.18872408032577914, 'nearest_coord': (-37.809284, 144.98212)}",484.6,66.8
680.0,2,2,1,Apartment / Unit / Flat,101/22 Peel Street,COLLINGWOOD,3066.0,-37.80499,144.98485,"Collingwood English Language School0.3 km awayPrep-12CoEdGovernmentView Catchment,Collingwood College0.5 km awayPrep-12CoEdGovernmentView Catchment,Lynall Hall Community School-The Island Campus7.1 km awayGovernmentView Catchment",False,206071141.0,"{'dist': 0.534323527174736, 'nearest_coord': (-37.809284, 144.98212)}",896.7,142.2
695.0,1,2,1,Apartment / Unit / Flat,703/75 Wellington Street,COLLINGWOOD,3066.0,-37.80639,144.9859,"Collingwood English Language School0.2 km awayPrep-12CoEdGovernmentView Catchment,Collingwood College0.6 km awayPrep-12CoEdGovernmentView Catchment,Lynall Hall Community School-The Island Campus7.3 km awayGovernmentView Catchment",False,206071141.0,"{'dist': 0.4624196088212655, 'nearest_coord': (-37.809284, 144.98212)}",645.2,93.5
670.0,1,2,1,Apartment / Unit / Flat,4GF/50 Stanley Street,COLLINGWOOD,3066.0,-37.8021,144.9858,"Collingwood College0.4 km awayPrep-12CoEdGovernmentView Catchment,Collingwood English Language School0.6 km awayPrep-12CoEdGovernmentView Catchment,Lynall Hall Community School-The Island Campus6.8 km awayGovernmentView Catchment",True,206071141.0,"{'dist': 0.861770376961062, 'nearest_coord': (-37.809284, 144.98212)}",1192.4,181.1
650.0,1,2,1,Apartment / Unit / Flat,201/51 Napoleon Street,COLLINGWOOD,3066.0,-37.80181,144.98668,"Collingwood College0.4 km awayPrep-12CoEdGovernmentView Catchment,Collingwood English Language School0.7 km awayPrep-12CoEdGovernmentView Catchment,Lynall Hall Community School-The Island Campus6.8 km awayGovernmentView Catchment",True,206071141.0,"{'dist': 0.9225916140811072, 'nearest_coord': (-37.809284, 144.98212)}",1158.4,175.8
620.0,1,2,1,Apartment / Unit / Flat,23/34 Smith Street,COLLINGWOOD,3066.0,-37.80723,144.98343,"Collingwood English Language School0.1 km awayPrep-12CoEdGovernmentView Catchment,Collingwood College0.8 km awayPrep-12CoEdGovernmentView Catchment,Lynall Hall Community School-The Island Campus7.4 km awayGovernmentView Catchment",False,206071141.0,"{'dist': 0.25575146778316665, 'nearest_coord': (-37.809284, 144.98212)}",385.3,93.6
590.0,1,1,0,Apartment / Unit / Flat,903/68 Cambridge Street,COLLINGWOOD,3066.0,-37.806786,144.98537,"Collingwood English Language School0.1 km awayPrep-12CoEdGovernmentView Catchment,Collingwood College0.6 km awayPrep-12CoEdGovernmentView Catchment,Lynall Hall Community School-The Island Campus7.3 km awayGovernmentView Catchment",False,206071141.0,"{'dist': 0.3983394159360975, 'nearest_coord': (-37.809284, 144.98212)}",670.0,106.9
550.0,1,1,1,Apartment / Unit / Flat,606/51 Napoleon Street,COLLINGWOOD,3066.0,-37.80181,144.98668,"Collingwood College0.4 km awayPrep-12CoEdGovernmentView Catchment,Collingwood English Language School0.7 km awayPrep-12CoEdGovernmentView Catchment,Lynall Hall Community School-The Island Campus6.8 km awayGovernmentView Catchment",False,206071141.0,"{'dist': 0.9225916140811072, 'nearest_coord': (-37.809284, 144.98212)}",1158.4,175.8
485.0,1,1,1,Apartment / Unit / Flat,18/34 Smith Street,COLLINGWOOD,3066.0,-37.80723,144.98343,"Collingwood English Language School0.1 km awayPrep-12CoEdGovernmentView Catchment,Collingwood College0.8 km awayPrep-12CoEdGovernmentView Catchment,Lynall Hall Community School-The Island Campus7.4 km awayGovernmentView Catchment",False,206071141.0,"{'dist': 0.25575146778316665, 'nearest_coord': (-37.809284, 144.98212)}",385.3,93.6
790.0,1,2,0,House,193 Vere Street,ABBOTSFORD,3067.0,-37.8031,144.9969,"Collingwood College0.6 km awayPrep-12CoEdGovernmentView Catchment,Abbotsford Primary School0.7 km awayPrep-6CoEdGovernmentMore Info,Richmond West Primary School1.2 km awayPrep-6CoEdGovernmentMore Info",False,206071139.0,"{'dist': 1.2625471310067473, 'nearest_coord': (-37.814361, 144.998739)}",1786.3,245.7
915.0,2,3,1,Townhouse,30 Park Street,ABBOTSFORD,3067.0,-37.808064,144.99423,"Abbotsford Primary School0.4 km awayPrep-6CoEdGovernmentView Catchment,Collingwood College0.7 km awayPrep-12CoEdGovernmentView Catchment,Lynall Hall Community School1.2 km away7-12CoEdGovernmentMore Info",False,206071139.0,"{'dist': 0.8044713610831673, 'nearest_coord': (-37.814361, 144.998739)}",1356.2,197.0
680.0,2,2,1,Apartment / Unit / Flat,509/20 Shamrock St,ABBOTSFORD,3067.0,-37.810143,145.00822,"Yarra Primary School0.5 km awayPrep-6CoEdGovernmentView Catchment,Richmond High School-Gleadell Street Campus0.9 km away7CoEdGovernmentView Catchment,Richmond High School1 km away7-12CoEdGovernmentView Catchment",False,206071139.0,"{'dist': 0.8837293910965612, 'nearest_coord': (-37.804706, 145.015557)}",2572.5,324.0
680.0,1,2,1,House,145 Yarra St,ABBOTSFORD,3067.0,-37.802757,145.0006,"Abbotsford Primary School0.7 km awayPrep-6CoEdGovernmentView Catchment,Collingwood College0.9 km awayPrep-12CoEdGovernmentView Catchment,Lynall Hall Community School1.5 km away7-12CoEdGovernmentMore Info",False,206071139.0,"{'dist': 1.300624238609481, 'nearest_coord': (-37.814361, 144.998739)}",2172.6,328.8
600.0,1,1,1,Apartment / Unit / Flat,218/6 Acacia Place,ABBOTSFORD,3067.0,-37.81176,145.01414,"Yarra Primary School0.7 km awayPrep-6CoEdGovernmentView Catchment,Melbourne Girls College1.2 km away7-12GirlsGovernmentView Catchment,Richmond High School1.2 km away7-12CoEdGovernmentView Catchment",True,206071139.0,"{'dist': 0.794187109747343, 'nearest_coord': (-37.804706, 145.015557)}",1753.4,186.0
690.0,2,2,1,Apartment / Unit / Flat,302/119 Turner Street,ABBOTSFORD,3067.0,-37.799286,145.00043,"Collingwood College1 km awayPrep-12CoEdGovernmentView Catchment,Abbotsford Primary School1.1 km awayPrep-6CoEdGovernmentMore Info,Clifton Hill Primary School1.3 km awayPrep-6CoEdGovernmentMore Info",False,206071139.0,"{'dist': 1.4593062268465253, 'nearest_coord': (-37.804706, 145.015557)}",1727.7,246.7
550.0,1,1,1,House,611 Victoria Street,ABBOTSFORD,3067.0,-37.811085,145.00761,"Yarra Primary School0.4 km awayPrep-6CoEdGovernmentView Catchment,Richmond High School-Gleadell Street Campus0.8 km away7CoEdGovernmentView Catchment,Richmond High School0.8 km away7-12CoEdGovernmentView Catchment",True,206071139.0,"{'dist': 0.8602206506730078, 'nearest_coord': (-37.814361, 144.998739)}",1154.7,138.4
595.0,1,2,1,Apartment / Unit / Flat,B603/10 Trenerry Crescent,ABBOTSFORD,3067.0,-37.799652,145.00117,"Collingwood College1 km awayPrep-12CoEdGovernmentView Catchment,Abbotsford Primary School1.1 km awayPrep-6CoEdGovernmentMore Info,Clifton Hill Primary School1.3 km awayPrep-6CoEdGovernmentMore Info",False,206071139.0,"{'dist': 1.383321406458626, 'nearest_coord': (-37.804706, 145.015557)}",1733.2,248.3
530.0,1,1,0,Apartment / Unit / Flat,102/631 Victoria Street,ABBOTSFORD,3067.0,-37.81123,145.00946,"Yarra Primary School0.4 km awayPrep-6CoEdGovernmentView Catchment,Richmond High School0.9 km away7-12CoEdGovernmentView Catchment,Richmond High School-Gleadell Street Campus0.9 km away7CoEdGovernmentView Catchment",False,206071139.0,"{'dist': 0.9017544128949266, 'nearest_coord': (-37.804706, 145.015557)}",2166.6,257.9
700.0,2,2,2,Apartment / Unit / Flat,804/4 Acacia Place,ABBOTSFORD,3067.0,-37.81176,145.01414,"Yarra Primary School0.7 km awayPrep-6CoEdGovernmentView Catchment,Melbourne Girls College1.2 km away7-12GirlsGovernmentView Catchment,Richmond High School1.2 km away7-12CoEdGovernmentView Catchment",False,206071139.0,"{'dist': 0.794187109747343, 'nearest_coord': (-37.804706, 145.015557)}",1753.4,186.0
895.0,2,3,1,Townhouse,5/1 Abbott St,ABBOTSFORD,3067.0,-37.797054,144.9961,"Clifton Hill Primary School0.8 km awayPrep-6CoEdGovernmentView Catchment,Collingwood College0.8 km awayPrep-12CoEdGovernmentView Catchment,Fitzroy High School - Wurun Senior Campus1.2 km awayGovernmentMore Info",False,206071139.0,"{'dist': 1.7146928493941034, 'nearest_coord': (-37.78931, 145.012975)}",3798.8,522.8
660.0,1,2,0,House,98 Yarra Street,ABBOTSFORD,3067.0,-37.802246,144.99825,"Collingwood College0.7 km awayPrep-12CoEdGovernmentView Catchment,Abbotsford Primary School0.8 km awayPrep-6CoEdGovernmentMore Info,Richmond West Primary School1.3 km awayPrep-6CoEdGovernmentMore Info",False,206071139.0,"{'dist': 1.3478132435848023, 'nearest_coord': (-37.814361, 144.998739)}",1965.1,279.9
590.0,1,2,1,Townhouse,3/2 Princes Street,ABBOTSFORD,3067.0,-37.809273,144.99985,"Abbotsford Primary School0.1 km awayPrep-6CoEdGovernmentView Catchment,Richmond High School-Gleadell Street Campus0.9 km away7CoEdGovernmentView Catchment,Richmond High School0.9 km away7-12CoEdGovernmentView Catchment",False,206071139.0,"{'dist': 0.574117128721897, 'nearest_coord': (-37.814361, 144.998739)}",825.6,126.4
580.0,1,2,1,Apartment / Unit / Flat,230/4 Acacia Pl,ABBOTSFORD,3067.0,-37.81177,145.01414,"Yarra Primary School0.7 km awayPrep-6CoEdGovernmentView Catchment,Melbourne Girls College1.2 km away7-12GirlsGovernmentView Catchment,Richmond High School1.2 km away7-12CoEdGovernmentView Catchment",False,206071139.0,"{'dist': 0.7952853334805661, 'nearest_coord': (-37.804706, 145.015557)}",1753.1,186.0
5502390.0,1,1,0,Apartment / Unit / Flat,214/20 Shamrock Street,ABBOTSFORD,3067.0,-37.810143,145.00822,"Yarra Primary School0.5 km awayPrep-6CoEdGovernmentView Catchment,Richmond High School-Gleadell Street Campus0.9 km away7CoEdGovernmentView Catchment,Richmond High School1 km away7-12CoEdGovernmentView Catchment",True,206071139.0,"{'dist': 0.8837293910965612, 'nearest_coord': (-37.804706, 145.015557)}",2572.5,324.0
5002173.0,1,2,1,Apartment / Unit / Flat,105/112 - 120 Vere Street,ABBOTSFORD,3067.0,-37.802456,144.99345,"Collingwood College0.3 km awayPrep-12CoEdGovernmentView Catchment,Abbotsford Primary School0.9 km awayPrep-6CoEdGovernmentMore Info,Fitzroy Primary School1.1 km awayPrep-6CoEdGovernmentMore Info",False,206071139.0,"{'dist': 1.229975664645971, 'nearest_coord': (-37.810694, 144.984107)}",1658.5,255.1
485.0,1,1,0,Apartment / Unit / Flat,418/4 Acacia Place,ABBOTSFORD,3067.0,-37.81176,145.01414,"Yarra Primary School0.7 km awayPrep-6CoEdGovernmentView Catchment,Melbourne Girls College1.2 km away7-12GirlsGovernmentView Catchment,Richmond High School1.2 km away7-12CoEdGovernmentView Catchment",False,206071139.0,"{'dist': 0.794187109747343, 'nearest_coord': (-37.804706, 145.015557)}",1753.4,186.0
4752064.0,1,2,0,Apartment / Unit / Flat,208/20 Shamrock Street,ABBOTSFORD,3067.0,-37.810143,145.00822,"Yarra Primary School0.5 km awayPrep-6CoEdGovernmentView Catchment,Richmond High School-Gleadell Street Campus0.9 km away7CoEdGovernmentView Catchment,Richmond High School1 km away7-12CoEdGovernmentView Catchment",False,206071139.0,"{'dist': 0.8837293910965612, 'nearest_coord': (-37.804706, 145.015557)}",2572.5,324.0
4301868.0,1,1,1,Apartment / Unit / Flat,104/125 Turner Street,ABBOTSFORD,3067.0,-37.7992,145.00105,"Collingwood College1 km awayPrep-12CoEdGovernmentView Catchment,Abbotsford Primary School1.1 km awayPrep-6CoEdGovernmentMore Info,Clifton Hill Primary School1.3 km awayPrep-6CoEdGovernmentMore Info",False,206071139.0,"{'dist': 1.4139904738872777, 'nearest_coord': (-37.804706, 145.015557)}",1753.1,251.3
750.0,2,2,1,Apartment / Unit / Flat,720/627 Victoria Street,ABBOTSFORD,3067.0,-37.811188,145.00966,"Yarra Primary School0.4 km awayPrep-6CoEdGovernmentView Catchment,Richmond High School0.9 km away7-12CoEdGovernmentView Catchment,Richmond High School-Gleadell Street Campus0.9 km away7CoEdGovernmentView Catchment",False,206071139.0,"{'dist': 0.8876335404188759, 'nearest_coord': (-37.804706, 145.015557)}",2152.8,258.1
500.0,1,1,0,Apartment / Unit / Flat,707/4 Acacia Place,ABBOTSFORD,3067.0,-37.81176,145.01414,"Yarra Primary School0.7 km awayPrep-6CoEdGovernmentView Catchment,Melbourne Girls College1.2 km away7-12GirlsGovernmentView Catchment,Richmond High School1.2 km away7-12CoEdGovernmentView Catchment",True,206071139.0,"{'dist': 0.794187109747343, 'nearest_coord': (-37.804706, 145.015557)}",1753.4,186.0
2900.0,3,3,2,Apartment / Unit / Flat,401/312 Johnston Street,ABBOTSFORD,3067.0,-37.799957,144.99583,"Collingwood College0.6 km awayPrep-12CoEdGovernmentView Catchment,Clifton Hill Primary School1 km awayPrep-6CoEdGovernmentMore Info,Abbotsford Primary School1 km awayPrep-6CoEdGovernmentMore Info",True,206071139.0,"{'dist': 1.576751492479863, 'nearest_coord': (-37.810694, 144.984107)}",2134.0,328.7
900.0,2,2,1,Apartment / Unit / Flat,109/6 Acacia place,ABBOTSFORD,3067.0,-37.81176,145.01414,"Yarra Primary School0.7 km awayPrep-6CoEdGovernmentView Catchment,Melbourne Girls College1.2 km away7-12GirlsGovernmentView Catchment,Richmond High School1.2 km away7-12CoEdGovernmentView Catchment",True,206071139.0,"{'dist': 0.794187109747343, 'nearest_coord': (-37.804706, 145.015557)}",1753.4,186.0
795.0,2,2,1,Apartment / Unit / Flat,A914/627 Victoria Street,ABBOTSFORD,3067.0,-37.810673,145.00867,"Yarra Primary School0.5 km awayPrep-6CoEdGovernmentView Catchment,Richmond High School0.9 km away7-12CoEdGovernmentView Catchment,Richmond High School-Gleadell Street Campus0.9 km away7CoEdGovernmentView Catchment",True,206071139.0,"{'dist': 0.8979447706672629, 'nearest_coord': (-37.804706, 145.015557)}",2314.8,288.6
775.0,2,2,1,Apartment / Unit / Flat,B620/631 Victoria Street,ABBOTSFORD,3067.0,-37.81123,145.00946,"Yarra Primary School0.4 km awayPrep-6CoEdGovernmentView Catchment,Richmond High School0.9 km away7-12CoEdGovernmentView Catchment,Richmond High School-Gleadell Street Campus0.9 km away7CoEdGovernmentView Catchment",False,206071139.0,"{'dist': 0.9017544128949266, 'nearest_coord': (-37.804706, 145.015557)}",2166.6,257.9
750.0,2,2,1,Apartment / Unit / Flat,B611/631 Victoria Street,ABBOTSFORD,3067.0,-37.81123,145.00946,"Yarra Primary School0.4 km awayPrep-6CoEdGovernmentView Catchment,Richmond High School0.9 km away7-12CoEdGovernmentView Catchment,Richmond High School-Gleadell Street Campus0.9 km away7CoEdGovernmentView Catchment",False,206071139.0,"{'dist': 0.9017544128949266, 'nearest_coord': (-37.804706, 145.015557)}",2166.6,257.9
680.0,1,2,1,Apartment / Unit / Flat,506/251 Johnston Street,ABBOTSFORD,3067.0,-37.80016,144.9948,"Collingwood College0.5 km awayPrep-12CoEdGovernmentView Catchment,Clifton Hill Primary School1 km awayPrep-6CoEdGovernmentMore Info,Abbotsford Primary School1.1 km awayPrep-6CoEdGovernmentMore Info",False,206071139.0,"{'dist': 1.5015142047356034, 'nearest_coord': (-37.810694, 144.984107)}",2045.0,319.6
550.0,1,1,1,Apartment / Unit / Flat,611 Victoria Street,ABBOTSFORD,3067.0,-37.811085,145.00761,"Yarra Primary School0.4 km awayPrep-6CoEdGovernmentView Catchment,Richmond High School-Gleadell Street Campus0.8 km away7CoEdGovernmentView Catchment,Richmond High School0.8 km away7-12CoEdGovernmentView Catchment",True,206071139.0,"{'dist': 0.8602206506730078, 'nearest_coord': (-37.814361, 144.998739)}",1154.7,138.4
870.0,1,3,1,Townhouse,201 Roseneath Street,CLIFTON HILL,3068.0,-37.793175,145.00171,"Spensley Street Primary School0.7 km awayPrep-6CoEdGovernmentView Catchment,Collingwood College1.5 km awayPrep-12CoEdGovernmentView Catchment,Croxton Special School3.5 km awayUCoEdGovernmentView Catchment",False,206071145.0,"{'dist': 1.0791454224417916, 'nearest_coord': (-37.78931, 145.012975)}",2995.1,414.4
500.0,1,1,1,Apartment / Unit / Flat,303/247 Gold Street,CLIFTON HILL,3068.0,-37.789185,144.99048,"Clifton Hill Primary School0.4 km awayPrep-6CoEdGovernmentView Catchment,Fitzroy High School0.5 km away7-12CoEdGovernmentView Catchment,Croxton Special School2.8 km awayUCoEdGovernmentView Catchment",False,206071145.0,"{'dist': 1.976777665616672, 'nearest_coord': (-37.78931, 145.012975)}",3060.1,399.9
670.0,1,2,0,House,10 Peckville Street,CLIFTON HILL,3068.0,-37.79296,144.99147,"Clifton Hill Primary School0.2 km awayPrep-6CoEdGovernmentView Catchment,Fitzroy High School1 km away7-12CoEdGovernmentView Catchment,Croxton Special School3.2 km awayUCoEdGovernmentView Catchment",False,206071145.0,"{'dist': 1.9327788005719013, 'nearest_coord': (-37.78931, 145.012975)}",3390.8,515.6
860.0,2,3,1,Townhouse,167 Ramsden Street,CLIFTON HILL,3068.0,-37.791275,145.00185,"Spensley Street Primary School0.5 km awayPrep-6CoEdGovernmentView Catchment,Fitzroy High School1.5 km away7-12CoEdGovernmentView Catchment,Croxton Special School3.3 km awayUCoEdGovernmentView Catchment",False,206071145.0,"{'dist': 1.001706493770486, 'nearest_coord': (-37.78931, 145.012975)}",2665.4,364.1
850.0,1,3,1,House,22 Aitken St,CLIFTON HILL,3068.0,-37.791378,145.00056,"Spensley Street Primary School0.6 km awayPrep-6CoEdGovernmentView Catchment,Fitzroy High School1.4 km away7-12CoEdGovernmentView Catchment,Croxton Special School3.3 km awayUCoEdGovernmentView Catchment",False,206071145.0,"{'dist': 1.1149127861836021, 'nearest_coord': (-37.78931, 145.012975)}",2680.3,364.4
5502390.0,1,2,2,Apartment / Unit / Flat,12/56 John Street,CLIFTON HILL,3068.0,-37.78731,144.9958,"Spensley Street Primary School0.7 km awayPrep-6CoEdGovernmentView Catchment,Fitzroy High School0.8 km away7-12CoEdGovernmentView Catchment,Croxton Special School2.7 km awayUCoEdGovernmentView Catchment",False,206071145.0,"{'dist': 1.525554209029536, 'nearest_coord': (-37.78931, 145.012975)}",2352.4,321.3
8653759.0,3,3,1,Townhouse,88 Alexandra Parade,CLIFTON HILL,3068.0,-37.79409,144.99028,"Clifton Hill Primary School0.2 km awayPrep-6CoEdGovernmentView Catchment,Collingwood College1 km awayPrep-12CoEdGovernmentView Catchment,Croxton Special School3.3 km awayUCoEdGovernmentView Catchment",False,206071145.0,"{'dist': 1.835318963894892, 'nearest_coord': (-37.809284, 144.98212)}",2455.0,411.0
7003041.0,1,2,0,House,46 Hilton Street,CLIFTON HILL,3068.0,-37.791622,144.98763,"Clifton Hill Primary School0.2 km awayPrep-6CoEdGovernmentView Catchment,Fitzroy High School0.7 km away7-12CoEdGovernmentView Catchment,Croxton Special School3.1 km awayUCoEdGovernmentView Catchment",False,206071145.0,"{'dist': 1.9850178867443244, 'nearest_coord': (-37.806545, 144.975231)}",2964.7,383.8
6802955.0,1,2,0,House,24 Ramsden Street,CLIFTON HILL,3068.0,-37.790234,144.99641,"Clifton Hill Primary School0.7 km awayPrep-6CoEdGovernmentView Catchment,Fitzroy High School1 km away7-12CoEdGovernmentView Catchment,Croxton Special School3 km awayUCoEdGovernmentView Catchment",False,206071145.0,"{'dist': 1.4592463738064092, 'nearest_coord': (-37.78931, 145.012975)}",2652.7,373.7
6502824.0,1,2,0,House,6 Abbott Grove,CLIFTON HILL,3068.0,-37.78887,144.99875,"Spensley Street Primary School0.5 km awayPrep-6CoEdGovernmentView Catchment,Fitzroy High School1.1 km away7-12CoEdGovernmentView Catchment,Croxton Special School2.9 km awayUCoEdGovernmentView Catchment",False,206071145.0,"{'dist': 1.2509694394582271, 'nearest_coord': (-37.78931, 145.012975)}",2364.5,321.8
6252716.0,1,2,0,House,13 Hilton Street,CLIFTON HILL,3068.0,-37.793064,144.98729,"Clifton Hill Primary School0.2 km awayPrep-6CoEdGovernmentView Catchment,Fitzroy High School0.9 km away7-12CoEdGovernmentView Catchment,Croxton Special School3.2 km awayUCoEdGovernmentView Catchment",False,206071145.0,"{'dist': 1.835661297279739, 'nearest_coord': (-37.806545, 144.975231)}",2941.6,385.3
550.0,1,2,1,Apartment / Unit / Flat,3/31-33 Heidelberg Road,CLIFTON HILL,3068.0,-37.786667,144.99751,"Spensley Street Primary School0.6 km awayPrep-6CoEdGovernmentView Catchment,Fitzroy High School0.9 km away7-12CoEdGovernmentView Catchment,Croxton Special School2.7 km awayUCoEdGovernmentView Catchment",False,206071145.0,"{'dist': 1.3904109692293931, 'nearest_coord': (-37.78931, 145.012975)}",2335.6,318.2
4201825.0,1,1,1,Apartment / Unit / Flat,5/18 South Terrace,CLIFTON HILL,3068.0,-37.792446,144.9934,"Clifton Hill Primary School0.4 km awayPrep-6CoEdGovernmentView Catchment,Fitzroy High School1 km away7-12CoEdGovernmentView Catchment,Croxton Special School3.2 km awayUCoEdGovernmentView Catchment",False,206071145.0,"{'dist': 1.7550884475552744, 'nearest_coord': (-37.78931, 145.012975)}",3144.8,455.7
1200.0,1,4,0,House,30 Council Street,CLIFTON HILL,3068.0,-37.792355,144.98682,"Clifton Hill Primary School0.2 km awayPrep-6CoEdGovernmentView Catchment,Fitzroy High School0.8 km away7-12CoEdGovernmentView Catchment,Croxton Special School3.1 km awayUCoEdGovernmentView Catchment",False,206071145.0,"{'dist': 1.8778803571039977, 'nearest_coord': (-37.806545, 144.975231)}",2851.2,363.7
500.0,1,1,1,Apartment / Unit / Flat,3/264 Alexandra Parade,CLIFTON HILL,3068.0,-37.794968,144.99976,"Clifton Hill Primary School1 km awayPrep-6CoEdGovernmentView Catchment,Collingwood College1.2 km awayPrep-12CoEdGovernmentView Catchment,Croxton Special School3.6 km awayUCoEdGovernmentView Catchment",False,206071145.0,"{'dist': 1.320693430745624, 'nearest_coord': (-37.78931, 145.012975)}",3153.3,477.7
685.0,2,2,1,Apartment / Unit / Flat,19/137 McKean Street,FITZROY NORTH,3068.0,-37.788445,144.98721,"Fitzroy High School0.4 km away7-12CoEdGovernmentView Catchment,Clifton Hill Primary School0.5 km awayPrep-6CoEdGovernmentView Catchment,Croxton Special School2.7 km awayUCoEdGovernmentView Catchment",False,206071143.0,"{'dist': 2.2661307086052553, 'nearest_coord': (-37.78931, 145.012975)}",3094.0,421.5
1200.0,3,4,2,Townhouse,24 Miller Street,FITZROY NORTH,3068.0,-37.776646,144.98009,"Merri Creek Primary School0.7 km awayPrep-6CoEdGovernmentView Catchment,Northcote High School0.9 km away7-12CoEdGovernmentView Catchment,Croxton Special School1.5 km awayUCoEdGovernmentView Catchment",False,206071143.0,"{'dist': 2.8263045330332073, 'nearest_coord': (-37.778813, 144.948049)}",3436.4,445.3
710.0,1,2,1,Apartment / Unit / Flat,86/682 Nicholson Street,FITZROY NORTH,3068.0,-37.78333,144.97783,"Fitzroy North Primary School0.6 km awayPrep-6CoEdGovernmentView Catchment,Fitzroy High School0.9 km away7-12CoEdGovernmentView Catchment,Croxton Special School2.3 km awayUCoEdGovernmentView Catchment",False,206071143.0,"{'dist': 2.125810148410917, 'nearest_coord': (-37.799299, 144.964529)}",2821.7,284.5
675.0,2,2,1,Apartment / Unit / Flat,507/392 St Georges Road,FITZROY NORTH,3068.0,-37.778294,144.98839,"Merri Creek Primary School0.2 km awayPrep-6CoEdGovernmentView Catchment,Northcote High School0.5 km away7-12CoEdGovernmentView Catchment,Croxton Special School1.6 km awayUCoEdGovernmentView Catchment",False,206071143.0,"{'dist': 2.4836255349079024, 'nearest_coord': (-37.78931, 145.012975)}",3381.4,559.5
650.0,2,2,1,Townhouse,7/672 Nicholson Street,FITZROY NORTH,3068.0,-37.78378,144.97772,"Fitzroy North Primary School0.6 km awayPrep-6CoEdGovernmentView Catchment,Fitzroy High School0.9 km away7-12CoEdGovernmentView Catchment,Croxton Special School2.4 km awayUCoEdGovernmentView Catchment",False,206071143.0,"{'dist': 2.078788488221154, 'nearest_coord': (-37.799299, 144.964529)}",2770.8,280.5
685.0,1,2,0,House,154 Rae Street,FITZROY NORTH,3068.0,-37.788883,144.97934,"Fitzroy North Primary School0.6 km awayPrep-6CoEdGovernmentView Catchment,Fitzroy High School0.8 km away7-12CoEdGovernmentView Catchment,Croxton Special School2.9 km awayUCoEdGovernmentView Catchment",False,206071143.0,"{'dist': 1.7421641950955784, 'nearest_coord': (-37.799299, 144.964529)}",2452.9,297.2
650.0,1,2,1,Townhouse,2/157 Holden Street,FITZROY NORTH,3068.0,-37.77961,144.98535,"Merri Creek Primary School0.4 km awayPrep-6CoEdGovernmentView Catchment,Fitzroy High School0.6 km away7-12CoEdGovernmentView Catchment,Croxton Special School1.7 km awayUCoEdGovernmentView Catchment",False,206071143.0,"{'dist': 2.6565002344208226, 'nearest_coord': (-37.78931, 145.012975)}",4162.2,553.4
5902564.0,2,2,1,Apartment / Unit / Flat,202/58- 72 Queens Parade,FITZROY NORTH,3068.0,-37.791965,144.98161,"Clifton Hill Primary School0.7 km awayPrep-6CoEdGovernmentView Catchment,Fitzroy High School0.9 km away7-12CoEdGovernmentView Catchment,Croxton Special School3.1 km awayUCoEdGovernmentView Catchment",False,206071143.0,"{'dist': 1.7080966657951129, 'nearest_coord': (-37.799299, 144.964529)}",2561.7,336.1
520.0,1,1,1,Apartment / Unit / Flat,5/38-42 York Street,FITZROY NORTH,3068.0,-37.792007,144.97748,"Carlton North Primary School0.4 km awayPrep-6CoEdGovernmentView Catchment,Fitzroy High School1.2 km away7-12CoEdGovernmentView Catchment,Croxton Special School3.2 km awayUCoEdGovernmentView Catchment",False,206071143.0,"{'dist': 1.3972845539310652, 'nearest_coord': (-37.799299, 144.964529)}",2018.7,230.7
2100.0,2,5,1,House,24 Rowe Street,FITZROY NORTH,3068.0,-37.786686,144.98795,"Fitzroy High School0.2 km away7-12CoEdGovernmentView Catchment,Fitzroy North Primary School0.4 km awayPrep-6CoEdGovernmentView Catchment,Croxton Special School2.5 km awayUCoEdGovernmentView Catchment",False,206071143.0,"{'dist': 2.2183595884969542, 'nearest_coord': (-37.78931, 145.012975)}",3118.2,428.5
1410.0,2,3,1,Apartment / Unit / Flat,249 Queens Parade,FITZROY NORTH,3068.0,-37.78611,144.99472,"Fitzroy High School0.7 km away7-12CoEdGovernmentView Catchment,Spensley Street Primary School0.8 km awayPrep-6CoEdGovernmentView Catchment,Croxton Special School2.5 km awayUCoEdGovernmentView Catchment",True,206071143.0,"{'dist': 1.6431649244597635, 'nearest_coord': (-37.78931, 145.012975)}",2812.2,378.4
1100.0,2,3,1,Townhouse,12/22-28 Best Street,FITZROY NORTH,3068.0,-37.78421,144.98335,"Fitzroy North Primary School0.1 km awayPrep-6CoEdGovernmentView Catchment,Fitzroy High School0.4 km away7-12CoEdGovernmentView Catchment,Croxton Special School2.3 km awayUCoEdGovernmentView Catchment",True,206071143.0,"{'dist': 2.355890388158993, 'nearest_coord': (-37.799299, 144.964529)}",3239.8,353.1
995.0,2,2,1,Townhouse,186 Queens Pde,FITZROY NORTH,3068.0,-37.79004,144.98575,"Clifton Hill Primary School0.4 km awayPrep-6CoEdGovernmentView Catchment,Fitzroy High School0.6 km away7-12CoEdGovernmentView Catchment,Croxton Special School2.9 km awayUCoEdGovernmentView Catchment",True,206071143.0,"{'dist': 2.0548586315150805, 'nearest_coord': (-37.806545, 144.975231)}",3029.1,429.1
850.0,2,2,1,Apartment / Unit / Flat,249 Queens Parade,FITZROY NORTH,3068.0,-37.78611,144.99472,"Fitzroy High School0.7 km away7-12CoEdGovernmentView Catchment,Spensley Street Primary School0.8 km awayPrep-6CoEdGovernmentView Catchment,Croxton Special School2.5 km awayUCoEdGovernmentView Catchment",True,206071143.0,"{'dist': 1.6431649244597635, 'nearest_coord': (-37.78931, 145.012975)}",2812.2,378.4
8203563.0,1,2,0,House,4 Ivan Street,FITZROY NORTH,3068.0,-37.782787,144.98715,"Fitzroy High School0.2 km away7-12CoEdGovernmentView Catchment,Fitzroy North Primary School0.4 km awayPrep-6CoEdGovernmentView Catchment,Croxton Special School2.1 km awayUCoEdGovernmentView Catchment",False,206071143.0,"{'dist': 2.3825387732971617, 'nearest_coord': (-37.78931, 145.012975)}",3431.5,476.2
7753368.0,1,2,0,House,38 Fergie Street,FITZROY NORTH,3068.0,-37.784492,144.98477,"Fitzroy North Primary School0.1 km awayPrep-6CoEdGovernmentView Catchment,Fitzroy High School0.2 km away7-12CoEdGovernmentView Catchment,Croxton Special School2.3 km awayUCoEdGovernmentView Catchment",False,206071143.0,"{'dist': 2.4236863088126936, 'nearest_coord': (-37.799299, 144.964529)}",3595.1,419.5
6602868.0,2,2,1,Apartment / Unit / Flat,92A Fergie Street,FITZROY NORTH,3068.0,-37.782425,144.98505,"Fitzroy North Primary School0.3 km awayPrep-6CoEdGovernmentView Catchment,Fitzroy High School0.3 km away7-12CoEdGovernmentView Catchment,Croxton Special School2.1 km awayUCoEdGovernmentView Catchment",False,206071143.0,"{'dist': 2.570644706768164, 'nearest_coord': (-37.78931, 145.012975)}",3656.2,503.2
650.0,1,2,1,Apartment / Unit / Flat,29/682 Nicholson Street,FITZROY NORTH,3068.0,-37.78333,144.97783,"Fitzroy North Primary School0.6 km awayPrep-6CoEdGovernmentView Catchment,Fitzroy High School0.9 km away7-12CoEdGovernmentView Catchment,Croxton Special School2.3 km awayUCoEdGovernmentView Catchment",False,206071143.0,"{'dist': 2.125810148410917, 'nearest_coord': (-37.799299, 144.964529)}",2821.7,284.5
595.0,1,1,1,Apartment / Unit / Flat,249 Queens Parade,FITZROY NORTH,3068.0,-37.78611,144.99472,"Fitzroy High School0.7 km away7-12CoEdGovernmentView Catchment,Spensley Street Primary School0.8 km awayPrep-6CoEdGovernmentView Catchment,Croxton Special School2.5 km awayUCoEdGovernmentView Catchment",True,206071143.0,"{'dist': 1.6431649244597635, 'nearest_coord': (-37.78931, 145.012975)}",2812.2,378.4
515.0,1,2,1,Apartment / Unit / Flat,4/16 Nicholson Street,FITZROY NORTH,3068.0,-37.775085,144.97964,"Merri Creek Primary School0.7 km awayPrep-6CoEdGovernmentView Catchment,Northcote High School0.9 km away7-12CoEdGovernmentView Catchment,Croxton Special School1.4 km awayUCoEdGovernmentView Catchment",False,206071143.0,"{'dist': 2.8072687963950735, 'nearest_coord': (-37.778813, 144.948049)}",3845.3,454.2
500.0,1,2,1,Apartment / Unit / Flat,9/55-59 York Street,FITZROY NORTH,3068.0,-37.791706,144.97803,"Carlton North Primary School0.4 km awayPrep-6CoEdGovernmentView Catchment,Fitzroy High School1.1 km away7-12CoEdGovernmentView Catchment,Croxton Special School3.2 km awayUCoEdGovernmentView Catchment",False,206071143.0,"{'dist': 1.4560665278073048, 'nearest_coord': (-37.799299, 144.964529)}",2081.9,242.2
