price,bathrooms,bedrooms,parking,type,street,suburb,postcode,latitude,longitude,school,furnished,SA2_code,nearestSchool,School_distance,to_School_time
470.0,2,4,2,House,16 Allspice Street,MANOR LAKES,3024.0,-37.86272,144.59718,"Ngarri Primary School1.2 km awayPrep-6CoEdGovernmentView Catchment,Manor Lakes P-12 College1.3 km awayPrep-12CoEdGovernmentView Catchment,Brinbeal Secondary College4 km awayGovernmentMore Info",False,213051579.0,"{'dist': 39.376952923595944, 'nearest_coord': (-37.5191919, 144.705837)}",73152.8,3930.8
470.0,2,3,1,House,5 Graded Street,MANOR LAKES,3024.0,-37.8633,144.57654,"Ngarri Primary School0.8 km awayPrep-6CoEdGovernmentView Catchment,Manor Lakes P-12 College2.6 km awayPrep-12CoEdGovernmentView Catchment,Our Lady of the Southern Cross3 km awayPrep-6CoEdCatholicMore Info",False,213051579.0,"{'dist': 39.91866887468774, 'nearest_coord': (-37.5191919, 144.705837)}",75776.0,4233.8
460.0,2,3,1,House,16 Brushton Street,MANOR LAKES,3024.0,-37.875862,144.58565,"Ngarri Primary School1 km awayPrep-6CoEdGovernmentView Catchment,Manor Lakes P-12 College1.5 km awayPrep-12CoEdGovernmentView Catchment,Walcom Ngarrwa Secondary College3.9 km awayGovernmentMore Info",False,213051579.0,"{'dist': 41.04546258472738, 'nearest_coord': (-37.5191919, 144.705837)}",75431.0,4164.9
440.0,2,3,2,House,17 Edenvale Street,MANOR LAKES,3024.0,-37.86755,144.59514,"Manor Lakes P-12 College1 km awayPrep-12CoEdGovernmentView Catchment,Ngarri Primary School0.9 km awayPrep-6CoEdGovernmentMore Info,Laa Yulta Primary School2 km awayGovernmentMore Info",False,213051579.0,"{'dist': 39.941483153559425, 'nearest_coord': (-37.5191919, 144.705837)}",74146.3,3994.3
400.0,2,3,2,House,10 Cassata Road,MANOR LAKES,3024.0,-37.86691,144.57591,"Ngarri Primary School0.8 km awayPrep-6CoEdGovernmentView Catchment,Manor Lakes P-12 College2.5 km awayPrep-12CoEdGovernmentView Catchment,Our Lady of the Southern Cross2.8 km awayPrep-6CoEdCatholicMore Info",False,213051579.0,"{'dist': 40.319201403081905, 'nearest_coord': (-37.5191919, 144.705837)}",75536.4,4209.0
600.0,2,4,2,House,24 Goodison Grove,MOUNT COTTRELL,3024.0,-37.82841,144.6485,"Tarneit Rise Primary School1.7 km awayPrep-6CoEdGovernmentView Catchment,Tarneit Senior College2.8 km away10-12CoEdGovernmentView Catchment,Tarneit P-9 College3 km awayPrep-9CoEdGovernmentView Catchment",False,213051582.0,"{'dist': 34.75186743207128, 'nearest_coord': (-37.5191919, 144.705837)}",46032.1,3271.4
1200.0,2,1,4,House,1407 Dohertys Road,MOUNT COTTRELL,3024.0,-37.815697,144.64928,"Tarneit Senior College3.3 km away10-12CoEdGovernmentView Catchment,Tarneit P-9 College3.6 km awayPrep-9CoEdGovernmentView Catchment,Wimba Primary School2 km awayGovernmentMore Info",False,213051582.0,"{'dist': 33.34360567891424, 'nearest_coord': (-37.5191919, 144.705837)}",44061.6,3060.7
470.0,2,4,2,House,24 Fusion Drive,WYNDHAM VALE,3024.0,-37.861927,144.60197,"Manor Lakes P-12 College1.4 km awayPrep-12CoEdGovernmentView Catchment,Ngarri Primary School1.6 km awayPrep-6CoEdGovernmentMore Info,Laa Yulta Primary School2.7 km awayGovernmentMore Info",False,213051589.0,"{'dist': 39.19100587195183, 'nearest_coord': (-37.5191919, 144.705837)}",73442.6,3937.2
430.0,1,3,1,House,9 Clover Lane,WYNDHAM VALE,3024.0,-37.88658,144.62262,"Riverbend Primary School1.1 km awayPrep-6CoEdGovernmentView Catchment,Manor Lakes P-12 College2.3 km awayPrep-12CoEdGovernmentView Catchment,Wyndham Central Secondary College2.7 km away7-12CoEdGovernmentMore Info",False,213051590.0,"{'dist': 41.50258301794482, 'nearest_coord': (-37.5191919, 144.705837)}",52913.5,3872.2
430.0,2,3,1,House,56 Grangehill Mews,WYNDHAM VALE,3024.0,-37.84955,144.59538,"Ngarri Primary School2.1 km awayPrep-6CoEdGovernmentView Catchment,Manor Lakes P-12 College2.8 km awayPrep-12CoEdGovernmentView Catchment,Brinbeal Secondary College4.1 km awayGovernmentMore Info",False,213051589.0,"{'dist': 37.99842485960137, 'nearest_coord': (-37.5191919, 144.705837)}",73201.1,3944.6
520.0,2,4,2,House,10 Tasker Street,WYNDHAM VALE,3024.0,-37.86878,144.61858,"Riverbend Primary School1.2 km awayPrep-6CoEdGovernmentView Catchment,Manor Lakes P-12 College1.6 km awayPrep-12CoEdGovernmentView Catchment,Brinbeal Secondary College2.6 km awayGovernmentMore Info",False,213051589.0,"{'dist': 39.623391662972566, 'nearest_coord': (-37.5191919, 144.705837)}",54727.5,4045.6
510.0,2,4,2,House,59 Welcome Parade,WYNDHAM VALE,3024.0,-37.852295,144.59398,"Ngarri Primary School1.8 km awayPrep-6CoEdGovernmentView Catchment,Manor Lakes P-12 College2.5 km awayPrep-12CoEdGovernmentView Catchment,Brinbeal Secondary College4.2 km awayGovernmentMore Info",False,213051589.0,"{'dist': 38.32498928546742, 'nearest_coord': (-37.5191919, 144.705837)}",72677.4,3893.2
5002173.0,2,4,2,House,5 Somerdale Avenue,WYNDHAM VALE,3024.0,-37.873577,144.6249,"Riverbend Primary School0.5 km awayPrep-6CoEdGovernmentView Catchment,Manor Lakes P-12 College2 km awayPrep-12CoEdGovernmentView Catchment,Brinbeal Secondary College2.6 km awayGovernmentMore Info",False,213051589.0,"{'dist': 40.044156303544334, 'nearest_coord': (-37.5191919, 144.705837)}",54053.7,4038.1
480.0,2,3,1,Townhouse,13 Wheatsheaf Road,WYNDHAM VALE,3024.0,-37.863182,144.62146,"Riverbend Primary School1.6 km awayPrep-6CoEdGovernmentView Catchment,Manor Lakes P-12 College2.1 km awayPrep-12CoEdGovernmentView Catchment,Brinbeal Secondary College2 km awayGovernmentMore Info",False,213051589.0,"{'dist': 38.96388246012421, 'nearest_coord': (-37.5191919, 144.705837)}",55697.0,4177.2
500.0,2,3,2,House,10 Amadeus Street,WYNDHAM VALE,3024.0,-37.877712,144.6016,"Manor Lakes P-12 College0.4 km awayPrep-12CoEdGovernmentView Catchment,Laa Yulta Primary School1 km awayGovernmentMore Info,Ngarri Primary School1.9 km awayPrep-6CoEdGovernmentMore Info",False,213051579.0,"{'dist': 40.90694255523386, 'nearest_coord': (-37.5191919, 144.705837)}",75545.1,4141.7
4480.0,2,4,2,House,75 Brightvale Boulevard,WYNDHAM VALE,3024.0,-37.86489,144.61717,"Riverbend Primary School1.6 km awayPrep-6CoEdGovernmentView Catchment,Manor Lakes P-12 College1.7 km awayPrep-12CoEdGovernmentView Catchment,Brinbeal Secondary College2.4 km awayGovernmentMore Info",False,213051589.0,"{'dist': 39.22365774461502, 'nearest_coord': (-37.5191919, 144.705837)}",55237.8,4119.1
540.0,2,4,2,House,1266 Ison Road,WYNDHAM VALE,3024.0,-37.863434,144.5983,"Manor Lakes P-12 College1.2 km awayPrep-12CoEdGovernmentView Catchment,Ngarri Primary School1.2 km awayPrep-6CoEdGovernmentMore Info,Laa Yulta Primary School2.4 km awayGovernmentMore Info",False,213051579.0,"{'dist': 39.430198873280276, 'nearest_coord': (-37.5191919, 144.705837)}",73614.5,3949.9
530.0,2,4,2,House,23 Eshal Crescent,WYNDHAM VALE,3024.0,-37.8679,144.62889,"Riverbend Primary School1 km awayPrep-6CoEdGovernmentView Catchment,Manor Lakes P-12 College2.4 km awayPrep-12CoEdGovernmentView Catchment,Brinbeal Secondary College1.9 km awayGovernmentMore Info",False,213051589.0,"{'dist': 39.36126978502276, 'nearest_coord': (-37.5191919, 144.705837)}",54968.0,4185.7
530.0,2,4,2,House,3 Worope Street,WYNDHAM VALE,3024.0,-37.86255,144.62102,"Riverbend Primary School1.7 km awayPrep-6CoEdGovernmentView Catchment,Manor Lakes P-12 College2.1 km awayPrep-12CoEdGovernmentView Catchment,Brinbeal Secondary College2 km awayGovernmentMore Info",False,213051589.0,"{'dist': 38.902311852848236, 'nearest_coord': (-37.5191919, 144.705837)}",55755.5,4189.6
520.0,2,4,2,House,47 Cloudburst Avenue,WYNDHAM VALE,3024.0,-37.867577,144.6182,"Riverbend Primary School1.3 km awayPrep-6CoEdGovernmentView Catchment,Manor Lakes P-12 College1.6 km awayPrep-12CoEdGovernmentView Catchment,Brinbeal Secondary College2.5 km awayGovernmentMore Info",False,213051589.0,"{'dist': 39.49869335914848, 'nearest_coord': (-37.5191919, 144.705837)}",54912.3,4072.2
500.0,2,3,2,House,1 Kilford Walk,WYNDHAM VALE,3024.0,-37.84839,144.58862,"Ngarri Primary School2.1 km awayPrep-6CoEdGovernmentView Catchment,Manor Lakes P-12 College3.1 km awayPrep-12CoEdGovernmentView Catchment,Brinbeal Secondary College4.7 km awayGovernmentMore Info",False,213051589.0,"{'dist': 38.030781553276626, 'nearest_coord': (-37.5191919, 144.705837)}",72450.5,3932.3
500.0,2,4,2,House,100 Ribblesdale Avenue,WYNDHAM VALE,3024.0,-37.89474,144.60822,"Wyndham Vale Primary School0.3 km awayPrep-6CoEdGovernmentView Catchment,Manor Lakes P-12 College2.3 km awayPrep-12CoEdGovernmentView Catchment,Walcom Ngarrwa Secondary College1.4 km awayGovernmentMore Info",False,213051590.0,"{'dist': 42.63294448461433, 'nearest_coord': (-37.5191919, 144.705837)}",54589.2,4044.4
500.0,2,4,2,House,11 Worope Street,WYNDHAM VALE,3024.0,-37.863598,144.62158,"Riverbend Primary School1.6 km awayPrep-6CoEdGovernmentView Catchment,Manor Lakes P-12 College2.1 km awayPrep-12CoEdGovernmentView Catchment,Brinbeal Secondary College2 km awayGovernmentMore Info",False,213051589.0,"{'dist': 39.00728093869265, 'nearest_coord': (-37.5191919, 144.705837)}",55676.4,4174.2
500.0,2,4,2,House,6 Bungalook Street,WYNDHAM VALE,3024.0,-37.864532,144.602,"Manor Lakes P-12 College1.1 km awayPrep-12CoEdGovernmentView Catchment,Ngarri Primary School1.5 km awayPrep-6CoEdGovernmentMore Info,Laa Yulta Primary School2.4 km awayGovernmentMore Info",False,213051579.0,"{'dist': 39.472092077273665, 'nearest_coord': (-37.5191919, 144.705837)}",73943.7,3985.2
485.0,2,4,2,House,17 Pembury Way,WYNDHAM VALE,3024.0,-37.898563,144.60655,"Wyndham Vale Primary School0.5 km awayPrep-6CoEdGovernmentView Catchment,Manor Lakes P-12 College2.7 km awayPrep-12CoEdGovernmentView Catchment,Walcom Ngarrwa Secondary College1 km awayGovernmentMore Info",False,213051590.0,"{'dist': 43.078916044706304, 'nearest_coord': (-37.5191919, 144.705837)}",55058.2,4131.8
480.0,2,4,2,House,8 Jessen Way,WYNDHAM VALE,3024.0,-37.84932,144.5932,"Ngarri Primary School2.1 km awayPrep-6CoEdGovernmentView Catchment,Manor Lakes P-12 College2.9 km awayPrep-12CoEdGovernmentView Catchment,Brinbeal Secondary College4.3 km awayGovernmentMore Info",False,213051589.0,"{'dist': 38.02326158915146, 'nearest_coord': (-37.5191919, 144.705837)}",72520.2,3940.6
480.0,2,3,2,Townhouse,1 Fritelli Circuit,WYNDHAM VALE,3024.0,-37.862633,144.60316,"Manor Lakes P-12 College1.3 km awayPrep-12CoEdGovernmentView Catchment,Ngarri Primary School1.7 km awayPrep-6CoEdGovernmentMore Info,Laa Yulta Primary School2.6 km awayGovernmentMore Info",False,213051589.0,"{'dist': 39.24310082755922, 'nearest_coord': (-37.5191919, 144.705837)}",73573.0,3956.0
500.0,2,3,1,House,20 Sprightly Street,WYNDHAM VALE,3024.0,-37.86147,144.60367,"Manor Lakes P-12 College1.4 km awayPrep-12CoEdGovernmentView Catchment,Ngarri Primary School1.8 km awayPrep-6CoEdGovernmentMore Info,Riverbend Primary School2.7 km awayPrep-6CoEdGovernmentMore Info",False,213051589.0,"{'dist': 39.106942200841445, 'nearest_coord': (-37.5191919, 144.705837)}",73670.3,3970.0
470.0,2,4,2,House,20 Burchelli Way,WYNDHAM VALE,3024.0,-37.89438,144.6074,"Wyndham Vale Primary School0.3 km awayPrep-6CoEdGovernmentView Catchment,Manor Lakes P-12 College2.3 km awayPrep-12CoEdGovernmentView Catchment,Walcom Ngarrwa Secondary College1.4 km awayGovernmentMore Info",False,213051590.0,"{'dist': 42.608342158876326, 'nearest_coord': (-37.5191919, 144.705837)}",54679.6,4051.4
470.0,2,4,2,Townhouse,18 Wetherby Road,WYNDHAM VALE,3024.0,-37.843925,144.59238,"Ngarri Primary School2.6 km awayPrep-6CoEdGovernmentView Catchment,Manor Lakes P-12 College3.5 km awayPrep-12CoEdGovernmentView Catchment,Brinbeal Secondary College4.5 km awayGovernmentMore Info",False,213051589.0,"{'dist': 37.463694704983276, 'nearest_coord': (-37.5191919, 144.705837)}",73217.5,4021.2
460.0,2,4,2,House,10 Plumstead Street,WYNDHAM VALE,3024.0,-37.850822,144.59735,"Ngarri Primary School2.1 km awayPrep-6CoEdGovernmentView Catchment,Manor Lakes P-12 College2.6 km awayPrep-12CoEdGovernmentView Catchment,Brinbeal Secondary College3.9 km awayGovernmentMore Info",False,213051589.0,"{'dist': 38.091338828516875, 'nearest_coord': (-37.5191919, 144.705837)}",73016.1,3920.6
460.0,2,3,2,House,53 Brightvale Boulevard,WYNDHAM VALE,3024.0,-37.865433,144.6152,"Manor Lakes P-12 College1.5 km awayPrep-12CoEdGovernmentView Catchment,Riverbend Primary School1.7 km awayPrep-6CoEdGovernmentMore Info,Brinbeal Secondary College2.6 km awayGovernmentMore Info",False,213051589.0,"{'dist': 39.31761899928841, 'nearest_coord': (-37.5191919, 144.705837)}",55120.4,4099.4
450.0,2,4,2,House,6 Kirsten Street,WYNDHAM VALE,3024.0,-37.864742,144.62607,"Riverbend Primary School1.4 km awayPrep-6CoEdGovernmentView Catchment,Manor Lakes P-12 College2.3 km awayPrep-12CoEdGovernmentView Catchment,Brinbeal Secondary College1.8 km awayGovernmentMore Info",False,213051589.0,"{'dist': 39.059244667305705, 'nearest_coord': (-37.5191919, 144.705837)}",55891.4,4210.5
450.0,2,3,1,House,93 Honour Avenue,WYNDHAM VALE,3024.0,-37.89787,144.62648,"Iramoo Primary School0.3 km awayPrep-6CoEdGovernmentView Catchment,Wyndham Central Secondary College2.6 km away7-12CoEdGovernmentView Catchment,St Joseph's Catholic Primary School1.6 km awayPrep-6CoEdCatholicMore Info",False,213051590.0,"{'dist': 42.681915323953426, 'nearest_coord': (-37.5191919, 144.705837)}",53199.6,3880.8
450.0,2,3,4,House,12 Surveyor Street,WYNDHAM VALE,3024.0,-37.87899,144.63202,"Riverbend Primary School0.4 km awayPrep-6CoEdGovernmentView Catchment,Wyndham Central Secondary College2.1 km away7-12CoEdGovernmentView Catchment,Christway College - Wyndham1.4 km awayPrivateMore Info",False,213051589.0,"{'dist': 40.53147839477834, 'nearest_coord': (-37.5191919, 144.705837)}",53554.9,3966.2
450.0,2,4,2,House,21 Micropora Drive,WYNDHAM VALE,3024.0,-37.868214,144.62975,"Riverbend Primary School1 km awayPrep-6CoEdGovernmentView Catchment,Manor Lakes P-12 College2.5 km awayPrep-12CoEdGovernmentView Catchment,Brinbeal Secondary College1.8 km awayGovernmentMore Info",False,213051589.0,"{'dist': 39.382729065032066, 'nearest_coord': (-37.5191919, 144.705837)}",55085.4,4202.6
440.0,2,3,1,House,15 Riveting Road,WYNDHAM VALE,3024.0,-37.861595,144.60324,"Manor Lakes P-12 College1.4 km awayPrep-12CoEdGovernmentView Catchment,Ngarri Primary School1.7 km awayPrep-6CoEdGovernmentMore Info,Laa Yulta Primary School2.7 km awayGovernmentMore Info",False,213051589.0,"{'dist': 39.129179742347645, 'nearest_coord': (-37.5191919, 144.705837)}",73572.5,3955.9
4301868.0,2,4,2,House,2 Halladale Avenue,WYNDHAM VALE,3024.0,-37.882717,144.6251,"Riverbend Primary School0.7 km awayPrep-6CoEdGovernmentView Catchment,Manor Lakes P-12 College2.2 km awayPrep-12CoEdGovernmentView Catchment,Wyndham Central Secondary College2.5 km away7-12CoEdGovernmentMore Info",False,213051589.0,"{'dist': 41.04155240180536, 'nearest_coord': (-37.5191919, 144.705837)}",52610.2,3830.2
430.0,1,3,1,House,15 Castlerock Drive,WYNDHAM VALE,3024.0,-37.882755,144.61961,"Riverbend Primary School0.9 km awayPrep-6CoEdGovernmentView Catchment,Manor Lakes P-12 College1.8 km awayPrep-12CoEdGovernmentView Catchment,Walcom Ngarrwa Secondary College3 km awayGovernmentMore Info",False,213051590.0,"{'dist': 41.13205033144801, 'nearest_coord': (-37.5191919, 144.705837)}",53259.5,3884.9
430.0,2,3,1,House,44 Grangehill Mews,WYNDHAM VALE,3024.0,-37.84919,144.59576,"Ngarri Primary School2.2 km awayPrep-6CoEdGovernmentView Catchment,Manor Lakes P-12 College2.8 km awayPrep-12CoEdGovernmentView Catchment,Brinbeal Secondary College4.1 km awayGovernmentMore Info",False,213051589.0,"{'dist': 37.951185078667415, 'nearest_coord': (-37.5191919, 144.705837)}",73253.1,3952.1
425.0,2,3,2,House,3 Vacca Street,WYNDHAM VALE,3024.0,-37.851616,144.58702,"Ngarri Primary School1.7 km awayPrep-6CoEdGovernmentView Catchment,Manor Lakes P-12 College2.8 km awayPrep-12CoEdGovernmentView Catchment,Brinbeal Secondary College4.8 km awayGovernmentMore Info",False,213051589.0,"{'dist': 38.41419587216871, 'nearest_coord': (-37.5191919, 144.705837)}",71971.6,3862.0
400.0,1,3,2,House,4 Burgundy Drive,WYNDHAM VALE,3024.0,-37.888687,144.62917,"Iramoo Primary School0.8 km awayPrep-6CoEdGovernmentView Catchment,Wyndham Central Secondary College2.1 km away7-12CoEdGovernmentView Catchment,Christway College - Wyndham1.7 km awayPrivateMore Info",False,213051589.0,"{'dist': 41.63597818920463, 'nearest_coord': (-37.5191919, 144.705837)}",52076.1,3806.8
500.0,2,4,2,House,28 Kallang Rd,WYNDHAM VALE,3024.0,-37.87069,144.61809,"Riverbend Primary School1.1 km awayPrep-6CoEdGovernmentView Catchment,Manor Lakes P-12 College1.4 km awayPrep-12CoEdGovernmentView Catchment,Brinbeal Secondary College2.7 km awayGovernmentMore Info",False,213051589.0,"{'dist': 39.840083766722614, 'nearest_coord': (-37.5191919, 144.705837)}",54551.8,4020.3
480.0,3,4,2,House,56 Fitzrovia Drive,WYNDHAM VALE,3024.0,-37.848183,144.59602,"Ngarri Primary School2.3 km awayPrep-6CoEdGovernmentView Catchment,Manor Lakes P-12 College2.9 km awayPrep-12CoEdGovernmentView Catchment,Brinbeal Secondary College4.1 km awayGovernmentMore Info",False,213051589.0,"{'dist': 37.83709800410688, 'nearest_coord': (-37.5191919, 144.705837)}",73329.9,3947.9
460.0,2,3,2,House,30 Grappa Circuit,WYNDHAM VALE,3024.0,-37.86235,144.60088,"Manor Lakes P-12 College1.3 km awayPrep-12CoEdGovernmentView Catchment,Ngarri Primary School1.5 km awayPrep-6CoEdGovernmentMore Info,Laa Yulta Primary School2.6 km awayGovernmentMore Info",False,213051589.0,"{'dist': 39.259190899493944, 'nearest_coord': (-37.5191919, 144.705837)}",73527.2,3949.4
680.0,2,4,2,House,15 Laurimar Grove,WYNDHAM VALE,3024.0,-37.87162,144.61519,"Manor Lakes P-12 College1.2 km awayPrep-12CoEdGovernmentView Catchment,Riverbend Primary School1.3 km awayPrep-6CoEdGovernmentView Catchment,Brinbeal Secondary College3 km awayGovernmentMore Info",False,213051589.0,"{'dist': 39.991634331069115, 'nearest_coord': (-37.5191919, 144.705837)}",54232.5,3993.6
600.0,3,4,2,House,106 Brightvale Boulevard,WYNDHAM VALE,3024.0,-37.86483,144.61938,"Riverbend Primary School1.5 km awayPrep-6CoEdGovernmentView Catchment,Manor Lakes P-12 College1.8 km awayPrep-12CoEdGovernmentView Catchment,Brinbeal Secondary College2.3 km awayGovernmentMore Info",False,213051589.0,"{'dist': 39.17889888485991, 'nearest_coord': (-37.5191919, 144.705837)}",55391.7,4133.2
570.0,2,5,2,House,22 Ervine Drive,WYNDHAM VALE,3024.0,-37.868977,144.62852,"Riverbend Primary School0.9 km awayPrep-6CoEdGovernmentView Catchment,Manor Lakes P-12 College2.4 km awayPrep-12CoEdGovernmentView Catchment,Brinbeal Secondary College2 km awayGovernmentMore Info",False,213051589.0,"{'dist': 39.48483485594075, 'nearest_coord': (-37.5191919, 144.705837)}",54906.3,4176.8
560.0,4,4,2,House,41 Margie Street,WYNDHAM VALE,3024.0,-37.86967,144.62946,"Riverbend Primary School0.9 km awayPrep-6CoEdGovernmentView Catchment,Manor Lakes P-12 College2.4 km awayPrep-12CoEdGovernmentView Catchment,Brinbeal Secondary College2 km awayGovernmentMore Info",False,213051589.0,"{'dist': 39.54659911272538, 'nearest_coord': (-37.5191919, 144.705837)}",54936.1,4179.2
560.0,3,4,3,House,21 Gala Ave,WYNDHAM VALE,3024.0,-37.86626,144.61487,"Manor Lakes P-12 College1.4 km awayPrep-12CoEdGovernmentView Catchment,Riverbend Primary School1.6 km awayPrep-6CoEdGovernmentMore Info,Ngarri Primary School2.6 km awayPrep-6CoEdGovernmentMore Info",False,213051589.0,"{'dist': 39.41354750686802, 'nearest_coord': (-37.5191919, 144.705837)}",55020.0,4086.7
545.0,2,4,2,House,16 Thea Close,WYNDHAM VALE,3024.0,-37.8712,144.62169,"Riverbend Primary School0.8 km awayPrep-6CoEdGovernmentView Catchment,Manor Lakes P-12 College1.7 km awayPrep-12CoEdGovernmentView Catchment,Brinbeal Secondary College2.6 km awayGovernmentMore Info",False,213051589.0,"{'dist': 39.835630988902906, 'nearest_coord': (-37.5191919, 144.705837)}",54777.3,4048.0
550.0,2,4,2,House,12 Grangehill Mews,WYNDHAM VALE,3024.0,-37.849964,144.59624,"Ngarri Primary School2.1 km awayPrep-6CoEdGovernmentView Catchment,Manor Lakes P-12 College2.7 km awayPrep-12CoEdGovernmentView Catchment,Brinbeal Secondary College4 km awayGovernmentMore Info",False,213051589.0,"{'dist': 38.02365737745109, 'nearest_coord': (-37.5191919, 144.705837)}",73078.1,3931.0
540.0,2,4,2,House,12 Gosford Road,WYNDHAM VALE,3024.0,-37.893703,144.61307,"Wyndham Vale Primary School0.3 km awayPrep-6CoEdGovernmentView Catchment,Manor Lakes P-12 College2.4 km awayPrep-12CoEdGovernmentView Catchment,Walcom Ngarrwa Secondary College1.6 km awayGovernmentMore Info",False,213051590.0,"{'dist': 42.43590321386169, 'nearest_coord': (-37.5191919, 144.705837)}",54301.8,4004.5
530.0,2,5,2,House,74 Stanmore Crescent,WYNDHAM VALE,3024.0,-37.8514,144.59245,"Ngarri Primary School1.8 km awayPrep-6CoEdGovernmentView Catchment,Manor Lakes P-12 College2.7 km awayPrep-12CoEdGovernmentView Catchment,Brinbeal Secondary College4.4 km awayGovernmentMore Info",False,213051589.0,"{'dist': 38.263718846686615, 'nearest_coord': (-37.5191919, 144.705837)}",72839.2,3906.4
530.0,2,4,2,House,13 Papas View,WYNDHAM VALE,3024.0,-37.848427,144.59053,"Ngarri Primary School2.1 km awayPrep-6CoEdGovernmentView Catchment,Manor Lakes P-12 College3 km awayPrep-12CoEdGovernmentView Catchment,Brinbeal Secondary College4.6 km awayGovernmentMore Info",False,213051589.0,"{'dist': 37.98950272036497, 'nearest_coord': (-37.5191919, 144.705837)}",72421.3,3928.1
520.0,2,4,2,House,137 Stanmore Crescent,WYNDHAM VALE,3024.0,-37.853268,144.59633,"Ngarri Primary School1.8 km awayPrep-6CoEdGovernmentView Catchment,Manor Lakes P-12 College2.4 km awayPrep-12CoEdGovernmentView Catchment,Brinbeal Secondary College4 km awayGovernmentMore Info",False,213051589.0,"{'dist': 38.37710145132982, 'nearest_coord': (-37.5191919, 144.705837)}",72806.8,3906.3
520.0,2,4,2,House,14 Greenmont Road,WYNDHAM VALE,3024.0,-37.858463,144.5973,"Ngarri Primary School1.4 km awayPrep-6CoEdGovernmentView Catchment,Manor Lakes P-12 College1.8 km awayPrep-12CoEdGovernmentView Catchment,Brinbeal Secondary College3.9 km awayGovernmentMore Info",False,213051589.0,"{'dist': 38.91540483589156, 'nearest_coord': (-37.5191919, 144.705837)}",72915.8,3912.5
510.0,2,4,2,House,2 Sue Street,WYNDHAM VALE,3024.0,-37.873585,144.61847,"Riverbend Primary School0.9 km awayPrep-6CoEdGovernmentView Catchment,Manor Lakes P-12 College1.4 km awayPrep-12CoEdGovernmentView Catchment,Brinbeal Secondary College2.9 km awayGovernmentMore Info",False,213051589.0,"{'dist': 40.14949609289099, 'nearest_coord': (-37.5191919, 144.705837)}",53969.7,3992.9
510.0,2,3,2,House,16 Pristine Drive,WYNDHAM VALE,3024.0,-37.872955,144.6184,"Riverbend Primary School0.9 km awayPrep-6CoEdGovernmentView Catchment,Manor Lakes P-12 College1.4 km awayPrep-12CoEdGovernmentView Catchment,Brinbeal Secondary College2.9 km awayGovernmentMore Info",False,213051589.0,"{'dist': 40.081929279894965, 'nearest_coord': (-37.5191919, 144.705837)}",54106.9,4012.7
510.0,2,4,2,House,47 Vogue Drive,WYNDHAM VALE,3024.0,-37.87338,144.62103,"Riverbend Primary School0.7 km awayPrep-6CoEdGovernmentView Catchment,Manor Lakes P-12 College1.7 km awayPrep-12CoEdGovernmentView Catchment,Brinbeal Secondary College2.8 km awayGovernmentMore Info",False,213051589.0,"{'dist': 40.084586886048896, 'nearest_coord': (-37.5191919, 144.705837)}",54255.1,4040.1
510.0,2,4,2,House,33 Vogue Drive,WYNDHAM VALE,3024.0,-37.872746,144.62053,"Riverbend Primary School0.8 km awayPrep-6CoEdGovernmentView Catchment,Manor Lakes P-12 College1.6 km awayPrep-12CoEdGovernmentView Catchment,Brinbeal Secondary College2.7 km awayGovernmentMore Info",False,213051589.0,"{'dist': 40.023556136423146, 'nearest_coord': (-37.5191919, 144.705837)}",54700.8,4040.7
510.0,2,4,2,House,45 Vogue Drive,WYNDHAM VALE,3024.0,-37.873276,144.62096,"Riverbend Primary School0.7 km awayPrep-6CoEdGovernmentView Catchment,Manor Lakes P-12 College1.6 km awayPrep-12CoEdGovernmentView Catchment,Brinbeal Secondary College2.8 km awayGovernmentMore Info",False,213051589.0,"{'dist': 40.07437300796656, 'nearest_coord': (-37.5191919, 144.705837)}",54268.1,4042.0
510.0,3,4,2,House,17 Langdon Drive,WYNDHAM VALE,3024.0,-37.85183,144.59702,"Ngarri Primary School2 km awayPrep-6CoEdGovernmentView Catchment,Manor Lakes P-12 College2.5 km awayPrep-12CoEdGovernmentView Catchment,Brinbeal Secondary College4 km awayGovernmentMore Info",False,213051589.0,"{'dist': 38.20710779419056, 'nearest_coord': (-37.5191919, 144.705837)}",72974.3,3924.8
500.0,2,4,4,House,63 Brougham Avenue,WYNDHAM VALE,3024.0,-37.89762,144.61601,"Wyndham Vale Primary School0.5 km awayPrep-6CoEdGovernmentView Catchment,Manor Lakes P-12 College2.9 km awayPrep-12CoEdGovernmentView Catchment,Walcom Ngarrwa Secondary College1.4 km awayGovernmentMore Info",False,213051590.0,"{'dist': 42.8148774541973, 'nearest_coord': (-37.5191919, 144.705837)}",54130.6,3989.5
500.0,2,4,2,House,4 Laval St,WYNDHAM VALE,3024.0,-37.869576,144.61742,"Riverbend Primary School1.2 km awayPrep-6CoEdGovernmentView Catchment,Manor Lakes P-12 College1.4 km awayPrep-12CoEdGovernmentView Catchment,Brinbeal Secondary College2.7 km awayGovernmentMore Info",False,213051589.0,"{'dist': 39.730080197091944, 'nearest_coord': (-37.5191919, 144.705837)}",54647.8,4033.3
495.0,2,4,2,House,123 Brightvale Boulevard,WYNDHAM VALE,3024.0,-37.86433,144.62117,"Riverbend Primary School1.5 km awayPrep-6CoEdGovernmentView Catchment,Manor Lakes P-12 College2 km awayPrep-12CoEdGovernmentView Catchment,Brinbeal Secondary College2.1 km awayGovernmentMore Info",False,213051589.0,"{'dist': 39.094046783085204, 'nearest_coord': (-37.5191919, 144.705837)}",55558.2,4157.2
485.0,2,4,2,House,7 Anniversary Avenue,WYNDHAM VALE,3024.0,-37.852875,144.58694,"Ngarri Primary School1.6 km awayPrep-6CoEdGovernmentView Catchment,Manor Lakes P-12 College2.7 km awayPrep-12CoEdGovernmentView Catchment,Brinbeal Secondary College4.8 km awayGovernmentMore Info",False,213051589.0,"{'dist': 38.55080982378601, 'nearest_coord': (-37.5191919, 144.705837)}",71738.5,3828.4
480.0,2,4,2,House,5 Congregation Circuit,WYNDHAM VALE,3024.0,-37.853283,144.58966,"Ngarri Primary School1.6 km awayPrep-6CoEdGovernmentView Catchment,Manor Lakes P-12 College2.6 km awayPrep-12CoEdGovernmentView Catchment,Brinbeal Secondary College4.6 km awayGovernmentMore Info",False,213051589.0,"{'dist': 38.53027295821523, 'nearest_coord': (-37.5191919, 144.705837)}",72138.0,3886.0
480.0,2,4,2,House,8 Gungurra Grove,WYNDHAM VALE,3024.0,-37.88554,144.61017,"Wyndham Vale Primary School1.2 km awayPrep-6CoEdGovernmentView Catchment,Manor Lakes P-12 College1.4 km awayPrep-12CoEdGovernmentView Catchment,Walcom Ngarrwa Secondary College2.4 km awayGovernmentMore Info",False,213051590.0,"{'dist': 41.596487397936954, 'nearest_coord': (-37.5191919, 144.705837)}",54205.8,4010.4
500.0,2,4,2,House,1 Revelry road,WYNDHAM VALE,3024.0,-37.858746,144.59828,"Ngarri Primary School1.5 km awayPrep-6CoEdGovernmentView Catchment,Manor Lakes P-12 College1.7 km awayPrep-12CoEdGovernmentView Catchment,Brinbeal Secondary College3.9 km awayGovernmentMore Info",False,213051589.0,"{'dist': 38.92485029023655, 'nearest_coord': (-37.5191919, 144.705837)}",73001.6,3924.8
470.0,2,4,2,House,33 Mopane Circuit,WYNDHAM VALE,3024.0,-37.896244,144.60764,"Wyndham Vale Primary School0.3 km awayPrep-6CoEdGovernmentView Catchment,Manor Lakes P-12 College2.5 km awayPrep-12CoEdGovernmentView Catchment,Walcom Ngarrwa Secondary College1.2 km awayGovernmentMore Info",False,213051590.0,"{'dist': 42.80701698619028, 'nearest_coord': (-37.5191919, 144.705837)}",54885.0,4098.3
470.0,2,4,2,House,21 Cubbyhouse Road,WYNDHAM VALE,3024.0,-37.851486,144.59178,"Ngarri Primary School1.8 km awayPrep-6CoEdGovernmentView Catchment,Manor Lakes P-12 College2.7 km awayPrep-12CoEdGovernmentView Catchment,Brinbeal Secondary College4.4 km awayGovernmentMore Info",False,213051589.0,"{'dist': 38.288362012358405, 'nearest_coord': (-37.5191919, 144.705837)}",72767.8,3914.6
470.0,2,4,1,House,20 Riveting Rd,WYNDHAM VALE,3024.0,-37.861916,144.60316,"Manor Lakes P-12 College1.4 km awayPrep-12CoEdGovernmentView Catchment,Ngarri Primary School1.7 km awayPrep-6CoEdGovernmentMore Info,Laa Yulta Primary School2.7 km awayGovernmentMore Info",False,213051589.0,"{'dist': 39.165529969794406, 'nearest_coord': (-37.5191919, 144.705837)}",73590.4,3958.5
470.0,2,3,2,House,13 Edwin Close,WYNDHAM VALE,3024.0,-37.87408,144.59277,"Manor Lakes P-12 College0.8 km awayPrep-12CoEdGovernmentView Catchment,Ngarri Primary School1.1 km awayPrep-6CoEdGovernmentMore Info,Laa Yulta Primary School1.3 km awayGovernmentMore Info",False,213051579.0,"{'dist': 40.696418789945824, 'nearest_coord': (-37.5191919, 144.705837)}",75043.7,4091.2
460.0,2,4,2,House,28 Greenmont Road,WYNDHAM VALE,3024.0,-37.85892,144.598,"Ngarri Primary School1.5 km awayPrep-6CoEdGovernmentView Catchment,Manor Lakes P-12 College1.7 km awayPrep-12CoEdGovernmentView Catchment,Brinbeal Secondary College3.9 km awayGovernmentMore Info",False,213051589.0,"{'dist': 38.94961015159142, 'nearest_coord': (-37.5191919, 144.705837)}",72995.6,3924.0
460.0,2,4,2,House,40 Stonecrop Way,WYNDHAM VALE,3024.0,-37.850452,144.58704,"Ngarri Primary School1.8 km awayPrep-6CoEdGovernmentView Catchment,Manor Lakes P-12 College3 km awayPrep-12CoEdGovernmentView Catchment,Brinbeal Secondary College4.8 km awayGovernmentMore Info",False,213051589.0,"{'dist': 38.28920940965341, 'nearest_coord': (-37.5191919, 144.705837)}",72162.4,3889.7
480.0,3,3,1,House,6 Greenmont Road,WYNDHAM VALE,3024.0,-37.858173,144.5969,"Ngarri Primary School1.4 km awayPrep-6CoEdGovernmentView Catchment,Manor Lakes P-12 College1.8 km awayPrep-12CoEdGovernmentView Catchment,Brinbeal Secondary College4 km awayGovernmentMore Info",True,213051589.0,"{'dist': 38.89280978727658, 'nearest_coord': (-37.5191919, 144.705837)}",72868.1,3905.6
460.0,2,3,2,House,12 Woolspinner Crescent,WYNDHAM VALE,3024.0,-37.862747,144.61852,"Riverbend Primary School1.8 km awayPrep-6CoEdGovernmentView Catchment,Manor Lakes P-12 College1.9 km awayPrep-12CoEdGovernmentView Catchment,Brinbeal Secondary College2.2 km awayGovernmentMore Info",False,213051589.0,"{'dist': 38.96658416316223, 'nearest_coord': (-37.5191919, 144.705837)}",55673.4,4164.1
480.0,2,3,2,Townhouse,20 Wetherby Road,WYNDHAM VALE,3024.0,-37.843887,144.59242,"Ngarri Primary School2.6 km awayPrep-6CoEdGovernmentView Catchment,Manor Lakes P-12 College3.5 km awayPrep-12CoEdGovernmentView Catchment,Brinbeal Secondary College4.5 km awayGovernmentMore Info",False,213051589.0,"{'dist': 37.45868473702216, 'nearest_coord': (-37.5191919, 144.705837)}",73223.0,4022.2
475.0,2,3,2,House,20 Ixora Crescent,WYNDHAM VALE,3024.0,-37.86719,144.5905,"Ngarri Primary School0.5 km awayPrep-6CoEdGovernmentView Catchment,Manor Lakes P-12 College1.3 km awayPrep-12CoEdGovernmentView Catchment,Walcom Ngarrwa Secondary College4.6 km awayGovernmentMore Info",False,213051579.0,"{'dist': 40.00428216501784, 'nearest_coord': (-37.5191919, 144.705837)}",74416.5,4030.3
450.0,2,3,2,Townhouse,7 Kensal Walk,WYNDHAM VALE,3024.0,-37.84408,144.59258,"Ngarri Primary School2.6 km awayPrep-6CoEdGovernmentView Catchment,Manor Lakes P-12 College3.4 km awayPrep-12CoEdGovernmentView Catchment,Brinbeal Secondary College4.5 km awayGovernmentMore Info",False,213051589.0,"{'dist': 37.47561935915237, 'nearest_coord': (-37.5191919, 144.705837)}",73217.9,4021.3
450.0,2,4,2,House,27 Fritelli Cct,WYNDHAM VALE,3024.0,-37.86343,144.60248,"Manor Lakes P-12 College1.2 km awayPrep-12CoEdGovernmentView Catchment,Ngarri Primary School1.6 km awayPrep-6CoEdGovernmentMore Info,Laa Yulta Primary School2.5 km awayGovernmentMore Info",False,213051589.0,"{'dist': 39.34312457941134, 'nearest_coord': (-37.5191919, 144.705837)}",73717.3,3976.7
450.0,2,3,2,House,38 Welcome Parade,WYNDHAM VALE,3024.0,-37.85403,144.59294,"Ngarri Primary School1.6 km awayPrep-6CoEdGovernmentView Catchment,Manor Lakes P-12 College2.4 km awayPrep-12CoEdGovernmentView Catchment,Brinbeal Secondary College4.3 km awayGovernmentMore Info",False,213051589.0,"{'dist': 38.534935268295825, 'nearest_coord': (-37.5191919, 144.705837)}",72406.4,3865.0
440.0,2,3,1,House,58 Chapman Drive,WYNDHAM VALE,3024.0,-37.87758,144.62982,"Riverbend Primary School0.2 km awayPrep-6CoEdGovernmentView Catchment,Wyndham Central Secondary College2.4 km away7-12CoEdGovernmentView Catchment,Christway College - Wyndham1.1 km awayPrivateMore Info",False,213051589.0,"{'dist': 40.40832230740206, 'nearest_coord': (-37.5191919, 144.705837)}",53498.3,3958.1
440.0,2,3,1,House,44 Fitzrovia Drive,WYNDHAM VALE,3024.0,-37.848686,144.5955,"Ngarri Primary School2.2 km awayPrep-6CoEdGovernmentView Catchment,Manor Lakes P-12 College2.9 km awayPrep-12CoEdGovernmentView Catchment,Brinbeal Secondary College4.1 km awayGovernmentMore Info",False,213051589.0,"{'dist': 37.902864744472346, 'nearest_coord': (-37.5191919, 144.705837)}",73402.2,3958.3
420.0,1,3,4,House,14 Rosedale Place,WYNDHAM VALE,3024.0,-37.88897,144.63257,"Iramoo Primary School0.8 km awayPrep-6CoEdGovernmentView Catchment,Wyndham Central Secondary College1.8 km away7-12CoEdGovernmentView Catchment,Christway College - Wyndham1.9 km awayPrivateMore Info",False,213051589.0,"{'dist': 41.619657060360275, 'nearest_coord': (-37.5191919, 144.705837)}",52296.3,3818.6
420.0,1,3,2,House,13 Tasman Place,WYNDHAM VALE,3024.0,-37.885063,144.62907,"Riverbend Primary School0.9 km awayPrep-6CoEdGovernmentView Catchment,Wyndham Central Secondary College2.1 km away7-12CoEdGovernmentView Catchment,Christway College - Wyndham1.4 km awayPrivateMore Info",False,213051589.0,"{'dist': 41.23984836620301, 'nearest_coord': (-37.5191919, 144.705837)}",52001.0,3783.7
410.0,1,2,1,Apartment / Unit / Flat,1/87 Federal Drive,WYNDHAM VALE,3024.0,-37.879246,144.62708,"Riverbend Primary School0.2 km awayPrep-6CoEdGovernmentView Catchment,Manor Lakes P-12 College2.3 km awayPrep-12CoEdGovernmentView Catchment,Wyndham Central Secondary College2.5 km away7-12CoEdGovernmentMore Info",False,213051589.0,"{'dist': 40.63143283914411, 'nearest_coord': (-37.5191919, 144.705837)}",53111.4,3902.4
410.0,1,2,1,Apartment / Unit / Flat,4/87 Federal Drive,WYNDHAM VALE,3024.0,-37.87946,144.62729,"Riverbend Primary School0.3 km awayPrep-6CoEdGovernmentView Catchment,Manor Lakes P-12 College2.3 km awayPrep-12CoEdGovernmentView Catchment,Wyndham Central Secondary College2.5 km away7-12CoEdGovernmentMore Info",False,213051589.0,"{'dist': 40.65173360968715, 'nearest_coord': (-37.5191919, 144.705837)}",53076.0,3897.3
600.0,2,3,2,House,122A Second Avenue,ALTONA NORTH,3025.0,-37.83274,144.85435,"Altona North Primary School0.6 km awayPrep-6CoEdGovernmentView Catchment,Bayside P-12 College3.9 km awayPrep-12CoEdGovernmentView Catchment,Rosamond Special School5.9 km awayUCoEdGovernmentView Catchment",False,213021343.0,"{'dist': 32.41909795776792, 'nearest_coord': (-37.542846, 144.8935799)}",47378.0,2568.2
950.0,3,4,2,House,17 Prospect Walk,ALTONA NORTH,3025.0,-37.829838,144.85802,"Altona North Primary School1.1 km awayPrep-6CoEdGovernmentView Catchment,Bayside P-12 College3.9 km awayPrep-12CoEdGovernmentView Catchment,Rosamond Special School5.6 km awayUCoEdGovernmentView Catchment",False,213021343.0,"{'dist': 32.065145664315565, 'nearest_coord': (-37.542846, 144.8935799)}",47834.3,2641.0
850.0,3,4,2,House,7/18-20 Stapley Crescent,ALTONA NORTH,3025.0,-37.83703,144.86218,"Newport Gardens Primary School1 km awayPrep-6CoEdGovernmentView Catchment,Bayside P-12 College3.1 km awayPrep-12CoEdGovernmentView Catchment,Rosamond Special School6.4 km awayUCoEdGovernmentView Catchment",False,213021343.0,"{'dist': 32.82828989970647, 'nearest_coord': (-37.542846, 144.8935799)}",48436.5,2682.9
620.0,2,3,3,House,34 Hansen Street,ALTONA NORTH,3025.0,-37.837505,144.86517,"Bayside P-12 College-Paisley Campus0.7 km awayGovernmentView Catchment,Newport Gardens Primary School0.8 km awayPrep-6CoEdGovernmentView Catchment,Bayside P-12 College2.9 km awayPrep-12CoEdGovernmentView Catchment",False,213021344.0,"{'dist': 32.859858154242254, 'nearest_coord': (-37.542846, 144.8935799)}",48781.5,2672.8
930.0,3,4,1,House,44 MacDonald Avenue,ALTONA NORTH,3025.0,-37.835403,144.85812,"Altona North Primary School0.8 km awayPrep-6CoEdGovernmentView Catchment,Bayside P-12 College3.4 km awayPrep-12CoEdGovernmentView Catchment,Rosamond Special School6.2 km awayUCoEdGovernmentView Catchment",False,213021343.0,"{'dist': 32.68019599467824, 'nearest_coord': (-37.542846, 144.8935799)}",47995.6,2632.1
875.0,3,4,3,House,380A Blackshaws Road,ALTONA NORTH,3025.0,-37.830875,144.84668,"Bayside P-12 College4.5 km awayPrep-12CoEdGovernmentView Catchment,Rosamond Special School5.7 km awayUCoEdGovernmentView Catchment,Altona North Primary School0.7 km awayPrep-6CoEdGovernmentMore Info",False,213021343.0,"{'dist': 32.29221078491095, 'nearest_coord': (-37.542846, 144.8935799)}",46868.8,2523.2
875.0,3,4,1,House,27 Clematis Avenue,ALTONA NORTH,3025.0,-37.82694,144.85426,"Altona North Primary School1.2 km awayPrep-6CoEdGovernmentView Catchment,Bayside P-12 College4.4 km awayPrep-12CoEdGovernmentView Catchment,Rosamond Special School5.3 km awayUCoEdGovernmentView Catchment",False,213021343.0,"{'dist': 31.77878330279385, 'nearest_coord': (-37.542846, 144.8935799)}",46845.0,2489.5
875.0,3,4,2,House,44 Hansen Street,ALTONA NORTH,3025.0,-37.836643,144.86539,"Bayside P-12 College-Paisley Campus0.8 km awayGovernmentView Catchment,Newport Gardens Primary School0.9 km awayPrep-6CoEdGovernmentView Catchment,Bayside P-12 College2.9 km awayPrep-12CoEdGovernmentView Catchment",False,213021344.0,"{'dist': 32.76281637553196, 'nearest_coord': (-37.542846, 144.8935799)}",48732.0,2670.8
825.0,3,3,2,Townhouse,83A Second Avenue,ALTONA NORTH,3025.0,-37.834064,144.85374,"Altona North Primary School0.5 km awayPrep-6CoEdGovernmentView Catchment,Bayside P-12 College3.8 km awayPrep-12CoEdGovernmentView Catchment,Rosamond Special School6 km awayUCoEdGovernmentView Catchment",False,213021343.0,"{'dist': 32.57121721292667, 'nearest_coord': (-37.542846, 144.8935799)}",47531.1,2590.2
750.0,1,3,2,House,47 Seventh Avenue,ALTONA NORTH,3025.0,-37.84133,144.8474,"Altona North Primary School0.5 km awayPrep-6CoEdGovernmentView Catchment,Bayside P-12 College3.8 km awayPrep-12CoEdGovernmentView Catchment,Rosamond Special School6.9 km awayUCoEdGovernmentView Catchment",False,213021343.0,"{'dist': 33.437758664158665, 'nearest_coord': (-37.542846, 144.8935799)}",48063.6,2652.0
750.0,1,4,4,House,34 Delphin Avenue,ALTONA NORTH,3025.0,-37.828934,144.8536,"Altona North Primary School1 km awayPrep-6CoEdGovernmentView Catchment,Bayside P-12 College4.2 km awayPrep-12CoEdGovernmentView Catchment,Rosamond Special School5.5 km awayUCoEdGovernmentView Catchment",False,213021343.0,"{'dist': 32.00552413638554, 'nearest_coord': (-37.542846, 144.8935799)}",46840.6,2520.0
720.0,2,4,4,House,1 Second Avenue,ALTONA NORTH,3025.0,-37.84173,144.85234,"Altona North Primary School0.6 km awayPrep-6CoEdGovernmentView Catchment,Bayside P-12 College3.4 km awayPrep-12CoEdGovernmentView Catchment,Rosamond Special School6.9 km awayUCoEdGovernmentView Catchment",False,213021343.0,"{'dist': 33.4319397926637, 'nearest_coord': (-37.542846, 144.8935799)}",48458.3,2708.8
720.0,2,3,1,Townhouse,3/12 Stapley Crescent,ALTONA NORTH,3025.0,-37.8362,144.862,"Altona North Primary School1.1 km awayPrep-6CoEdGovernmentView Catchment,Bayside P-12 College3.1 km awayPrep-12CoEdGovernmentView Catchment,Rosamond Special School6.3 km awayUCoEdGovernmentView Catchment",False,213021343.0,"{'dist': 32.737668249892266, 'nearest_coord': (-37.542846, 144.8935799)}",48362.4,2672.2
680.0,2,3,1,Townhouse,38 Windsor Crescent,ALTONA NORTH,3025.0,-37.84311,144.85085,"Altona North Primary School0.7 km awayPrep-6CoEdGovernmentView Catchment,Bayside P-12 College3.4 km awayPrep-12CoEdGovernmentView Catchment,Rosamond Special School7.1 km awayUCoEdGovernmentView Catchment",False,213021343.0,"{'dist': 33.59890065372979, 'nearest_coord': (-37.542846, 144.8935799)}",48511.2,2716.5
680.0,2,3,2,Townhouse,50 Angus Avenue,ALTONA NORTH,3025.0,-37.833126,144.85759,"Altona North Primary School0.8 km awayPrep-6CoEdGovernmentView Catchment,Bayside P-12 College3.7 km awayPrep-12CoEdGovernmentView Catchment,Rosamond Special School5.9 km awayUCoEdGovernmentView Catchment",False,213021343.0,"{'dist': 32.43269575837998, 'nearest_coord': (-37.542846, 144.8935799)}",47659.4,2589.6
570.0,1,3,1,House,88 Sixth Avenue,ALTONA NORTH,3025.0,-37.836502,144.84966,"Altona North Primary School0.1 km awayPrep-6CoEdGovernmentView Catchment,Bayside P-12 College3.9 km awayPrep-12CoEdGovernmentView Catchment,Rosamond Special School6.3 km awayUCoEdGovernmentView Catchment",False,213021343.0,"{'dist': 32.88100290046091, 'nearest_coord': (-37.542846, 144.8935799)}",47493.6,2609.6
560.0,1,3,4,House,273 Blackshaws Road,ALTONA NORTH,3025.0,-37.832577,144.85909,"Altona North Primary School1 km awayPrep-6CoEdGovernmentView Catchment,Bayside P-12 College3.6 km awayPrep-12CoEdGovernmentView Catchment,Rosamond Special School5.9 km awayUCoEdGovernmentView Catchment",False,213021343.0,"{'dist': 32.359297086433635, 'nearest_coord': (-37.542846, 144.8935799)}",47707.5,2586.9
530.0,1,2,1,Townhouse,2/9 Prentice Street,ALTONA NORTH,3025.0,-37.841778,144.86275,"Bayside P-12 College-Paisley Campus0.2 km awayGovernmentView Catchment,Newport Gardens Primary School0.6 km awayPrep-6CoEdGovernmentView Catchment,Bayside P-12 College2.7 km awayPrep-12CoEdGovernmentView Catchment",False,213021343.0,"{'dist': 33.3502762795066, 'nearest_coord': (-37.542846, 144.8935799)}",49381.0,2746.6
530.0,1,3,2,House,129 Sixth Avenue,ALTONA NORTH,3025.0,-37.832153,144.84998,"Bayside P-12 College4.2 km awayPrep-12CoEdGovernmentView Catchment,Rosamond Special School5.8 km awayUCoEdGovernmentView Catchment,Altona North Primary School0.5 km awayPrep-6CoEdGovernmentMore Info",False,213021343.0,"{'dist': 32.397484035617055, 'nearest_coord': (-37.542846, 144.8935799)}",47193.3,2544.9
520.0,2,2,1,Apartment / Unit / Flat,104/129 Millers Road,ALTONA NORTH,3025.0,-37.829006,144.84889,"Bayside P-12 College4.5 km awayPrep-12CoEdGovernmentView Catchment,Rosamond Special School5.5 km awayUCoEdGovernmentView Catchment,Altona North Primary School0.9 km awayPrep-6CoEdGovernmentMore Info",False,213021343.0,"{'dist': 32.06167534529099, 'nearest_coord': (-37.542846, 144.8935799)}",47005.1,2535.9
400.0,1,2,1,Apartment / Unit / Flat,2/63 May Street,ALTONA NORTH,3025.0,-37.83359,144.85179,"Altona North Primary School0.4 km awayPrep-6CoEdGovernmentView Catchment,Bayside P-12 College4 km awayPrep-12CoEdGovernmentView Catchment,Rosamond Special School6 km awayUCoEdGovernmentView Catchment",False,213021343.0,"{'dist': 32.53776373034179, 'nearest_coord': (-37.542846, 144.8935799)}",47507.0,2577.4
370.0,1,2,1,Apartment / Unit / Flat,2/315 Blackshaws Road,ALTONA NORTH,3025.0,-37.832066,144.85445,"Altona North Primary School0.7 km awayPrep-6CoEdGovernmentView Catchment,Bayside P-12 College3.9 km awayPrep-12CoEdGovernmentView Catchment,Rosamond Special School5.8 km awayUCoEdGovernmentView Catchment",False,213021343.0,"{'dist': 32.34364326306719, 'nearest_coord': (-37.542846, 144.8935799)}",47302.6,2557.3
950.0,4,4,3,House,64A Marion Street,ALTONA NORTH,3025.0,-37.8352,144.85306,"Altona North Primary School0.4 km awayPrep-6CoEdGovernmentView Catchment,Bayside P-12 College3.8 km awayPrep-12CoEdGovernmentView Catchment,Rosamond Special School6.2 km awayUCoEdGovernmentView Catchment",False,213021343.0,"{'dist': 32.70327039926024, 'nearest_coord': (-37.542846, 144.8935799)}",47623.9,2609.9
825.0,3,4,2,Townhouse,80c First Avenue,ALTONA NORTH,3025.0,-37.833626,144.85518,"Altona North Primary School0.6 km awayPrep-6CoEdGovernmentView Catchment,Bayside P-12 College3.8 km awayPrep-12CoEdGovernmentView Catchment,Rosamond Special School6 km awayUCoEdGovernmentView Catchment",False,213021343.0,"{'dist': 32.50938397002543, 'nearest_coord': (-37.542846, 144.8935799)}",47542.8,2586.6
750.0,2,3,2,Townhouse,1/31 Macdonald Avenue,ALTONA NORTH,3025.0,-37.83671,144.85753,"Altona North Primary School0.7 km awayPrep-6CoEdGovernmentView Catchment,Bayside P-12 College3.4 km awayPrep-12CoEdGovernmentView Catchment,Rosamond Special School6.3 km awayUCoEdGovernmentView Catchment",False,213021343.0,"{'dist': 32.82983986590104, 'nearest_coord': (-37.542846, 144.8935799)}",48160.3,2652.9
750.0,3,3,4,House,16A The Circle,ALTONA NORTH,3025.0,-37.836266,144.86395,"Bayside P-12 College-Paisley Campus0.8 km awayGovernmentView Catchment,Newport Gardens Primary School1 km awayPrep-6CoEdGovernmentView Catchment,Bayside P-12 College3 km awayPrep-12CoEdGovernmentView Catchment",False,213021343.0,"{'dist': 32.73086609944076, 'nearest_coord': (-37.542846, 144.8935799)}",48761.2,2679.9
600.0,2,2,2,House,258 Millers Road,ALTONA NORTH,3025.0,-37.8397,144.84654,"Altona North Primary School0.4 km awayPrep-6CoEdGovernmentView Catchment,Bayside P-12 College3.9 km awayPrep-12CoEdGovernmentView Catchment,Rosamond Special School6.7 km awayUCoEdGovernmentView Catchment",False,213021343.0,"{'dist': 33.26719685047455, 'nearest_coord': (-37.542846, 144.8935799)}",47729.0,2614.9
570.0,1,2,1,House,1/8 Duke Street,ALTONA NORTH,3025.0,-37.834293,144.84547,"Bayside P-12 College4.4 km awayPrep-12CoEdGovernmentView Catchment,Rosamond Special School6.1 km awayUCoEdGovernmentView Catchment,Altona North Primary School0.4 km awayPrep-6CoEdGovernmentMore Info",False,213021343.0,"{'dist': 32.682803626248024, 'nearest_coord': (-37.542846, 144.8935799)}",47320.5,2590.3
520.0,1,2,1,Apartment / Unit / Flat,2/18 Cherry Avenue,ALTONA NORTH,3025.0,-37.833355,144.8465,"Bayside P-12 College4.3 km awayPrep-12CoEdGovernmentView Catchment,Rosamond Special School6 km awayUCoEdGovernmentView Catchment,Altona North Primary School0.5 km awayPrep-6CoEdGovernmentMore Info",False,213021343.0,"{'dist': 32.567734565209165, 'nearest_coord': (-37.542846, 144.8935799)}",47062.2,2559.1
480.0,1,3,3,House,11 Paringa Road,ALTONA NORTH,3025.0,-37.825603,144.84697,"Bayside P-12 College4.9 km awayPrep-12CoEdGovernmentView Catchment,Rosamond Special School5.2 km awayUCoEdGovernmentView Catchment,Altona North Primary School1.3 km awayPrep-6CoEdGovernmentMore Info",False,213021343.0,"{'dist': 31.707593823977437, 'nearest_coord': (-37.542846, 144.8935799)}",46661.7,2495.9
620.0,2,4,2,House,36 Grosvenor Cresent,DERRIMUT,3026.0,-37.78995,144.75436,"Derrimut Primary School0.9 km awayPrep-6CoEdGovernmentView Catchment,Victoria University Secondary College-Deer Park Campus3.6 km awayGovernmentView Catchment,Victoria University Secondary College3.6 km away7-12CoEdGovernmentView Catchment",False,213011570.0,"{'dist': 30.08546254890598, 'nearest_coord': (-37.542846, 144.8935799)}",43049.0,2318.3
5902556.0,3,4,2,House,52 Westminster Parkway,DERRIMUT,3026.0,-37.78549,144.7574,"Derrimut Primary School0.8 km awayPrep-6CoEdGovernmentView Catchment,Victoria University Secondary College-Deer Park Campus3.1 km awayGovernmentView Catchment,Victoria University Secondary College3.1 km away7-12CoEdGovernmentView Catchment",False,213011570.0,"{'dist': 29.52372348443049, 'nearest_coord': (-37.542846, 144.8935799)}",42922.8,2282.3
500.0,2,4,2,House,26 Tiverton Parkway,DERRIMUT,3026.0,-37.79565,144.75742,"Derrimut Primary School0.9 km awayPrep-6CoEdGovernmentView Catchment,Victoria University Secondary College4.2 km away7-12CoEdGovernmentView Catchment,Jackson School6.7 km awayUCoEdGovernmentView Catchment",False,213011570.0,"{'dist': 30.558589373341395, 'nearest_coord': (-37.542846, 144.8935799)}",43579.8,2392.6
550.0,3,4,2,Townhouse,21A Hermitage Parade,DERRIMUT,3026.0,-37.792656,144.75587,"Derrimut Primary School0.9 km awayPrep-6CoEdGovernmentView Catchment,Victoria University Secondary College3.9 km away7-12CoEdGovernmentView Catchment,Jackson School6.6 km awayUCoEdGovernmentView Catchment",False,213011570.0,"{'dist': 30.307023523016113, 'nearest_coord': (-37.542846, 144.8935799)}",43190.4,2334.6
495.0,2,4,2,House,28 Tiverton Park Way,DERRIMUT,3026.0,-37.79577,144.7574,"Derrimut Primary School0.9 km awayPrep-6CoEdGovernmentView Catchment,Victoria University Secondary College4.2 km away7-12CoEdGovernmentView Catchment,Jackson School6.7 km awayUCoEdGovernmentView Catchment",False,213011570.0,"{'dist': 30.571550612830944, 'nearest_coord': (-37.542846, 144.8935799)}",43633.6,2400.3
490.0,2,3,2,Townhouse,6 Scrubwren Drive,WILLIAMS LANDING,3027.0,-37.856804,144.73816,"Truganina South Primary School1.4 km awayPrep-6CoEdGovernmentView Catchment,Dohertys Creek P-9 College1.5 km awayPrep-8CoEdGovernmentView Catchment,Tarneit Senior College5.8 km away10-12CoEdGovernmentView Catchment",False,213051587.0,"{'dist': 37.492975901610016, 'nearest_coord': (-37.542846, 144.8935799)}",49250.0,2609.6
600.0,2,4,2,House,15 Newhaven Drive,WILLIAMS LANDING,3027.0,-37.859844,144.74619,"Truganina South Primary School1.9 km awayPrep-6CoEdGovernmentView Catchment,Dohertys Creek P-9 College2.1 km awayPrep-8CoEdGovernmentView Catchment,Laverton P-12 College2.4 km awayPrep-12CoEdGovernmentView Catchment",False,213051363.0,"{'dist': 37.55810125492493, 'nearest_coord': (-37.542846, 144.8935799)}",48903.5,2552.0
850.0,3,5,2,House,5 Shrike Terrace,WILLIAMS LANDING,3027.0,-37.85534,144.74333,"Dohertys Creek P-9 College1.5 km awayPrep-8CoEdGovernmentView Catchment,Laverton P-12 College2.6 km awayPrep-12CoEdGovernmentView Catchment,Truganina South Primary School1.9 km awayPrep-6CoEdGovernmentMore Info",False,213051587.0,"{'dist': 37.1773405414516, 'nearest_coord': (-37.542846, 144.8935799)}",48957.5,2576.3
700.0,3,4,2,House,1 Waterways Boulevard,WILLIAMS LANDING,3027.0,-37.857605,144.74011,"Truganina South Primary School1.5 km awayPrep-6CoEdGovernmentView Catchment,Dohertys Creek P-9 College1.6 km awayPrep-8CoEdGovernmentView Catchment,Tarneit Senior College6 km away10-12CoEdGovernmentView Catchment",False,213051587.0,"{'dist': 37.51380560575992, 'nearest_coord': (-37.542846, 144.8935799)}",49285.8,2615.4
625.0,2,3,3,House,17 Banbury Street,WILLIAMS LANDING,3027.0,-37.859882,144.75284,"Laverton P-12 College1.8 km awayPrep-12CoEdGovernmentView Catchment,Seabrook Primary School2.2 km awayPrep-6CoEdGovernmentMore Info,Truganina South Primary School2.5 km awayPrep-6CoEdGovernmentMore Info",False,213051363.0,"{'dist': 37.364128957885434, 'nearest_coord': (-37.542846, 144.8935799)}",49258.9,2615.6
595.0,2,4,2,House,27 Bronzewing Street,WILLIAMS LANDING,3027.0,-37.856216,144.74149,"Dohertys Creek P-9 College1.5 km awayPrep-8CoEdGovernmentView Catchment,Laverton P-12 College2.7 km awayPrep-12CoEdGovernmentView Catchment,Truganina South Primary School1.7 km awayPrep-6CoEdGovernmentMore Info",False,213051587.0,"{'dist': 37.326097099972145, 'nearest_coord': (-37.542846, 144.8935799)}",49097.5,2596.5
560.0,2,4,2,House,20 Hanworth Avenue,WILLIAMS LANDING,3027.0,-37.86157,144.74544,"Truganina South Primary School1.8 km awayPrep-6CoEdGovernmentView Catchment,Dohertys Creek P-9 College2.2 km awayPrep-8CoEdGovernmentView Catchment,Laverton P-12 College2.5 km awayPrep-12CoEdGovernmentView Catchment",False,213051363.0,"{'dist': 37.76095133237254, 'nearest_coord': (-37.542846, 144.8935799)}",49118.4,2583.0
560.0,2,4,2,House,25 Thornbury Way,WILLIAMS LANDING,3027.0,-37.863785,144.73701,"Truganina South Primary School1 km awayPrep-6CoEdGovernmentView Catchment,Dohertys Creek P-9 College2.3 km awayPrep-8CoEdGovernmentView Catchment,Point Cook Senior Secondary College2.6 km away10-12CoEdGovernmentView Catchment",False,213051363.0,"{'dist': 38.25289484660197, 'nearest_coord': (-37.542846, 144.8935799)}",50184.4,2691.0
470.0,1,2,1,Townhouse,10A Hanworth Avenue,WILLIAMS LANDING,3027.0,-37.86077,144.7452,"Truganina South Primary School1.8 km awayPrep-6CoEdGovernmentView Catchment,Dohertys Creek P-9 College2.1 km awayPrep-8CoEdGovernmentView Catchment,Laverton P-12 College2.5 km awayPrep-12CoEdGovernmentView Catchment",False,213051363.0,"{'dist': 37.6848074960244, 'nearest_coord': (-37.542846, 144.8935799)}",49060.4,2574.6
470.0,2,2,1,Apartment / Unit / Flat,Unit 201/30 Clark St,WILLIAMS LANDING,3027.0,-37.866592,144.74374,"Truganina South Primary School1.6 km awayPrep-6CoEdGovernmentView Catchment,Carranballac P-9 College2.1 km awayPrep-9CoEdGovernmentView Catchment,Point Cook Senior Secondary College2.4 km away10-12CoEdGovernmentView Catchment",False,213051363.0,"{'dist': 38.33655978225473, 'nearest_coord': (-37.542846, 144.8935799)}",49922.4,2664.1
750.0,4,4,2,House,20 Simonson Way,WILLIAMS LANDING,3027.0,-37.859158,144.7529,"Laverton P-12 College1.8 km awayPrep-12CoEdGovernmentView Catchment,Seabrook Primary School2.2 km awayPrep-6CoEdGovernmentMore Info,Truganina South Primary School2.5 km awayPrep-6CoEdGovernmentMore Info",False,213051363.0,"{'dist': 37.2864498625935, 'nearest_coord': (-37.542846, 144.8935799)}",49220.9,2610.1
580.0,2,3,2,House,5 Chamberlain Way,WILLIAMS LANDING,3027.0,-37.8543,144.73189,"Dohertys Creek P-9 College1.2 km awayPrep-8CoEdGovernmentView Catchment,Truganina South Primary School1.3 km awayPrep-6CoEdGovernmentView Catchment,Tarneit Senior College5.2 km away10-12CoEdGovernmentView Catchment",False,213051587.0,"{'dist': 37.332830526752055, 'nearest_coord': (-37.5191919, 144.705837)}",47999.1,3119.6
570.0,3,4,2,Townhouse,8 Skalkoz Street,WILLIAMS LANDING,3027.0,-37.862854,144.7498,"Seabrook Primary School1.9 km awayPrep-6CoEdGovernmentView Catchment,Laverton P-12 College2.1 km awayPrep-12CoEdGovernmentView Catchment,Point Cook Senior Secondary College3 km away10-12CoEdGovernmentMore Info",False,213051363.0,"{'dist': 37.76474321588616, 'nearest_coord': (-37.542846, 144.8935799)}",49385.6,2626.1
560.0,2,3,1,House,50 Beehive Drive,WILLIAMS LANDING,3027.0,-37.863556,144.75145,"Seabrook Primary School1.8 km awayPrep-6CoEdGovernmentView Catchment,Laverton P-12 College2 km awayPrep-12CoEdGovernmentView Catchment,Point Cook Senior Secondary College3.1 km away10-12CoEdGovernmentMore Info",False,213051363.0,"{'dist': 37.790003232316394, 'nearest_coord': (-37.542846, 144.8935799)}",49542.2,2645.5
560.0,2,3,1,House,9 Electra Drive,WILLIAMS LANDING,3027.0,-37.864452,144.7523,"Seabrook Primary School1.7 km awayPrep-6CoEdGovernmentView Catchment,Laverton P-12 College2 km awayPrep-12CoEdGovernmentView Catchment,Point Cook Senior Secondary College3 km away10-12CoEdGovernmentMore Info",False,213051363.0,"{'dist': 37.85939564560148, 'nearest_coord': (-37.542846, 144.8935799)}",49694.8,2667.4
480.0,2,2,1,Apartment / Unit / Flat,310/2 Clark Street,WILLIAMS LANDING,3027.0,-37.866287,144.74261,"Truganina South Primary School1.5 km awayPrep-6CoEdGovernmentView Catchment,Carranballac P-9 College2.1 km awayPrep-9CoEdGovernmentView Catchment,Point Cook Senior Secondary College2.4 km away10-12CoEdGovernmentView Catchment",False,213051363.0,"{'dist': 38.33904903667037, 'nearest_coord': (-37.542846, 144.8935799)}",50074.8,2679.6
475.0,1,2,1,Apartment / Unit / Flat,301/115 Overton Rd,WILLIAMS LANDING,3027.0,-37.866287,144.74261,"Truganina South Primary School1.5 km awayPrep-6CoEdGovernmentView Catchment,Carranballac P-9 College2.1 km awayPrep-9CoEdGovernmentView Catchment,Point Cook Senior Secondary College2.4 km away10-12CoEdGovernmentView Catchment",False,213051363.0,"{'dist': 38.33904903667037, 'nearest_coord': (-37.542846, 144.8935799)}",50074.8,2679.6
800.0,3,4,2,House,35 Palmers Road,WILLIAMS LANDING,3027.0,-37.85681,144.74858,"Dohertys Creek P-9 College1.9 km awayPrep-8CoEdGovernmentView Catchment,Laverton P-12 College2.1 km awayPrep-12CoEdGovernmentView Catchment,Truganina South Primary School2.2 km awayPrep-6CoEdGovernmentMore Info",True,213051363.0,"{'dist': 37.169062189770294, 'nearest_coord': (-37.542846, 144.8935799)}",48687.2,2533.2
800.0,2,5,2,House,43 Delaney Boulevard,WILLIAMS LANDING,3027.0,-37.85947,144.74408,"Truganina South Primary School1.7 km awayPrep-6CoEdGovernmentView Catchment,Dohertys Creek P-9 College1.9 km awayPrep-8CoEdGovernmentView Catchment,Laverton P-12 College2.5 km awayPrep-12CoEdGovernmentView Catchment",False,213051363.0,"{'dist': 37.583647269299824, 'nearest_coord': (-37.542846, 144.8935799)}",48988.0,2564.2
660.0,2,4,2,House,17 Lukis Avenue,WILLIAMS LANDING,3027.0,-37.860798,144.74023,"Truganina South Primary School1.4 km awayPrep-6CoEdGovernmentView Catchment,Dohertys Creek P-9 College2 km awayPrep-8CoEdGovernmentView Catchment,Point Cook Senior Secondary College2.9 km away10-12CoEdGovernmentView Catchment",False,213051363.0,"{'dist': 37.84140298773232, 'nearest_coord': (-37.542846, 144.8935799)}",49483.0,2635.5
620.0,2,4,2,House,57 Stoneleigh Circuit,WILLIAMS LANDING,3027.0,-37.866608,144.73528,"Truganina South Primary School0.9 km awayPrep-6CoEdGovernmentView Catchment,Carranballac P-9 College2.2 km awayPrep-9CoEdGovernmentView Catchment,Point Cook Senior Secondary College2.2 km away10-12CoEdGovernmentView Catchment",False,213051363.0,"{'dist': 38.600460986716435, 'nearest_coord': (-37.542846, 144.8935799)}",50685.2,2763.5
580.0,2,4,2,House,7 Moorhen Blvd,WILLIAMS LANDING,3027.0,-37.858685,144.732,"Truganina South Primary School0.9 km awayPrep-6CoEdGovernmentView Catchment,Dohertys Creek P-9 College1.7 km awayPrep-8CoEdGovernmentView Catchment,Tarneit Senior College5.4 km away10-12CoEdGovernmentView Catchment",False,213051587.0,"{'dist': 37.82009643495418, 'nearest_coord': (-37.5191919, 144.705837)}",48348.3,3168.4
550.0,2,3,2,House,71 Williams Landing Boulevard,WILLIAMS LANDING,3027.0,-37.86244,144.75117,"Seabrook Primary School1.9 km awayPrep-6CoEdGovernmentView Catchment,Laverton P-12 College2 km awayPrep-12CoEdGovernmentView Catchment,Point Cook Senior Secondary College3.1 km away10-12CoEdGovernmentMore Info",False,213051363.0,"{'dist': 37.68113648921901, 'nearest_coord': (-37.542846, 144.8935799)}",49360.8,2623.5
550.0,2,3,1,House,7 Bishopthorpe Road,WILLIAMS LANDING,3027.0,-37.86434,144.75182,"Seabrook Primary School1.7 km awayPrep-6CoEdGovernmentView Catchment,Laverton P-12 College2 km awayPrep-12CoEdGovernmentView Catchment,Point Cook Senior Secondary College3 km away10-12CoEdGovernmentMore Info",False,213051363.0,"{'dist': 37.86152416742605, 'nearest_coord': (-37.542846, 144.8935799)}",49714.3,2670.3
520.0,2,3,4,Townhouse,14 Scrubwren Drive,WILLIAMS LANDING,3027.0,-37.856968,144.7378,"Truganina South Primary School1.4 km awayPrep-6CoEdGovernmentView Catchment,Dohertys Creek P-9 College1.5 km awayPrep-8CoEdGovernmentView Catchment,Tarneit Senior College5.8 km away10-12CoEdGovernmentView Catchment",False,213051587.0,"{'dist': 37.52150847062511, 'nearest_coord': (-37.542846, 144.8935799)}",49329.8,2618.1
470.0,1,2,1,Apartment / Unit / Flat,406/115 Overton Road,WILLIAMS LANDING,3027.0,-37.866287,144.74261,"Truganina South Primary School1.5 km awayPrep-6CoEdGovernmentView Catchment,Carranballac P-9 College2.1 km awayPrep-9CoEdGovernmentView Catchment,Point Cook Senior Secondary College2.4 km away10-12CoEdGovernmentView Catchment",False,213051363.0,"{'dist': 38.33904903667037, 'nearest_coord': (-37.542846, 144.8935799)}",50074.8,2679.6
480.0,1,2,1,House,3/41-43 Linden Street,ALTONA MEADOWS,3028.0,-37.866505,144.77759,"Altona Meadows Primary School0.3 km awayPrep-6CoEdGovernmentView Catchment,Laverton P-12 College1.2 km awayPrep-12CoEdGovernmentView Catchment,Point Cook Senior Secondary College4.5 km away10-12CoEdGovernmentMore Info",False,213021342.0,"{'dist': 37.40792972376725, 'nearest_coord': (-37.542846, 144.8935799)}",50329.4,2654.9
630.0,2,4,2,House,6 Davis Court,ALTONA MEADOWS,3028.0,-37.878025,144.7793,"Altona Meadows Primary School1.1 km awayPrep-6CoEdGovernmentView Catchment,Laverton P-12 College2.5 km awayPrep-12CoEdGovernmentView Catchment,Point Cook Senior Secondary College4.2 km away10-12CoEdGovernmentMore Info",False,213021342.0,"{'dist': 38.6022411775536, 'nearest_coord': (-37.542846, 144.8935799)}",51923.3,2828.2
600.0,2,3,2,House,73 Victoria Street,ALTONA MEADOWS,3028.0,-37.870735,144.78723,"Altona Meadows Primary School0.7 km awayPrep-6CoEdGovernmentView Catchment,Laverton P-12 College2.1 km awayPrep-12CoEdGovernmentView Catchment,Queen of Peace Primary School0.6 km awayPrep-6CoEdCatholicMore Info",False,213021342.0,"{'dist': 37.64088841941171, 'nearest_coord': (-37.542846, 144.8935799)}",51453.0,2788.5
570.0,2,4,3,House,46 Linden Street,ALTONA MEADOWS,3028.0,-37.86693,144.7767,"Altona Meadows Primary School0.3 km awayPrep-6CoEdGovernmentView Catchment,Laverton P-12 College1.2 km awayPrep-12CoEdGovernmentView Catchment,Point Cook Senior Secondary College4.4 km away10-12CoEdGovernmentMore Info",False,213021342.0,"{'dist': 37.474797215499756, 'nearest_coord': (-37.542846, 144.8935799)}",51160.3,2730.3
550.0,2,4,4,House,14 Birrell Court,ALTONA MEADOWS,3028.0,-37.883614,144.77719,"Altona Green Primary School0.7 km awayPrep-6CoEdGovernmentView Catchment,Carranballac P-9 College3 km awayPrep-9CoEdGovernmentView Catchment,Point Cook Senior Secondary College3.9 km away10-12CoEdGovernmentView Catchment",False,213021342.0,"{'dist': 39.25050666595171, 'nearest_coord': (-37.542846, 144.8935799)}",52513.3,2924.0
530.0,1,3,2,House,18 MacNeil Drive,ALTONA MEADOWS,3028.0,-37.8737,144.76869,"Seabrook Primary School1.1 km awayPrep-6CoEdGovernmentView Catchment,Laverton P-12 College2 km awayPrep-12CoEdGovernmentView Catchment,Point Cook Senior Secondary College3.5 km away10-12CoEdGovernmentMore Info",False,213021342.0,"{'dist': 38.394791395942434, 'nearest_coord': (-37.542846, 144.8935799)}",52180.9,2795.9
520.0,1,3,2,House,1 Grevillia Court,ALTONA MEADOWS,3028.0,-37.871105,144.78749,"Altona Meadows Primary School0.8 km awayPrep-6CoEdGovernmentView Catchment,Laverton P-12 College2.1 km awayPrep-12CoEdGovernmentView Catchment,Queen of Peace Primary School0.6 km awayPrep-6CoEdCatholicMore Info",False,213021342.0,"{'dist': 37.67506251628681, 'nearest_coord': (-37.542846, 144.8935799)}",51988.1,2801.5
500.0,2,3,2,House,4 Carling Court,ALTONA MEADOWS,3028.0,-37.89007,144.78473,"Altona Green Primary School0.4 km awayPrep-6CoEdGovernmentView Catchment,Carranballac P-9 College-Jamieson Way Campus3.5 km awayGovernmentView Catchment,Carranballac P-9 College3.7 km awayPrep-9CoEdGovernmentView Catchment",False,213021342.0,"{'dist': 39.779036137611, 'nearest_coord': (-37.542846, 144.8935799)}",53755.2,2990.8
490.0,1,2,2,Apartment / Unit / Flat,86A Myers Parade,ALTONA MEADOWS,3028.0,-37.877884,144.77309,"Altona Meadows Primary School1.2 km awayPrep-6CoEdGovernmentView Catchment,Laverton P-12 College2.4 km awayPrep-12CoEdGovernmentView Catchment,Point Cook Senior Secondary College3.7 km away10-12CoEdGovernmentMore Info",False,213021342.0,"{'dist': 38.73301663595711, 'nearest_coord': (-37.542846, 144.8935799)}",52283.2,2836.9
450.0,1,3,3,House,34 Batman Street,ALTONA MEADOWS,3028.0,-37.887707,144.78012,"Altona Green Primary School0.4 km awayPrep-6CoEdGovernmentView Catchment,Carranballac P-9 College-Jamieson Way Campus3.1 km awayGovernmentView Catchment,Carranballac P-9 College3.3 km awayPrep-9CoEdGovernmentView Catchment",False,213021342.0,"{'dist': 39.62427975075907, 'nearest_coord': (-37.542846, 144.8935799)}",53612.1,2973.9
430.0,1,2,1,House,43A High Street,ALTONA MEADOWS,3028.0,-37.867867,144.77368,"Altona Meadows Primary School0.5 km awayPrep-6CoEdGovernmentView Catchment,Laverton P-12 College1.3 km awayPrep-12CoEdGovernmentView Catchment,Point Cook Senior Secondary College4.2 km away10-12CoEdGovernmentMore Info",False,213021342.0,"{'dist': 37.64855141636598, 'nearest_coord': (-37.542846, 144.8935799)}",51134.8,2742.7
575.0,1,3,2,House,16 Devenport Court,ALTONA MEADOWS,3028.0,-37.87693,144.78503,"Altona Meadows Primary School1.1 km awayPrep-6CoEdGovernmentView Catchment,Laverton P-12 College2.5 km awayPrep-12CoEdGovernmentView Catchment,Homestead Senior Secondary College4.5 km away10-12CoEdGovernmentMore Info",False,213021342.0,"{'dist': 38.3561327285009, 'nearest_coord': (-37.542846, 144.8935799)}",52279.1,2822.9
520.0,2,3,2,Townhouse,13/11 Harrison Crt,ALTONA MEADOWS,3028.0,-37.872845,144.78145,"Altona Meadows Primary School0.5 km awayPrep-6CoEdGovernmentView Catchment,Laverton P-12 College2 km awayPrep-12CoEdGovernmentView Catchment,Point Cook Senior Secondary College4.5 km away10-12CoEdGovernmentMore Info",False,213021342.0,"{'dist': 37.99697542672318, 'nearest_coord': (-37.542846, 144.8935799)}",51684.9,2791.6
520.0,2,3,2,House,16 Lush Court,ALTONA MEADOWS,3028.0,-37.87234,144.76982,"Altona Meadows Primary School1 km awayPrep-6CoEdGovernmentView Catchment,Laverton P-12 College1.8 km awayPrep-12CoEdGovernmentView Catchment,Point Cook Senior Secondary College3.6 km away10-12CoEdGovernmentMore Info",False,213021342.0,"{'dist': 38.221508585680205, 'nearest_coord': (-37.542846, 144.8935799)}",52162.9,2819.6
480.0,1,3,2,House,3 Elizabeth Court,ALTONA MEADOWS,3028.0,-37.885147,144.78505,"Altona Green Primary School0.2 km awayPrep-6CoEdGovernmentView Catchment,Laverton P-12 College3.4 km awayPrep-12CoEdGovernmentView Catchment,Homestead Senior Secondary College3.7 km away10-12CoEdGovernmentMore Info",False,213021342.0,"{'dist': 39.241157354570056, 'nearest_coord': (-37.542846, 144.8935799)}",53006.4,2886.7
480.0,1,3,1,House,12 Everingham Road,ALTONA MEADOWS,3028.0,-37.87883,144.78741,"Altona Green Primary School0.9 km awayPrep-6CoEdGovernmentView Catchment,Laverton P-12 College2.8 km awayPrep-12CoEdGovernmentView Catchment,Homestead Senior Secondary College4.4 km away10-12CoEdGovernmentMore Info",False,213021342.0,"{'dist': 38.509447085707265, 'nearest_coord': (-37.542846, 144.8935799)}",52346.3,2819.8
520.0,1,3,2,House,7 Bruce Street,LAVERTON,3028.0,-37.866398,144.76721,"Altona Meadows Primary School1.1 km awayPrep-6CoEdGovernmentView Catchment,Laverton P-12 College1.2 km awayPrep-12CoEdGovernmentView Catchment,Point Cook Senior Secondary College3.8 km away10-12CoEdGovernmentMore Info",False,213051363.0,"{'dist': 37.655906415852314, 'nearest_coord': (-37.542846, 144.8935799)}",50191.5,2621.3
400.0,1,3,1,House,10 Charlesworth Street,LAVERTON,3028.0,-37.859505,144.77539,"Laverton P-12 College0.4 km awayPrep-12CoEdGovernmentView Catchment,Altona Meadows Primary School1.1 km awayPrep-6CoEdGovernmentMore Info,Seabrook Primary School2.6 km awayPrep-6CoEdGovernmentMore Info",False,213051363.0,"{'dist': 36.71417978645585, 'nearest_coord': (-37.542846, 144.8935799)}",46988.8,2758.4
490.0,1,3,2,House,28 Williams Road,LAVERTON,3028.0,-37.862,144.7749,"Laverton P-12 College0.7 km awayPrep-12CoEdGovernmentView Catchment,Altona Meadows Primary School0.8 km awayPrep-6CoEdGovernmentMore Info,Seabrook Primary School2.4 km awayPrep-6CoEdGovernmentMore Info",False,213051363.0,"{'dist': 36.9924305221792, 'nearest_coord': (-37.542846, 144.8935799)}",46973.6,2774.6
470.0,1,2,1,House,4/44 Maher Road,LAVERTON,3028.0,-37.86326,144.77036,"Laverton P-12 College0.8 km awayPrep-12CoEdGovernmentView Catchment,Altona Meadows Primary School1 km awayPrep-6CoEdGovernmentMore Info,Seabrook Primary School2 km awayPrep-6CoEdGovernmentMore Info",False,213051363.0,"{'dist': 37.24113308195594, 'nearest_coord': (-37.542846, 144.8935799)}",51449.2,2727.9
460.0,1,3,2,House,184 Bladin Street,LAVERTON,3028.0,-37.862797,144.76942,"Laverton P-12 College0.8 km awayPrep-12CoEdGovernmentView Catchment,Altona Meadows Primary School1.1 km awayPrep-6CoEdGovernmentMore Info,Seabrook Primary School2.1 km awayPrep-6CoEdGovernmentMore Info",False,213051363.0,"{'dist': 37.21608041486096, 'nearest_coord': (-37.542846, 144.8935799)}",46549.4,2699.8
420.0,1,3,2,House,1 Whittaker Avenue,LAVERTON,3028.0,-37.849632,144.7721,"Laverton P-12 College0.7 km awayPrep-12CoEdGovernmentView Catchment,Altona Meadows Primary School2.2 km awayPrep-6CoEdGovernmentMore Info,Seabrook Primary School3.5 km awayPrep-6CoEdGovernmentMore Info",False,213051363.0,"{'dist': 35.74833697682337, 'nearest_coord': (-37.542846, 144.8935799)}",44922.6,2538.2
580.0,2,3,2,Apartment / Unit / Flat,2/26 Grace Street,LAVERTON,3028.0,-37.8661,144.77205,"Altona Meadows Primary School0.7 km awayPrep-6CoEdGovernmentView Catchment,Laverton P-12 College1.1 km awayPrep-12CoEdGovernmentView Catchment,Point Cook Senior Secondary College4.1 km away10-12CoEdGovernmentMore Info",False,213051363.0,"{'dist': 37.500645843479035, 'nearest_coord': (-37.542846, 144.8935799)}",49789.4,2580.5
700.0,3,4,2,House,6/15 Barwise Street,LAVERTON,3028.0,-37.852997,144.77489,"Laverton P-12 College0.4 km awayPrep-12CoEdGovernmentView Catchment,Altona Meadows Primary School1.8 km awayPrep-6CoEdGovernmentMore Info,Seabrook Primary School3.2 km awayPrep-6CoEdGovernmentMore Info",False,213051363.0,"{'dist': 36.03359162693584, 'nearest_coord': (-37.542846, 144.8935799)}",45443.3,2593.8
630.0,2,3,1,House,43 Robertson Crescent,LAVERTON,3028.0,-37.848183,144.77931,"Laverton P-12 College1.1 km awayPrep-12CoEdGovernmentView Catchment,Altona Meadows Primary School2.3 km awayPrep-6CoEdGovernmentMore Info,Seabrook Primary School3.9 km awayPrep-6CoEdGovernmentMore Info",False,213051363.0,"{'dist': 35.40932925715179, 'nearest_coord': (-37.542846, 144.8935799)}",44283.8,2496.1
560.0,2,3,2,House,2/32-34 Wackett Street,LAVERTON,3028.0,-37.853992,144.7704,"Laverton P-12 College0.3 km awayPrep-12CoEdGovernmentView Catchment,Altona Meadows Primary School1.8 km awayPrep-6CoEdGovernmentMore Info,Seabrook Primary School3 km awayPrep-6CoEdGovernmentMore Info",False,213051363.0,"{'dist': 36.25559592112664, 'nearest_coord': (-37.542846, 144.8935799)}",45478.9,2581.6
550.0,2,3,2,House,1/8 Eaton Parade,LAVERTON,3028.0,-37.853626,144.77167,"Laverton P-12 College0.3 km awayPrep-12CoEdGovernmentView Catchment,Altona Meadows Primary School1.8 km awayPrep-6CoEdGovernmentMore Info,Seabrook Primary School3.1 km awayPrep-6CoEdGovernmentMore Info",False,213051363.0,"{'dist': 36.183489938154494, 'nearest_coord': (-37.542846, 144.8935799)}",45545.0,2607.3
525.0,2,2,1,House,2/29 Wright Street,LAVERTON,3028.0,-37.86153,144.77278,"Laverton P-12 College0.6 km awayPrep-12CoEdGovernmentView Catchment,Altona Meadows Primary School1 km awayPrep-6CoEdGovernmentMore Info,Seabrook Primary School2.3 km awayPrep-6CoEdGovernmentMore Info",False,213051363.0,"{'dist': 36.995453119923496, 'nearest_coord': (-37.542846, 144.8935799)}",46631.6,2706.9
470.0,1,3,1,House,2/3 Charlesworth Street,LAVERTON,3028.0,-37.860035,144.77576,"Laverton P-12 College0.5 km awayPrep-12CoEdGovernmentView Catchment,Altona Meadows Primary School1 km awayPrep-6CoEdGovernmentMore Info,Seabrook Primary School2.6 km awayPrep-6CoEdGovernmentMore Info",False,213051363.0,"{'dist': 36.761501538183246, 'nearest_coord': (-37.542846, 144.8935799)}",47107.8,2775.5
470.0,1,3,4,House,5 Campbell Street,LAVERTON,3028.0,-37.854027,144.77588,"Laverton P-12 College0.4 km awayPrep-12CoEdGovernmentView Catchment,Altona Meadows Primary School1.6 km awayPrep-6CoEdGovernmentMore Info,Seabrook Primary School3.2 km awayPrep-6CoEdGovernmentMore Info",True,213051363.0,"{'dist': 36.11813252963871, 'nearest_coord': (-37.542846, 144.8935799)}",45482.5,2591.9
460.0,1,3,2,House,25 Grace Street,LAVERTON,3028.0,-37.86587,144.77293,"Altona Meadows Primary School0.7 km awayPrep-6CoEdGovernmentView Catchment,Laverton P-12 College1.1 km awayPrep-12CoEdGovernmentView Catchment,Point Cook Senior Secondary College4.2 km away10-12CoEdGovernmentMore Info",False,213051363.0,"{'dist': 37.45412490388991, 'nearest_coord': (-37.542846, 144.8935799)}",49796.5,2585.4
460.0,1,3,3,House,43 Fitzroy Street,LAVERTON,3028.0,-37.867195,144.7716,"Altona Meadows Primary School0.7 km awayPrep-6CoEdGovernmentView Catchment,Laverton P-12 College1.2 km awayPrep-12CoEdGovernmentView Catchment,Point Cook Senior Secondary College4 km away10-12CoEdGovernmentMore Info",False,213051363.0,"{'dist': 37.62861536203072, 'nearest_coord': (-37.542846, 144.8935799)}",49980.0,2596.8
440.0,1,3,1,House,29 Heffernan Street,LAVERTON,3028.0,-37.8638,144.76709,"Laverton P-12 College1 km awayPrep-12CoEdGovernmentView Catchment,Altona Meadows Primary School1.2 km awayPrep-6CoEdGovernmentMore Info,Seabrook Primary School1.9 km awayPrep-6CoEdGovernmentMore Info",False,213051363.0,"{'dist': 37.383195327673285, 'nearest_coord': (-37.542846, 144.8935799)}",51116.8,2681.3
450.0,1,3,4,House,9 Cobby Street,LAVERTON,3028.0,-37.859653,144.76758,"Laverton P-12 College0.6 km awayPrep-12CoEdGovernmentView Catchment,Altona Meadows Primary School1.4 km awayPrep-6CoEdGovernmentMore Info,Seabrook Primary School2.3 km awayPrep-6CoEdGovernmentMore Info",False,213051363.0,"{'dist': 36.9303596961098, 'nearest_coord': (-37.542846, 144.8935799)}",46544.2,2729.6
500.0,1,3,2,House,3A Maron Close,SEABROOK,3028.0,-37.88467,144.75612,"Seabrook Primary School0.7 km awayPrep-6CoEdGovernmentView Catchment,Carranballac P-9 College1.1 km awayPrep-9CoEdGovernmentView Catchment,Point Cook Senior Secondary College2.1 km away10-12CoEdGovernmentView Catchment",False,213021345.0,"{'dist': 39.88606890494801, 'nearest_coord': (-37.542846, 144.8935799)}",52795.1,2886.1
750.0,2,6,2,House,1 Seabrook Boulevard,SEABROOK,3028.0,-37.874786,144.75873,"Seabrook Primary School0.5 km awayPrep-6CoEdGovernmentView Catchment,Carranballac P-9 College1.8 km awayPrep-9CoEdGovernmentView Catchment,Point Cook Senior Secondary College2.6 km away10-12CoEdGovernmentView Catchment",False,213021345.0,"{'dist': 38.76954804304714, 'nearest_coord': (-37.542846, 144.8935799)}",51628.5,2755.1
600.0,2,4,2,House,20 Greylea Grove,SEABROOK,3028.0,-37.876118,144.76259,"Seabrook Primary School0.5 km awayPrep-6CoEdGovernmentView Catchment,Carranballac P-9 College2 km awayPrep-9CoEdGovernmentView Catchment,Point Cook Senior Secondary College2.9 km away10-12CoEdGovernmentView Catchment",False,213021345.0,"{'dist': 38.8083771577335, 'nearest_coord': (-37.542846, 144.8935799)}",52270.3,2847.1
585.0,2,3,2,House,120 Shane Avenue,SEABROOK,3028.0,-37.88161,144.75282,"Seabrook Primary School0.5 km awayPrep-6CoEdGovernmentView Catchment,Carranballac P-9 College0.9 km awayPrep-9CoEdGovernmentView Catchment,Point Cook Senior Secondary College1.8 km away10-12CoEdGovernmentView Catchment",False,213021345.0,"{'dist': 39.65172034029948, 'nearest_coord': (-37.542846, 144.8935799)}",52517.9,2884.1
550.0,2,3,2,House,59 St Anthony Court,SEABROOK,3028.0,-37.88104,144.75249,"Seabrook Primary School0.5 km awayPrep-6CoEdGovernmentView Catchment,Carranballac P-9 College0.9 km awayPrep-9CoEdGovernmentView Catchment,Point Cook Senior Secondary College1.8 km away10-12CoEdGovernmentView Catchment",False,213021345.0,"{'dist': 39.60061663479081, 'nearest_coord': (-37.542846, 144.8935799)}",52536.2,2886.8
395.0,2,3,2,House,123 Mossfiel Drive,HOPPERS CROSSING,3029.0,-37.867435,144.69011,"Hoppers Crossing Secondary College0.6 km away7-12CoEdGovernmentView Catchment,Mossfiel Primary School0.8 km awayPrep-6CoEdGovernmentView Catchment,St Peter Apostle School0.8 km awayPrep-6CoEdCatholicMore Info",False,213051362.0,"{'dist': 38.74763785981044, 'nearest_coord': (-37.5191919, 144.705837)}",45980.4,3271.0
500.0,1,4,4,House,45 Mossfiel Drive,HOPPERS CROSSING,3029.0,-37.87446,144.69344,"Mossfiel Primary School0.3 km awayPrep-6CoEdGovernmentView Catchment,Hoppers Crossing Secondary College0.4 km away7-12CoEdGovernmentView Catchment,St Peter Apostle School0.3 km awayPrep-6CoEdCatholicMore Info",False,213051362.0,"{'dist': 39.51912115060814, 'nearest_coord': (-37.5191919, 144.705837)}",46816.6,3383.5
450.0,1,3,1,Apartment / Unit / Flat,2/11A Moffatt Crescent,HOPPERS CROSSING,3029.0,-37.87739,144.69946,"Mossfiel Primary School0.6 km awayPrep-6CoEdGovernmentView Catchment,Hoppers Crossing Secondary College0.8 km away7-12CoEdGovernmentView Catchment,St Peter Apostle School0.9 km awayPrep-6CoEdCatholicMore Info",False,213051362.0,"{'dist': 39.83381918371802, 'nearest_coord': (-37.5191919, 144.705837)}",48249.7,3467.8
600.0,2,4,2,House,7 Mokhtar Drive,HOPPERS CROSSING,3029.0,-37.872837,144.71127,"Bellbridge Primary School0.3 km awayPrep-6CoEdGovernmentView Catchment,Hoppers Crossing Secondary College1.4 km away7-12CoEdGovernmentView Catchment,St Peter Apostle School1.9 km awayPrep-6CoEdCatholicMore Info",False,213051361.0,"{'dist': 39.32650181362176, 'nearest_coord': (-37.5191919, 144.705837)}",48659.5,3502.6
480.0,2,3,2,House,23 Bayview Crescent,HOPPERS CROSSING,3029.0,-37.871887,144.70622,"Bellbridge Primary School0.4 km awayPrep-6CoEdGovernmentView Catchment,Hoppers Crossing Secondary College1 km away7-12CoEdGovernmentView Catchment,St Peter Apostle School1.4 km awayPrep-6CoEdCatholicMore Info",False,213051361.0,"{'dist': 39.217975651341, 'nearest_coord': (-37.5191919, 144.705837)}",48361.6,3498.2
480.0,2,3,2,Apartment / Unit / Flat,13B Barber Drive,HOPPERS CROSSING,3029.0,-37.87028,144.68225,"Cambridge Primary School0.7 km awayPrep-6CoEdGovernmentView Catchment,Hoppers Crossing Secondary College1.2 km away7-12CoEdGovernmentView Catchment,St Peter Apostle School0.9 km awayPrep-6CoEdCatholicMore Info",False,213051362.0,"{'dist': 39.09439390444077, 'nearest_coord': (-37.5191919, 144.705837)}",45978.9,3240.4
650.0,2,3,12,House,797 Sayers Road,HOPPERS CROSSING,3029.0,-37.84678,144.67026,"Tarneit Rise Primary School1.3 km awayPrep-6CoEdGovernmentView Catchment,The Grange P-12 College1.3 km awayPrep-12CoEdGovernmentView Catchment,Tarneit Senior College1.7 km away10-12CoEdGovernmentMore Info",False,213051361.0,"{'dist': 36.560481458600925, 'nearest_coord': (-37.5191919, 144.705837)}",45256.8,3146.2
600.0,2,4,2,House,Kenmore Close,HOPPERS CROSSING,3029.0,-37.8678,144.6672,"Cambridge Primary School0.7 km awayPrep-6CoEdGovernmentView Catchment,The Grange P-12 College1.3 km awayPrep-12CoEdGovernmentView Catchment,Hoppers Crossing Secondary College2.5 km away7-12CoEdGovernmentMore Info",False,213051362.0,"{'dist': 38.912293211764926, 'nearest_coord': (-37.5191919, 144.705837)}",47535.9,3399.7
560.0,2,4,2,House,2 Bottlebrush Drive,HOPPERS CROSSING,3029.0,-37.859295,144.68405,"Baden Powell P-9 College0.6 km awayPrep-9CoEdGovernmentView Catchment,The Grange P-12 College0.8 km awayPrep-12CoEdGovernmentView Catchment,Cambridge Primary School1.2 km awayPrep-6CoEdGovernmentMore Info",False,213051361.0,"{'dist': 37.86635304682364, 'nearest_coord': (-37.5191919, 144.705837)}",44899.3,3154.3
530.0,2,4,2,House,157 Morris Road,HOPPERS CROSSING,3029.0,-37.871246,144.70233,"Mossfiel Primary School0.6 km awayPrep-6CoEdGovernmentView Catchment,Hoppers Crossing Secondary College0.6 km away7-12CoEdGovernmentView Catchment,St Peter Apostle School1.1 km awayPrep-6CoEdCatholicMore Info",False,213051362.0,"{'dist': 39.14790120330683, 'nearest_coord': (-37.5191919, 144.705837)}",47370.7,3371.6
520.0,2,3,1,House,8 Snowgum Court,HOPPERS CROSSING,3029.0,-37.85891,144.68384,"Baden Powell P-9 College0.6 km awayPrep-9CoEdGovernmentView Catchment,The Grange P-12 College0.8 km awayPrep-12CoEdGovernmentView Catchment,Cambridge Primary School1.2 km awayPrep-6CoEdGovernmentMore Info",False,213051361.0,"{'dist': 37.82453924426406, 'nearest_coord': (-37.5191919, 144.705837)}",45020.9,3171.8
500.0,1,3,2,House,12 Betula Rise,HOPPERS CROSSING,3029.0,-37.859055,144.71553,"Truganina South Primary School1.1 km awayPrep-6CoEdGovernmentView Catchment,Hoppers Crossing Secondary College2.2 km away7-12CoEdGovernmentView Catchment,Al-Taqwa College0.9 km awayPrep-12CoEdPrivateMore Info",False,213051361.0,"{'dist': 37.80072940154902, 'nearest_coord': (-37.5191919, 144.705837)}",46836.2,3422.7
500.0,2,4,1,House,121 Morris Road,HOPPERS CROSSING,3029.0,-37.87458,144.70175,"Mossfiel Primary School0.5 km awayPrep-6CoEdGovernmentView Catchment,Hoppers Crossing Secondary College0.7 km away7-12CoEdGovernmentView Catchment,St Peter Apostle School1 km awayPrep-6CoEdCatholicMore Info",False,213051362.0,"{'dist': 39.519045536659185, 'nearest_coord': (-37.5191919, 144.705837)}",47744.5,3407.7
500.0,1,3,5,House,60 Baden Drive,HOPPERS CROSSING,3029.0,-37.8837,144.69595,"Woodville Primary School0.3 km awayPrep-6CoEdGovernmentView Catchment,Hoppers Crossing Secondary College1.4 km away7-12CoEdGovernmentView Catchment,St Peter Apostle School1.1 km awayPrep-6CoEdCatholicMore Info",False,213051362.0,"{'dist': 40.540841344603784, 'nearest_coord': (-37.5191919, 144.705837)}",48444.5,3537.4
490.0,2,3,0,House,14 Breton Drive,HOPPERS CROSSING,3029.0,-37.856075,144.67085,"The Grange P-12 College0.4 km awayPrep-12CoEdGovernmentView Catchment,Davis Creek Primary School0.9 km awayPrep-6CoEdGovernmentMore Info,Cambridge Primary School1.3 km awayPrep-6CoEdGovernmentMore Info",False,213051361.0,"{'dist': 37.58604296020512, 'nearest_coord': (-37.5191919, 144.705837)}",46900.1,3358.8
475.0,1,3,2,House,15 Strathmore Crescent,HOPPERS CROSSING,3029.0,-37.88067,144.68623,"Woodville Primary School0.6 km awayPrep-6CoEdGovernmentView Catchment,Hoppers Crossing Secondary College1.3 km away7-12CoEdGovernmentView Catchment,Heathdale Christian College0.4 km awayPrep-12CoEdPrivateMore Info",False,213051362.0,"{'dist': 40.23158670045922, 'nearest_coord': (-37.5191919, 144.705837)}",47280.2,3430.3
470.0,1,4,1,House,18 Moffatt Crescent,HOPPERS CROSSING,3029.0,-37.877403,144.69838,"Mossfiel Primary School0.5 km awayPrep-6CoEdGovernmentView Catchment,Hoppers Crossing Secondary College0.7 km away7-12CoEdGovernmentView Catchment,St Peter Apostle School0.8 km awayPrep-6CoEdCatholicMore Info",False,213051362.0,"{'dist': 39.83671619081106, 'nearest_coord': (-37.5191919, 144.705837)}",48336.2,3480.3
460.0,1,3,2,House,15 Arundel Court,HOPPERS CROSSING,3029.0,-37.866634,144.70996,"Bellbridge Primary School0.4 km awayPrep-6CoEdGovernmentView Catchment,Hoppers Crossing Secondary College1.4 km away7-12CoEdGovernmentView Catchment,Al-Taqwa College1.9 km awayPrep-12CoEdPrivateMore Info",False,213051361.0,"{'dist': 38.63555660783244, 'nearest_coord': (-37.5191919, 144.705837)}",47572.3,3417.9
4601999.0,1,3,1,House,182 Morris Road,HOPPERS CROSSING,3029.0,-37.868286,144.70357,"Bellbridge Primary School0.7 km awayPrep-6CoEdGovernmentView Catchment,Hoppers Crossing Secondary College0.8 km away7-12CoEdGovernmentView Catchment,St Peter Apostle School1.4 km awayPrep-6CoEdCatholicMore Info",False,213051361.0,"{'dist': 38.818060162225045, 'nearest_coord': (-37.5191919, 144.705837)}",47117.6,3336.9
4601999.0,1,3,1,House,25 Virgilia Drive,HOPPERS CROSSING,3029.0,-37.85846,144.68417,"Baden Powell P-9 College0.6 km awayPrep-9CoEdGovernmentView Catchment,The Grange P-12 College0.8 km awayPrep-12CoEdGovernmentView Catchment,Cambridge Primary School1.2 km awayPrep-6CoEdGovernmentMore Info",False,213051361.0,"{'dist': 37.773090631761654, 'nearest_coord': (-37.5191919, 144.705837)}",44961.9,3157.2
450.0,1,3,3,House,4 Grange Court,HOPPERS CROSSING,3029.0,-37.88617,144.68286,"Wyndham Park Primary School0.5 km awayPrep-6CoEdGovernmentView Catchment,Hoppers Crossing Secondary College2 km away7-12CoEdGovernmentView Catchment,Heathdale Christian College0.6 km awayPrep-12CoEdPrivateMore Info",False,213051362.0,"{'dist': 40.856198414658316, 'nearest_coord': (-37.5191919, 144.705837)}",47885.7,3463.2
440.0,1,3,2,House,3 Victor Court,HOPPERS CROSSING,3029.0,-37.879726,144.68462,"Woodville Primary School0.8 km awayPrep-6CoEdGovernmentView Catchment,Hoppers Crossing Secondary College1.3 km away7-12CoEdGovernmentView Catchment,Heathdale Christian College0.3 km awayPrep-12CoEdPrivateMore Info",False,213051362.0,"{'dist': 40.13305472421832, 'nearest_coord': (-37.5191919, 144.705837)}",47126.6,3408.2
420.0,2,3,2,House,17 Hunter Avenue,HOPPERS CROSSING,3029.0,-37.869682,144.68808,"Hoppers Crossing Secondary College0.7 km away7-12CoEdGovernmentView Catchment,Mossfiel Primary School0.8 km awayPrep-6CoEdGovernmentView Catchment,St Peter Apostle School0.6 km awayPrep-6CoEdCatholicMore Info",False,213051362.0,"{'dist': 39.004080344755614, 'nearest_coord': (-37.5191919, 144.705837)}",46050.5,3283.8
420.0,1,3,1,House,1/16 Angela Drive,HOPPERS CROSSING,3029.0,-37.868664,144.71518,"Bellbridge Primary School0.4 km awayPrep-6CoEdGovernmentView Catchment,Hoppers Crossing Secondary College1.8 km away7-12CoEdGovernmentView Catchment,Al-Taqwa College1.9 km awayPrep-12CoEdPrivateMore Info",False,213051361.0,"{'dist': 38.86827368565851, 'nearest_coord': (-37.5191919, 144.705837)}",48790.7,3552.4
380.0,1,2,1,House,3/1 Smeaton Avenue,HOPPERS CROSSING,3029.0,-37.875122,144.69258,"Mossfiel Primary School0.4 km awayPrep-6CoEdGovernmentView Catchment,Hoppers Crossing Secondary College0.5 km away7-12CoEdGovernmentView Catchment,St Peter Apostle School0.2 km awayPrep-6CoEdCatholicMore Info",False,213051362.0,"{'dist': 39.59486089967518, 'nearest_coord': (-37.5191919, 144.705837)}",46929.6,3414.6
500.0,2,3,2,House,11 Farnborough Place,HOPPERS CROSSING,3029.0,-37.86644,144.66718,"Cambridge Primary School0.8 km awayPrep-6CoEdGovernmentView Catchment,The Grange P-12 College1.1 km awayPrep-12CoEdGovernmentView Catchment,Hoppers Crossing Secondary College2.5 km away7-12CoEdGovernmentMore Info",False,213051362.0,"{'dist': 38.76180550458033, 'nearest_coord': (-37.5191919, 144.705837)}",47506.5,3395.5
460.0,1,3,2,House,12 Bolger Crescent,HOPPERS CROSSING,3029.0,-37.873425,144.70003,"Mossfiel Primary School0.4 km awayPrep-6CoEdGovernmentView Catchment,Hoppers Crossing Secondary College0.5 km away7-12CoEdGovernmentView Catchment,St Peter Apostle School0.9 km awayPrep-6CoEdCatholicMore Info",False,213051362.0,"{'dist': 39.392292732528915, 'nearest_coord': (-37.5191919, 144.705837)}",47808.0,3427.1
300.0,1,1,1,House,28A Smeaton Avenue,HOPPERS CROSSING,3029.0,-37.873337,144.6923,"Mossfiel Primary School0.3 km awayPrep-6CoEdGovernmentView Catchment,Hoppers Crossing Secondary College0.4 km away7-12CoEdGovernmentView Catchment,St Peter Apostle School0.2 km awayPrep-6CoEdCatholicMore Info",False,213051362.0,"{'dist': 39.397201743890705, 'nearest_coord': (-37.5191919, 144.705837)}",46739.4,3387.2
10000149330801.0,2,4,4,House,5 Leatherwood Drive,HOPPERS CROSSING,3029.0,-37.85116,144.69843,"Baden Powell P-9 College-Tarneit Campus1 km awayGovernmentView Catchment,Baden Powell P-9 College1.2 km awayPrep-9CoEdGovernmentView Catchment,Tarneit Senior College2.6 km away10-12CoEdGovernmentView Catchment",False,213051361.0,"{'dist': 36.91897479073396, 'nearest_coord': (-37.5191919, 144.705837)}",44447.0,3158.8
600.0,2,4,2,House,78 Morris road,HOPPERS CROSSING,3029.0,-37.876743,144.7022,"Mossfiel Primary School0.7 km awayPrep-6CoEdGovernmentView Catchment,Hoppers Crossing Secondary College0.9 km away7-12CoEdGovernmentView Catchment,St Peter Apostle School1.1 km awayPrep-6CoEdCatholicMore Info",False,213051361.0,"{'dist': 39.75921220200403, 'nearest_coord': (-37.5191919, 144.705837)}",48118.1,3440.0
595.0,2,4,5,House,37 Cleveland Drive,HOPPERS CROSSING,3029.0,-37.86519,144.668,"Cambridge Primary School0.7 km awayPrep-6CoEdGovernmentView Catchment,The Grange P-12 College1 km awayPrep-12CoEdGovernmentView Catchment,Hoppers Crossing Secondary College2.5 km away7-12CoEdGovernmentMore Info",False,213051362.0,"{'dist': 38.617065127456485, 'nearest_coord': (-37.5191919, 144.705837)}",47654.6,3416.8
530.0,2,3,1,House,32A Dowling Avenue,HOPPERS CROSSING,3029.0,-37.866493,144.67877,"Cambridge Primary School0.3 km awayPrep-6CoEdGovernmentView Catchment,The Grange P-12 College1 km awayPrep-12CoEdGovernmentView Catchment,Hoppers Crossing Secondary College1.5 km away7-12CoEdGovernmentMore Info",False,213051362.0,"{'dist': 38.69154106578681, 'nearest_coord': (-37.5191919, 144.705837)}",46411.8,3318.8
520.0,2,3,4,House,5 LORENA CLOSE,HOPPERS CROSSING,3029.0,-37.87518,144.66966,"Westgrove Primary School1 km awayPrep-6CoEdGovernmentView Catchment,The Grange P-12 College1.9 km awayPrep-12CoEdGovernmentView Catchment,Wyndham Central Secondary College2.1 km away7-12CoEdGovernmentMore Info",False,213051362.0,"{'dist': 39.711891716115005, 'nearest_coord': (-37.5191919, 144.705837)}",48024.4,3431.8
500.0,2,4,2,House,16 Kathleen Cres,HOPPERS CROSSING,3029.0,-37.874767,144.66641,"Westgrove Primary School0.8 km awayPrep-6CoEdGovernmentView Catchment,Wyndham Central Secondary College1.9 km away7-12CoEdGovernmentView Catchment,Bethany Catholic Primary School0.7 km awayPrep-6CoEdCatholicMore Info",False,213051362.0,"{'dist': 39.690085692628, 'nearest_coord': (-37.5191919, 144.705837)}",48028.7,3432.4
500.0,2,3,1,House,27 Oleander Drive,HOPPERS CROSSING,3029.0,-37.86628,144.67255,"Cambridge Primary School0.3 km awayPrep-6CoEdGovernmentView Catchment,The Grange P-12 College0.9 km awayPrep-12CoEdGovernmentView Catchment,Hoppers Crossing Secondary College2.1 km away7-12CoEdGovernmentMore Info",False,213051362.0,"{'dist': 38.705464284307396, 'nearest_coord': (-37.5191919, 144.705837)}",46678.0,3358.4
490.0,1,3,1,House,21 Yarrabee Drive,HOPPERS CROSSING,3029.0,-37.88065,144.68483,"Woodville Primary School0.7 km awayPrep-6CoEdGovernmentView Catchment,Hoppers Crossing Secondary College1.4 km away7-12CoEdGovernmentView Catchment,Heathdale Christian College0.3 km awayPrep-12CoEdPrivateMore Info",False,213051362.0,"{'dist': 40.2348346053094, 'nearest_coord': (-37.5191919, 144.705837)}",47204.5,3419.4
490.0,2,3,2,House,5 Amy Close,HOPPERS CROSSING,3029.0,-37.87555,144.6703,"Westgrove Primary School1 km awayPrep-6CoEdGovernmentView Catchment,The Grange P-12 College2 km awayPrep-12CoEdGovernmentView Catchment,Wyndham Central Secondary College2.1 km away7-12CoEdGovernmentMore Info",False,213051362.0,"{'dist': 39.74843207398115, 'nearest_coord': (-37.5191919, 144.705837)}",47878.8,3433.9
480.0,2,5,0,House,10 Fairway Avenue,HOPPERS CROSSING,3029.0,-37.88319,144.69406,"Woodville Primary School0.2 km awayPrep-6CoEdGovernmentView Catchment,Hoppers Crossing Secondary College1.3 km away7-12CoEdGovernmentView Catchment,St Peter Apostle School1 km awayPrep-6CoEdCatholicMore Info",False,213051362.0,"{'dist': 40.48805894619364, 'nearest_coord': (-37.5191919, 144.705837)}",48375.0,3529.7
480.0,2,4,2,House,17 Baggot Drive,HOPPERS CROSSING,3029.0,-37.874733,144.68576,"Mossfiel Primary School0.9 km awayPrep-6CoEdGovernmentView Catchment,Hoppers Crossing Secondary College0.9 km away7-12CoEdGovernmentView Catchment,St Peter Apostle School0.4 km awayPrep-6CoEdCatholicMore Info",False,213051362.0,"{'dist': 39.573866014952316, 'nearest_coord': (-37.5191919, 144.705837)}",46932.7,3385.6
460.0,1,3,3,House,13 Woolpack Street,HOPPERS CROSSING,3029.0,-37.869072,144.66873,"Cambridge Primary School0.6 km awayPrep-6CoEdGovernmentView Catchment,The Grange P-12 College1.3 km awayPrep-12CoEdGovernmentView Catchment,Hoppers Crossing Secondary College2.3 km away7-12CoEdGovernmentMore Info",False,213051362.0,"{'dist': 39.04170376185482, 'nearest_coord': (-37.5191919, 144.705837)}",47939.4,3441.3
460.0,1,3,2,House,10 George Greeves Place,HOPPERS CROSSING,3029.0,-37.870056,144.66628,"Cambridge Primary School0.9 km awayPrep-6CoEdGovernmentView Catchment,The Grange P-12 College1.5 km awayPrep-12CoEdGovernmentView Catchment,Wyndham Central Secondary College2.4 km away7-12CoEdGovernmentMore Info",False,213051362.0,"{'dist': 39.169301503290626, 'nearest_coord': (-37.5191919, 144.705837)}",47909.8,3437.0
460.0,1,3,4,House,94 Heaths Road,HOPPERS CROSSING,3029.0,-37.878708,144.69675,"Mossfiel Primary School0.6 km awayPrep-6CoEdGovernmentView Catchment,Hoppers Crossing Secondary College0.8 km away7-12CoEdGovernmentView Catchment,St Peter Apostle School0.7 km awayPrep-6CoEdCatholicMore Info",False,213051362.0,"{'dist': 39.984416424752226, 'nearest_coord': (-37.5191919, 144.705837)}",48673.6,3487.4
450.0,1,3,0,House,3 Geddes Crescent,HOPPERS CROSSING,3029.0,-37.877514,144.68524,"Woodville Primary School0.9 km awayPrep-6CoEdGovernmentView Catchment,Hoppers Crossing Secondary College1.1 km away7-12CoEdGovernmentView Catchment,Heathdale Christian College0.5 km awayPrep-12CoEdPrivateMore Info",False,213051362.0,"{'dist': 39.88484472012753, 'nearest_coord': (-37.5191919, 144.705837)}",46902.0,3382.6
450.0,1,3,2,House,137 Heaths Road,HOPPERS CROSSING,3029.0,-37.878975,144.69315,"Woodville Primary School0.5 km awayPrep-6CoEdGovernmentView Catchment,Hoppers Crossing Secondary College0.9 km away7-12CoEdGovernmentView Catchment,St Peter Apostle School0.5 km awayPrep-6CoEdCatholicMore Info",False,213051362.0,"{'dist': 40.02168066323901, 'nearest_coord': (-37.5191919, 144.705837)}",47591.1,3422.7
440.0,1,3,1,House,53 Hampstead Drive,HOPPERS CROSSING,3029.0,-37.88225,144.69101,"Woodville Primary School0.2 km awayPrep-6CoEdGovernmentView Catchment,Hoppers Crossing Secondary College1.3 km away7-12CoEdGovernmentView Catchment,St Peter Apostle School0.8 km awayPrep-6CoEdCatholicMore Info",False,213051362.0,"{'dist': 40.39134553847965, 'nearest_coord': (-37.5191919, 144.705837)}",47823.0,3483.5
440.0,1,3,1,House,1/5 Gill Place,HOPPERS CROSSING,3029.0,-37.855515,144.70421,"Baden Powell P-9 College1.3 km awayPrep-9CoEdGovernmentView Catchment,Baden Powell P-9 College-Tarneit Campus1.7 km awayGovernmentView Catchment,Tarneit Senior College3.3 km away10-12CoEdGovernmentView Catchment",False,213051361.0,"{'dist': 37.39774930382833, 'nearest_coord': (-37.5191919, 144.705837)}",45899.0,3280.0
420.0,2,3,1,Apartment / Unit / Flat,1/5 Second Avenue,HOPPERS CROSSING,3029.0,-37.881763,144.69852,"Woodville Primary School0.6 km awayPrep-6CoEdGovernmentView Catchment,Hoppers Crossing Secondary College1.2 km away7-12CoEdGovernmentView Catchment,St Peter Apostle School1.1 km awayPrep-6CoEdCatholicMore Info",False,213051362.0,"{'dist': 40.3212629502851, 'nearest_coord': (-37.5191919, 144.705837)}",52457.2,3515.5
400.0,2,3,1,House,39 Bethany road,HOPPERS CROSSING,3029.0,-37.857628,144.6785,"The Grange P-12 College0.3 km awayPrep-12CoEdGovernmentView Catchment,Cambridge Primary School1.1 km awayPrep-6CoEdGovernmentMore Info,Davis Creek Primary School1.6 km awayPrep-6CoEdGovernmentMore Info",False,213051361.0,"{'dist': 37.70923172942756, 'nearest_coord': (-37.5191919, 144.705837)}",45772.1,3244.6
320.0,1,1,0,Studio,7/20 Warringa Crescent,HOPPERS CROSSING,3029.0,-37.881916,144.69376,"Woodville Primary School0.2 km awayPrep-6CoEdGovernmentView Catchment,Hoppers Crossing Secondary College1.2 km away7-12CoEdGovernmentView Catchment,St Peter Apostle School0.9 km awayPrep-6CoEdCatholicMore Info",False,213051362.0,"{'dist': 40.34712963600458, 'nearest_coord': (-37.5191919, 144.705837)}",48328.8,3523.1
320.0,1,1,0,Studio,5/25 Moffatt Crescent,HOPPERS CROSSING,3029.0,-37.87796,144.69812,"Mossfiel Primary School0.6 km awayPrep-6CoEdGovernmentView Catchment,Hoppers Crossing Secondary College0.8 km away7-12CoEdGovernmentView Catchment,St Peter Apostle School0.8 km awayPrep-6CoEdCatholicMore Info",False,213051362.0,"{'dist': 39.899026130861664, 'nearest_coord': (-37.5191919, 144.705837)}",47504.0,3475.5
320.0,1,1,1,Studio,4/25 Moffatt Crescent,HOPPERS CROSSING,3029.0,-37.87796,144.69812,"Mossfiel Primary School0.6 km awayPrep-6CoEdGovernmentView Catchment,Hoppers Crossing Secondary College0.8 km away7-12CoEdGovernmentView Catchment,St Peter Apostle School0.8 km awayPrep-6CoEdCatholicMore Info",False,213051362.0,"{'dist': 39.899026130861664, 'nearest_coord': (-37.5191919, 144.705837)}",47504.0,3475.5
315.0,1,1,0,Studio,4/20 Warringa Crescent,HOPPERS CROSSING,3029.0,-37.881916,144.69376,"Woodville Primary School0.2 km awayPrep-6CoEdGovernmentView Catchment,Hoppers Crossing Secondary College1.2 km away7-12CoEdGovernmentView Catchment,St Peter Apostle School0.9 km awayPrep-6CoEdCatholicMore Info",False,213051362.0,"{'dist': 40.34712963600458, 'nearest_coord': (-37.5191919, 144.705837)}",48328.8,3523.1
550.0,2,4,2,House,27 Ethio Street,TARNEIT,3029.0,-37.81312,144.67198,"Tarneit Senior College2.3 km away10-12CoEdGovernmentView Catchment,Tarneit P-9 College2.7 km awayPrep-9CoEdGovernmentView Catchment,Wimba Primary School1.3 km awayGovernmentMore Info",False,213051584.0,"{'dist': 32.81894217360133, 'nearest_coord': (-37.5191919, 144.705837)}",41641.2,2857.6
5202260.0,2,4,2,House,4 Allambie Street,TARNEIT,3029.0,-37.83309,144.65886,"Tarneit Rise Primary School0.7 km awayPrep-6CoEdGovernmentView Catchment,Tarneit Senior College1.8 km away10-12CoEdGovernmentView Catchment,Tarneit P-9 College2 km awayPrep-9CoEdGovernmentView Catchment",False,213051583.0,"{'dist': 35.147929469912846, 'nearest_coord': (-37.5191919, 144.705837)}",44932.8,3161.8
530.0,2,3,2,Townhouse,422 Bethany Road,TARNEIT,3029.0,-37.85252,144.6479,"Karwan Primary School0.2 km awayPrep-6CoEdGovernmentView Catchment,The Grange P-12 College2.5 km awayPrep-12CoEdGovernmentView Catchment,Brinbeal Secondary College0.6 km awayGovernmentMore Info",False,213051582.0,"{'dist': 37.413438802049676, 'nearest_coord': (-37.5191919, 144.705837)}",47905.9,3416.4
500.0,2,4,2,House,670 Tarneit Road,TARNEIT,3029.0,-37.84996,144.66838,"Davis Creek Primary School1 km awayPrep-6CoEdGovernmentView Catchment,The Grange P-12 College1.1 km awayPrep-12CoEdGovernmentView Catchment,Tarneit Senior College2.1 km away10-12CoEdGovernmentMore Info",False,213051585.0,"{'dist': 36.92718887084007, 'nearest_coord': (-37.5191919, 144.705837)}",45573.2,3187.6
500.0,2,3,1,House,6 Primary Road,TARNEIT,3029.0,-37.821693,144.666,"Tarneit Senior College1.7 km away10-12CoEdGovernmentView Catchment,Tarneit P-9 College2.1 km awayPrep-9CoEdGovernmentView Catchment,Wimba Primary School0.4 km awayGovernmentMore Info",False,213051584.0,"{'dist': 33.81888560031694, 'nearest_coord': (-37.5191919, 144.705837)}",43210.7,2948.3
650.0,2,4,2,House,15 Leeward Drive,TARNEIT,3029.0,-37.861088,144.64655,"Karwan Primary School0.9 km awayPrep-6CoEdGovernmentView Catchment,The Grange P-12 College2.5 km awayPrep-12CoEdGovernmentView Catchment,Brinbeal Secondary College0.8 km awayGovernmentMore Info",False,213051582.0,"{'dist': 38.37342013869596, 'nearest_coord': (-37.5191919, 144.705837)}",49184.2,3592.3
620.0,2,4,2,House,12 Rainone Place,TARNEIT,3029.0,-37.86892,144.66455,"Cambridge Primary School1 km awayPrep-6CoEdGovernmentView Catchment,The Grange P-12 College1.5 km awayPrep-12CoEdGovernmentView Catchment,Wyndham Central Secondary College2.4 km away7-12CoEdGovernmentMore Info",False,213051585.0,"{'dist': 39.057351073977266, 'nearest_coord': (-37.5191919, 144.705837)}",47591.5,3405.5
600.0,2,4,0,House,24 Orientation Avenue,TARNEIT,3029.0,-37.824005,144.67035,"Tarneit Senior College1.3 km away10-12CoEdGovernmentView Catchment,Tarneit P-9 College1.7 km awayPrep-9CoEdGovernmentView Catchment,Wimba Primary School0.1 km awayGovernmentMore Info",False,213051584.0,"{'dist': 34.03732319001591, 'nearest_coord': (-37.5191919, 144.705837)}",43003.1,2930.1
600.0,2,4,1,House,1067A Leakes Road,TARNEIT,3029.0,-37.830296,144.65536,"Tarneit Rise Primary School1.1 km awayPrep-6CoEdGovernmentView Catchment,Tarneit Senior College2.1 km away10-12CoEdGovernmentView Catchment,Tarneit P-9 College2.3 km awayPrep-9CoEdGovernmentView Catchment",True,213051583.0,"{'dist': 34.87733158906467, 'nearest_coord': (-37.5191919, 144.705837)}",45092.8,3148.2
575.0,2,4,2,House,33 Edifice Drive,TARNEIT,3029.0,-37.820328,144.6843,"Nearnung Primary School0.6 km awayPrep-6CoEdGovernmentView Catchment,Tarneit Senior College1.5 km away10-12CoEdGovernmentView Catchment,Tarneit P-9 College1.8 km awayPrep-9CoEdGovernmentView Catchment",False,213051584.0,"{'dist': 33.53846626751106, 'nearest_coord': (-37.5191919, 144.705837)}",41588.6,2871.5
560.0,2,4,2,House,18 Bunnorong Street,TARNEIT,3029.0,-37.83577,144.68835,"Tarneit P-9 College0.7 km awayPrep-9CoEdGovernmentView Catchment,Tarneit Senior College0.8 km away10-12CoEdGovernmentView Catchment,Nearnung Primary School1.3 km awayPrep-6CoEdGovernmentMore Info",False,213051583.0,"{'dist': 35.23555292700646, 'nearest_coord': (-37.5191919, 144.705837)}",42605.5,2963.6
575.0,2,4,2,House,64 Gowar road,TARNEIT,3029.0,-37.82976,144.68152,"Tarneit Senior College0.4 km away10-12CoEdGovernmentView Catchment,Nearnung Primary School0.5 km awayPrep-6CoEdGovernmentView Catchment,Tarneit P-9 College0.8 km awayPrep-9CoEdGovernmentView Catchment",False,213051584.0,"{'dist': 34.59989753029479, 'nearest_coord': (-37.5191919, 144.705837)}",42856.0,3023.5
550.0,2,3,2,House,42 Samaria Street,TARNEIT,3029.0,-37.838783,144.68285,"Tarneit P-9 College0.3 km awayPrep-9CoEdGovernmentView Catchment,Tarneit Senior College0.7 km away10-12CoEdGovernmentView Catchment,Nearnung Primary School1.5 km awayPrep-6CoEdGovernmentMore Info",False,213051583.0,"{'dist': 35.594491914021035, 'nearest_coord': (-37.5191919, 144.705837)}",42996.5,3019.9
